imu.roll,imu.pitchrate,imu.heel,ap.mode,ap.wind_angle,imu.headingrate,ap.true_wind_angle,imu.pitch,imu.rollrate,rudder.angle,wind.speed,ap.true_wind_speed,ap.heading_error,ap.heading,gps.speed,timestamp,ap.enabled,ap.vmg,ap.cmg,sow.speed,imu.accel_X,imu.accel_Y,imu.accel_Z,rudder.speed,imu.heading,gps.track,perf.quality_flag,perf.boat_config.Main,perf.boat_config.jib,perf.boat_config.spi,perf.boat_config.weight
-1.389,0.112,-1.333,compass,-75.964,0.112,4.179,-1.273,0.448,-10.38,0.0,0.2446567206099681,-57.174,342.334,0.031,23497.268,False,0.030830238688402865,0.016860979141427455,0.5,-0.09,-0.316,-9.875,-0.022,342.334,169.078,True,0,1,0,0
-1.389,0.0,-1.335,compass,90.0,-0.224,4.599,-1.272,-0.112,-10.38,0.0,0.21079959725133746,-57.203,342.305,0.031,23497.368,False,0.030855258198158843,0.01684787596171799,0.5,-0.09,-0.277,-9.879,-0.022,342.305,169.078,True,0,1,0,0
-1.382,-0.224,-1.336,compass,-153.434,-0.112,-0.259,-1.271,0.112,-10.34,0.0,0.21177871868716977,-57.239,342.269,0.082,23497.468,False,0.08160850022025562,0.044182862351298875,0.5,-0.09,-0.277,-9.879,-0.007,342.269,169.078,True,0,1,0,0
-1.381,-0.112,-1.337,compass,101.309,-0.448,0.12,-1.277,-0.56,-10.34,0.0,0.25105637486974913,-57.282,342.226,0.082,23497.568,False,0.08161297561452124,0.04413171815498953,0.5,-0.09,-0.277,-9.879,-0.007,342.226,169.078,True,0,1,0,0
-1.367,-0.112,-1.339,compass,-108.434,-0.112,-10.995,-1.274,0.336,-10.38,0.0,0.23348231357815621,-57.352,342.156,0.043,23497.768,False,-0.027959111092869384,0.023072395394362483,0.5,-0.129,-0.316,-9.875,-0.019,342.156,169.078,True,0,1,0,0
-1.367,-0.112,-1.339,compass,-108.434,-0.112,-10.995,-1.274,0.336,-10.38,0.0,0.23348231357815621,-57.352,342.156,0.043,23497.768,False,-0.027959111092869384,0.023072395394362483,0.5,-0.129,-0.316,-9.875,-0.019,342.156,169.078,True,0,1,0,0
-1.33,0.0,-1.339,compass,-90.0,-0.112,-21.763,-1.281,0.112,-10.38,0.0,0.2263281202699027,-57.409,342.099,0.062,23497.968,False,-0.05618448633049181,0.03350760584592053,0.5,-0.129,-0.355,-9.914,-0.017,342.099,169.078,True,0,1,0,0
-1.33,0.0,-1.339,compass,-90.0,-0.112,-21.763,-1.281,0.112,-10.38,0.0,0.2263281202699027,-57.409,342.099,0.062,23497.968,False,-0.05618448633049181,0.03350760584592053,0.5,-0.129,-0.355,-9.914,-0.017,342.099,169.078,True,0,1,0,0
-1.273,0.112,-1.336,compass,63.435,-0.56,-27.469,-1.279,-0.224,-10.38,0.0,0.22138183008963275,-57.439,342.069,0.066,23498.168,False,-0.0207701045268914,0.03557298707340356,0.5,-0.09,-0.316,-9.875,-0.017,342.069,169.078,True,0,1,0,0
-1.273,0.112,-1.336,compass,63.435,-0.56,-27.469,-1.279,-0.224,-10.38,0.0,0.22138183008963275,-57.439,342.069,0.066,23498.168,False,-0.0207701045268914,0.03557298707340356,0.5,-0.09,-0.316,-9.875,-0.017,342.069,169.078,True,0,1,0,0
-1.228,0.112,-1.33,compass,-45.0,-0.56,-27.32,-1.25,0.112,-10.38,0.0,0.20585041561462558,-57.475,342.033,0.064,23498.368,False,0.014927777006162516,0.034492810070172304,0.49,-0.051,-0.355,-9.918,-0.016,342.033,169.078,True,0,1,0,0
-1.228,0.112,-1.33,compass,-45.0,-0.56,-27.32,-1.25,0.112,-10.38,0.0,0.20585041561462558,-57.475,342.033,0.064,23498.368,False,0.014927777006162516,0.034492810070172304,0.49,-0.051,-0.355,-9.918,-0.016,342.033,169.078,True,0,1,0,0
-1.196,0.112,-1.322,compass,-75.964,-0.336,-29.52,-1.223,0.448,-10.38,0.0,0.19055640440630117,-57.497,342.011,0.066,23498.468,False,0.02482739799343772,0.03551666787502855,0.49,-0.051,-0.355,-9.918,-0.014,341.991,169.078,True,0,1,0,0
-1.196,0.112,-1.322,compass,-75.964,-0.336,-34.625,-1.223,0.448,-10.38,0.0,0.2129118507854453,-57.517,341.991,0.066,23498.568,False,0.028339939717433454,0.03549658287478443,0.49,-0.051,-0.355,-9.918,-0.014,341.991,169.078,True,0,1,0,0
-1.186,0.112,-1.318,compass,-45.0,-0.671,-33.665,-1.199,0.112,-10.34,0.0,0.20419853941868,-57.56,341.948,0.107,23498.669,False,0.058092596268247546,0.057354313495003806,0.49,-0.09,-0.355,-9.918,0.008,341.948,169.078,True,0,1,0,0
-1.181,0.0,-1.314,compass,90.0,-0.783,-31.157,-1.184,-0.671,-10.34,0.0,0.2619256332407146,-57.595,341.913,0.107,23498.769,False,0.06949849830072244,0.0572984716097509,0.49,-0.09,-0.355,-9.914,0.008,341.913,169.078,True,0,1,0,0
-1.185,-0.112,-1.306,compass,116.565,-0.224,-27.394,-1.155,-0.224,-10.4,0.0,0.22365877335139875,-57.673,341.835,0.054,23498.969,False,-0.02533925801165428,0.02910784760774165,0.49,-0.09,-0.395,-9.918,-0.023,341.835,169.078,True,0,1,0,0
-1.185,-0.112,-1.306,compass,116.565,-0.224,-27.394,-1.155,-0.224,-10.4,0.0,0.22365877335139875,-57.673,341.835,0.054,23498.969,False,-0.02533925801165428,0.02910784760774165,0.49,-0.09,-0.395,-9.918,-0.023,341.835,169.078,True,0,1,0,0
-1.193,0.0,-1.299,compass,-90.0,-0.112,-22.284,-1.149,0.224,-10.36,0.0,0.19332644006500144,-57.657,341.851,0.08,23499.169,False,-0.06016556093162861,0.04264000966286121,0.49,-0.09,-0.395,-9.918,-0.007,341.851,169.078,True,0,1,0,0
-1.193,0.0,-1.299,compass,-90.0,-0.112,-22.284,-1.149,0.224,-10.36,0.0,0.19332644006500144,-57.657,341.851,0.08,23499.169,False,-0.06016556093162861,0.04264000966286121,0.49,-0.09,-0.395,-9.918,-0.007,341.851,169.078,True,0,1,0,0
-1.212,-0.112,-1.294,compass,108.435,-0.112,-9.222,-1.159,-0.336,-10.42,0.0,0.20830148290309294,-57.679,341.829,0.043,23499.369,False,-0.032182762376070054,0.02286633129914855,0.48,-0.09,-0.355,-9.875,-0.036,341.829,169.078,True,0,1,0,0
-1.212,-0.112,-1.294,compass,108.435,-0.112,-9.222,-1.159,-0.336,-10.42,0.0,0.20830148290309294,-57.679,341.829,0.043,23499.369,False,-0.032182762376070054,0.02286633129914855,0.48,-0.09,-0.355,-9.875,-0.036,341.829,169.078,True,0,1,0,0
-1.253,-0.224,-1.291,compass,153.434,-0.112,10.124,-1.172,-0.112,-10.36,0.0,0.242894107377522,-57.728,341.78,0.058,23499.57,False,-0.010299497708733894,0.03113918687170104,0.48,-0.051,-0.316,-9.879,-0.002,341.78,169.078,True,0,1,0,0
-1.253,-0.224,-1.291,compass,153.434,-0.112,10.124,-1.172,-0.112,-10.36,0.0,0.242894107377522,-57.728,341.78,0.058,23499.57,False,-0.010299497708733894,0.03113918687170104,0.48,-0.051,-0.316,-9.879,-0.002,341.78,169.078,True,0,1,0,0
-1.309,-0.224,-1.291,compass,-153.434,-0.336,19.549,-1.173,0.112,-10.36,0.0,0.21327453754330605,-57.797,341.711,0.051,23499.77,False,0.013678330421861432,0.026935610304906137,0.48,-0.051,-0.316,-9.879,-0.002,341.711,169.078,True,0,1,0,0
-1.309,-0.224,-1.291,compass,-153.434,-0.336,19.549,-1.173,0.112,-10.36,0.0,0.21327453754330605,-57.797,341.711,0.051,23499.77,False,0.013678330421861432,0.026935610304906137,0.48,-0.051,-0.316,-9.879,-0.002,341.711,169.078,True,0,1,0,0
-1.395,-0.112,-1.297,compass,134.997,-0.56,26.667,-1.156,-0.112,-10.38,0.0,0.19972553852678313,-57.966,341.542,0.039,23499.97,False,0.019514194934674364,0.020622854439477353,0.48,-0.09,-0.277,-9.879,-0.008,341.542,169.078,True,0,1,0,0
-1.425,0.112,-1.301,compass,80.539,-0.783,32.226,-1.145,-0.671,-10.34,0.0,0.24580193014670465,-58.029,341.479,0.097,23500.07,False,0.05139148980142837,0.05146704878324,0.48,-0.129,-0.277,-9.879,0.013,341.479,169.078,True,0,1,0,0
-1.44,0.112,-1.305,compass,63.438,-0.56,32.931,-1.14,-0.224,-10.34,0.0,0.23342363891904336,-58.093,341.415,0.097,23500.17,False,0.05842767606879313,0.051374820585699026,0.48,-0.129,-0.277,-9.879,0.013,341.415,169.078,True,0,1,0,0
-1.468,0.224,-1.31,compass,56.313,-0.783,37.353,-1.136,-0.336,-10.4,0.0,0.234157670011352,-58.162,341.346,0.043,23500.27,False,0.02574185415189176,0.022560771591495922,0.46,-0.09,-0.277,-9.879,-0.018,341.346,169.078,True,0,1,0,0
-1.476,0.224,-1.315,compass,-0.0,-0.671,36.869,-1.13,0.0,-10.4,0.0,0.21549121041524957,-58.226,341.282,0.043,23500.37,False,0.028046471450886575,0.02252006794156599,0.46,-0.09,-0.277,-9.879,-0.018,341.282,169.078,True,0,1,0,0
-1.476,0.224,-1.315,compass,-0.0,-0.671,36.869,-1.13,0.0,-10.4,0.0,0.21549121041524957,-58.226,341.282,0.043,23500.37,False,0.028046471450886575,0.02252006794156599,0.46,-0.09,-0.277,-9.879,-0.018,341.282,169.078,True,0,1,0,0
-1.486,0.448,-1.325,compass,-14.038,-0.56,30.632,-1.108,0.112,-10.34,0.0,0.23616971527731456,-58.347,341.161,0.037,23500.57,False,0.029128271057017853,0.019383192618979896,0.46,-0.051,-0.242,-9.875,0.014,341.161,169.078,True,0,1,0,0
-1.503,0.112,-1.33,compass,71.568,-0.895,29.66,-1.088,-0.336,-10.34,0.0,0.23262722510903297,-58.488,341.02,0.035,23500.67,False,0.028574560401953598,0.018289729108941923,0.46,-0.051,-0.277,-9.836,0.014,341.02,169.078,True,0,1,0,0
-1.498,-0.112,-1.335,compass,-134.995,-0.671,21.895,-1.072,0.112,-10.36,0.0,0.20805288913268982,-58.551,340.957,0.035,23500.77,False,0.03139432085886247,0.018256872039749322,0.46,-0.051,-0.277,-9.875,0.006,340.957,169.078,True,0,1,0,0
-1.498,0.112,-1.34,compass,71.568,-0.783,18.687,-1.071,-0.336,-10.36,0.0,0.21717895519659786,-58.615,340.893,0.06,23500.87,False,0.05587477921213338,0.03138459269589352,0.46,-0.051,-0.316,-9.879,0.006,340.893,169.078,True,0,1,0,0
-1.477,0.112,-1.344,compass,-75.966,-0.783,12.94,-1.067,0.448,-10.36,0.0,0.23776530545195762,-58.665,340.843,0.06,23500.97,False,0.05807555234945999,0.03133994860640707,0.46,-0.09,-0.316,-9.875,0.006,340.843,169.078,True,0,1,0,0
-1.456,0.0,-1.347,compass,-90.0,-0.56,5.043,-1.062,0.336,-10.38,0.0,0.23214588202165587,-58.714,340.794,0.031,23501.071,False,0.0020851975475339457,0.016152404427257586,0.46,-0.129,-0.355,-9.875,-0.001,340.794,169.078,True,0,1,0,0
-1.433,-0.112,-1.35,compass,-108.433,-0.448,-4.634,-1.072,0.336,-10.38,0.0,0.22909040226223426,-58.737,340.771,0.031,23501.171,False,-0.023037837903870456,0.0161420261854245,0.46,-0.129,-0.277,-9.918,-0.001,340.771,169.078,True,0,1,0,0
-1.402,-0.112,-1.352,compass,-108.433,-0.224,-13.572,-1.088,0.336,-10.4,0.0,0.23223662682765936,-58.744,340.764,0.07,23501.271,False,-0.06986721061252348,0.036311594986419546,0.46,-0.129,-0.316,-9.875,-0.011,340.764,169.078,True,0,1,0,0
-1.376,-0.224,-1.352,compass,-153.433,-0.224,-22.99,-1.112,0.112,-10.4,0.0,0.21904578457751847,-58.76,340.748,0.07,23501.371,False,-0.06363971326028409,0.03629516035001042,0.46,-0.129,-0.316,-9.914,-0.011,340.748,169.078,True,0,1,0,0
-1.337,0.0,-1.352,compass,-90.0,-0.112,-33.659,-1.134,0.224,-10.38,0.0,0.19952231055581568,-58.782,340.726,0.023,23501.471,False,-0.01705556971510915,0.012090846789921733,0.46,-0.09,-0.316,-9.914,-0.0,340.726,169.078,True,0,1,0,0
-1.286,-0.112,-1.35,compass,-104.036,-0.336,-44.124,-1.18,0.448,-10.38,0.0,0.2120333327100856,-58.855,340.653,0.023,23501.571,False,-0.01330749818073086,0.01206545200291134,0.46,-0.09,-0.355,-9.914,-0.0,340.653,169.078,True,0,1,0,0
-1.262,0.112,-1.347,compass,-75.964,-0.448,-50.507,-1.197,0.448,-10.38,0.0,0.22443500442174086,-58.898,340.61,0.052,23501.671,False,-0.020897393290896255,0.027113367313640904,0.46,-0.051,-0.316,-9.879,-0.0,340.61,169.078,True,0,1,0,0
-1.239,-0.112,-1.344,compass,-108.435,-0.224,-55.877,-1.2,0.336,-10.38,0.0,0.22060376964754472,-58.934,340.574,0.052,23501.771,False,-0.01359902518577835,0.027085070602109337,0.46,-0.09,-0.355,-9.914,-0.0,340.574,169.078,True,0,1,0,0
-1.216,0.0,-1.34,compass,-90.0,-0.224,-60.558,-1.209,0.56,-10.38,0.0,0.24295281936352825,-58.977,340.531,0.07,23501.871,False,-0.010857742019681172,0.03606832361889264,0.46,-0.09,-0.316,-9.875,-0.0,340.531,169.078,True,0,1,0,0
-1.209,0.112,-1.336,compass,45.0,-0.56,-55.399,-1.207,-0.112,-10.44,0.0,0.22046203517107058,-59.027,340.481,0.07,23501.971,False,0.0056521064750263686,0.03601646851259183,0.46,-0.09,-0.316,-9.875,-0.02,340.481,169.078,True,0,1,0,0
-1.187,-0.112,-1.332,compass,-104.036,-0.224,-57.632,-1.21,0.448,-10.44,0.0,0.2294969234199985,-59.085,340.423,0.021,23502.071,False,0.003324547771037959,0.010986486765692822,0.48,-0.09,-0.355,-9.875,-0.02,340.423,169.078,True,0,1,0,0
-1.18,0.0,-1.327,compass,90.0,-0.671,-51.974,-1.207,-0.336,-10.44,0.0,0.2233921969630158,-59.141,340.367,0.021,23502.171,False,0.007211766255689102,0.01096841695354257,0.48,-0.09,-0.355,-9.875,-0.02,340.367,169.078,True,0,1,0,0
-1.173,-0.112,-1.323,compass,-135.0,-0.671,-47.446,-1.205,0.112,-10.4,0.0,0.21069146765195354,-59.184,340.324,0.095,23502.271,False,0.04505931845040414,0.04879845327919147,0.48,-0.09,-0.395,-9.879,-0.005,340.324,169.078,True,0,1,0,0
-1.166,-0.112,-1.318,compass,-135.0,-0.783,-45.687,-1.204,0.112,-10.4,0.0,0.1979657930871709,-59.219,340.289,0.095,23502.371,False,0.052036186813383824,0.04874741000456334,0.48,-0.09,-0.355,-9.875,-0.005,340.289,169.078,True,0,1,0,0
-1.157,-0.112,-1.313,compass,-101.31,-0.448,-49.127,-1.208,0.56,-10.36,0.0,0.23567498276811927,-59.284,340.224,0.124,23502.471,False,0.06608617424451824,0.063549445183505,0.48,-0.129,-0.355,-9.875,0.015,340.224,169.078,True,0,1,0,0
-1.163,-0.112,-1.309,compass,116.565,-0.56,-43.473,-1.216,-0.224,-10.36,0.0,0.23940951357806955,-59.312,340.196,0.124,23502.571,False,0.07938901928554461,0.06349790479430019,0.48,-0.129,-0.355,-9.875,0.015,340.196,169.078,True,0,1,0,0
-1.16,-0.112,-1.304,compass,135.001,-0.224,-34.994,-1.229,-0.112,-10.36,0.0,0.23370120421209542,-59.341,340.167,0.128,23502.671,False,-0.06326900386669783,0.06542627444616565,0.48,-0.129,-0.355,-9.914,0.015,340.167,169.078,True,0,1,0,0
-1.166,-0.112,-1.3,compass,101.31,-0.336,-24.25,-1.237,-0.56,-10.34,0.0,0.27556134203263855,-59.37,340.138,0.128,23502.772,False,-0.12611250398984733,0.06537077280025884,0.48,-0.09,-0.395,-9.918,0.02,340.138,169.078,True,0,1,0,0
-1.17,-0.112,-1.296,compass,-135.001,-0.336,-21.105,-1.251,0.112,-10.34,0.0,0.26676347159333674,-59.39,340.118,0.15,23502.872,False,-0.1248045350083652,0.07621901964457962,0.48,-0.09,-0.355,-9.914,0.02,340.118,169.078,True,0,1,0,0
-1.183,-0.224,-1.293,compass,153.436,-0.336,-14.926,-1.26,-0.112,-10.44,0.0,0.2682173112911963,-59.412,340.096,0.15,23502.972,False,-0.06513753455504968,0.07616994746905324,0.48,-0.051,-0.395,-9.914,-0.032,340.096,169.078,True,0,1,0,0
-1.194,-0.112,-1.29,compass,-135.001,-0.0,-13.834,-1.276,0.112,-10.44,0.0,0.23796156461564727,-59.419,340.089,0.045,23503.072,False,0.0014541105343578702,0.022747377017927447,0.49,-0.09,-0.316,-9.914,-0.032,340.089,169.078,True,0,1,0,0
-1.208,-0.112,-1.287,compass,-135.001,-0.112,-16.963,-1.279,0.112,-10.44,0.0,0.21354686285265823,-59.426,340.082,0.045,23503.172,False,-0.03510965824478028,0.022742881593963815,0.49,-0.09,-0.355,-9.875,-0.032,340.082,169.078,True,0,1,0,0
-1.22,0.0,-1.285,compass,90.0,-0.112,-15.36,-1.288,-0.112,-10.34,0.0,0.18123112706885,-59.44,340.068,0.006,23503.272,False,-0.0018443478133638902,0.002965260605093589,0.49,-0.09,-0.355,-9.914,0.004,340.068,169.078,True,0,1,0,0
-1.268,-0.112,-1.285,compass,97.125,-0.56,-9.013,-1.295,-0.895,-10.34,0.0,0.25028205111030594,-59.51,339.998,0.006,23503.372,False,0.00025390022068277093,0.002959069893364697,0.49,-0.09,-0.316,-9.875,0.004,339.998,169.078,True,0,1,0,0
-1.283,-0.112,-1.285,compass,135.0,-0.112,-2.479,-1.29,-0.112,-10.32,0.0,0.2241590589237833,-59.546,339.962,0.058,23503.472,False,0.01725834680397083,0.029559716104934096,0.49,-0.129,-0.355,-9.914,0.014,339.962,169.078,True,0,1,0,0
-1.305,0.0,-1.285,compass,90.0,-0.336,7.026,-1.286,-0.448,-10.32,0.0,0.23566315975201954,-59.588,339.92,0.058,23503.572,False,0.023991449238640127,0.029522763080452003,0.49,-0.129,-0.316,-9.875,0.014,339.92,169.078,True,0,1,0,0
-1.321,0.112,-1.286,compass,63.435,-0.112,14.085,-1.274,-0.224,-10.32,0.0,0.21953880949479102,-59.637,339.871,0.047,23503.672,False,0.02345155405462652,0.023583819765836067,0.49,-0.129,-0.316,-9.914,0.014,339.871,169.078,True,0,1,0,0
-1.344,0.336,-1.288,compass,-18.435,-0.0,17.441,-1.263,0.112,-10.38,0.0,0.22104453777139557,-59.679,339.829,0.047,23503.772,False,0.02801949935009364,0.02355431982680269,0.49,-0.129,-0.316,-9.875,-0.007,339.829,169.078,True,0,1,0,0
-1.36,0.336,-1.29,compass,33.691,-0.448,18.68,-1.251,-0.224,-10.38,0.0,0.23758675493041154,-59.736,339.772,0.099,23503.872,False,0.06831471986778702,0.049967646492073,0.49,-0.129,-0.277,-9.879,-0.007,339.772,169.078,True,0,1,0,0
-1.376,0.336,-1.293,compass,18.436,-0.448,18.721,-1.238,-0.112,-10.42,0.0,0.24552199532284902,-59.798,339.71,0.099,23503.972,False,0.07557823988823942,0.049873851899678134,0.49,-0.09,-0.316,-9.914,-0.027,339.71,169.078,True,0,1,0,0
-1.4,0.448,-1.296,compass,56.312,-0.336,20.522,-1.221,-0.671,-10.42,0.0,0.31152931196130185,-59.847,339.661,0.144,23504.072,False,0.11436949429197069,0.07226018158674491,0.49,-0.09,-0.277,-9.879,-0.027,339.661,169.078,True,0,1,0,0
-1.404,0.224,-1.299,compass,26.567,-0.224,18.731,-1.192,-0.112,-10.42,0.0,0.29984578756737,-59.896,339.612,0.144,23504.172,False,0.1222428706053368,0.07215397014655896,0.49,-0.09,-0.316,-9.875,-0.027,339.612,169.078,True,0,1,0,0
-1.43,0.224,-1.303,compass,26.567,-0.56,17.636,-1.167,-0.112,-10.3,0.0,0.28556894848003195,-59.973,339.535,0.117,23504.272,False,0.10319439110136865,0.05836684814492193,0.49,-0.051,-0.277,-9.875,0.016,339.535,169.078,True,0,1,0,0
-1.44,0.112,-1.307,compass,-63.438,-0.448,14.239,-1.148,0.224,-10.3,0.0,0.27730027961826825,-60.0,339.506,0.117,23504.372,False,0.10804609053494624,0.05831695392404016,0.49,-0.051,-0.277,-9.875,0.016,339.506,169.078,True,0,1,0,0
-1.45,0.112,-1.312,compass,-45.004,-0.56,9.641,-1.135,0.112,-10.3,0.0,0.27608762616426724,-60.0,339.493,0.187,23504.473,False,0.17958411200724483,0.09326926101615378,0.49,-0.051,-0.316,-9.879,0.016,339.493,169.078,True,0,1,0,0
-1.451,-0.112,-1.316,compass,-116.562,-0.0,3.903,-1.128,0.224,-10.38,0.0,0.2855942491619441,-60.0,339.485,0.187,23504.573,False,0.18448063953256577,0.09324667761317487,0.49,-0.051,-0.277,-9.875,-0.012,339.485,169.078,True,0,1,0,0
-1.452,-0.224,-1.32,compass,123.687,-0.56,3.482,-1.121,-0.336,-10.38,0.0,0.2913034562461217,-60.0,339.478,0.095,23504.673,False,0.0945021759785188,0.04758492581404111,0.49,-0.09,-0.316,-9.875,-0.012,339.478,169.078,True,0,1,0,0
-1.445,-0.112,-1.324,compass,-134.996,-0.56,-0.92,-1.119,0.112,-10.38,0.0,0.2667654266937115,-60.0,339.471,0.095,23504.773,False,0.09519884687752041,0.04757488326449647,0.49,-0.09,-0.277,-9.879,-0.012,339.471,169.078,True,0,1,0,0
-1.437,-0.112,-1.327,compass,116.562,-0.224,-1.133,-1.125,-0.224,-10.38,0.0,0.2706848236937806,-60.0,339.464,0.152,23504.873,False,0.15160266324943564,0.07571517436778387,0.5,-0.09,-0.277,-9.879,-0.011,339.464,169.078,True,0,1,0,0
-1.421,-0.112,-1.33,compass,-108.433,-0.336,-4.102,-1.136,0.336,-10.38,0.0,0.2865305668281563,-60.0,339.457,0.152,23504.973,False,0.15150503752710978,0.07569840136467637,0.5,-0.09,-0.277,-9.879,-0.011,339.457,169.078,True,0,1,0,0
-1.419,-0.224,-1.332,compass,-134.997,-0.336,-9.835,-1.143,0.224,-10.3,0.0,0.28460575459955006,-60.0,339.457,0.119,23505.073,False,0.03919361483188608,0.059199805908522404,0.5,-0.09,-0.277,-9.879,0.029,339.457,169.078,True,0,1,0,0
-1.399,-0.112,-1.334,compass,-108.433,-0.112,-16.487,-1.175,0.336,-10.3,0.0,0.2846323000312624,-60.0,339.448,0.119,23505.174,False,-0.06885381352793059,0.05918375439853839,0.5,-0.09,-0.316,-9.914,0.029,339.448,169.078,True,0,1,0,0
-1.39,-0.224,-1.336,compass,153.433,-0.224,-15.165,-1.188,-0.112,-10.4,0.0,0.29550860713900634,-60.0,339.476,0.198,23505.274,False,-0.01940862703385879,0.09904823093238334,0.5,-0.09,-0.316,-9.875,-0.024,339.476,169.078,True,0,1,0,0
-1.366,-0.224,-1.337,compass,-134.998,-0.224,-16.921,-1.205,0.224,-10.4,0.0,0.30929328072792805,-60.0,339.497,0.198,23505.374,False,-0.1693948156858911,0.09911184381301202,0.5,-0.09,-0.316,-9.914,-0.024,339.497,169.078,True,0,1,0,0
-1.35,-0.112,-1.337,compass,108.434,-0.56,-14.884,-1.217,-0.336,-10.4,0.0,0.31001278854192815,-59.984,339.524,0.121,23505.474,False,-0.04964440730587486,0.06029377897199273,0.5,-0.09,-0.316,-9.914,-0.024,339.524,169.078,True,0,1,0,0
-1.334,-0.224,-1.337,compass,-134.999,-0.112,-16.971,-1.228,0.224,-10.36,0.0,0.3046355233499096,-59.955,339.553,0.121,23505.574,False,-0.11526757960548491,0.06034535220772473,0.5,-0.09,-0.316,-9.914,-0.008,339.553,169.078,True,0,1,0,0
-1.319,-0.112,-1.337,compass,-104.036,-0.224,-23.801,-1.233,0.448,-10.36,0.0,0.2950463104938481,-59.949,339.559,0.014,23505.674,False,-0.013095741732306203,0.006814532972037889,0.5,-0.09,-0.355,-9.875,-0.008,339.559,169.078,True,0,1,0,0
-1.298,0.0,-1.336,compass,-90.0,-0.112,-30.812,-1.23,0.336,-10.36,0.0,0.2722628754301751,-59.928,339.58,0.014,23505.774,False,-0.01047670819466567,0.006818717996851139,0.5,-0.09,-0.355,-9.914,-0.008,339.58,169.078,True,0,1,0,0
-1.283,-0.112,-1.334,compass,-101.31,-0.0,-37.755,-1.234,0.56,-10.36,0.0,0.2853364482527766,-59.914,339.594,0.039,23505.874,False,-0.021283022186608692,0.019490671435330415,0.5,-0.09,-0.355,-9.914,-0.007,339.594,169.078,True,0,1,0,0
-1.269,0.0,-1.332,compass,90.0,-0.224,-34.746,-1.232,-0.112,-10.36,0.0,0.24405093247326587,-59.907,339.601,0.039,23505.974,False,-0.007677239508683897,0.019494599833142834,0.5,-0.09,-0.355,-9.875,-0.007,339.601,169.078,True,0,1,0,0
-1.236,0.112,-1.329,compass,63.435,-0.336,-29.574,-1.219,-0.224,-10.38,0.0,0.2347846031043611,-59.914,339.594,0.066,23506.074,False,-0.062393271415281934,0.03313361050732172,0.5,-0.09,-0.355,-9.875,-0.017,339.594,169.078,True,0,1,0,0
-1.215,0.0,-1.326,compass,-90.0,-0.112,-27.231,-1.215,0.112,-10.38,0.0,0.2106388309278386,-59.901,339.607,0.066,23506.175,False,-0.057975753939754904,0.03314706696706638,0.5,-0.09,-0.316,-9.914,-0.017,339.607,169.078,True,0,1,0,0
-1.218,-0.112,-1.323,compass,135.0,-0.448,-20.385,-1.201,-0.112,-10.34,0.0,0.18734731709065483,-59.907,339.601,0.019,23506.275,False,-0.009389572085804977,0.009747198380659997,0.5,-0.09,-0.355,-9.875,0.005,339.601,169.078,True,0,1,0,0
-1.213,0.0,-1.319,compass,-90.0,-0.56,-18.809,-1.186,0.112,-10.34,0.0,0.1637734095553528,-59.922,339.586,0.019,23506.375,False,6.0456034877152183e-05,0.009742846967311642,0.5,-0.09,-0.355,-9.914,0.005,339.586,169.078,True,0,1,0,0
-1.215,-0.112,-1.316,compass,-135.0,-0.224,-21.705,-1.179,0.112,-10.4,0.0,0.15353617830314764,-59.956,339.552,0.035,23506.475,False,-0.027639854748908305,0.017519008159090015,0.5,-0.09,-0.355,-9.914,-0.025,339.552,169.078,True,0,1,0,0
-1.223,0.224,-1.313,compass,68.199,-0.56,-20.498,-1.172,-0.56,-10.4,0.0,0.19936109807964492,-59.985,339.523,0.035,23506.575,False,-0.010418791199202037,0.017503916840411225,0.5,-0.09,-0.355,-9.914,-0.025,339.523,169.078,True,0,1,0,0
-1.222,0.0,-1.311,compass,90.0,-0.224,-15.692,-1.172,-0.112,-10.38,0.0,0.17512260937149265,-60.0,339.494,0.029,23506.675,False,0.0030488705590898594,0.01457391569242361,0.5,-0.09,-0.316,-9.914,-0.013,339.494,169.078,True,0,1,0,0
-1.237,-0.112,-1.308,compass,101.31,-0.336,-6.877,-1.167,-0.56,-10.38,0.0,0.2099608678081964,-60.0,339.452,0.029,23506.775,False,0.009561434934593827,0.014555302410130392,0.5,-0.09,-0.355,-9.914,-0.013,339.452,169.078,True,0,1,0,0
-1.244,0.112,-1.306,compass,-45.001,-0.0,-4.064,-1.167,0.112,-10.38,0.0,0.18918441690176538,-60.0,339.41,0.031,23506.875,False,0.017147607805838558,0.015505685515016803,0.5,-0.09,-0.316,-9.875,-0.013,339.41,169.078,True,0,1,0,0
-1.259,0.0,-1.305,compass,90.0,-0.112,0.334,-1.162,-0.112,-10.4,0.0,0.16677522695538946,-60.0,339.339,0.031,23506.975,False,0.020989786146940758,0.015472264419253909,0.5,-0.09,-0.316,-9.875,-0.018,339.339,169.078,True,0,1,0,0
-1.279,0.0,-1.304,compass,-90.0,0.112,0.035,-1.163,0.224,-10.4,0.0,0.16775153062857734,-60.0,339.211,0.051,23507.075,False,0.04048466411850303,0.02504492296514051,0.5,-0.09,-0.355,-9.914,-0.018,339.211,169.078,True,0,1,0,0
-1.292,0.0,-1.304,compass,90.0,-0.224,3.663,-1.165,-0.448,-10.4,0.0,0.19402658478379017,-60.0,339.133,0.051,23507.175,False,0.04274008061279494,0.024985125862473673,0.5,-0.09,-0.355,-9.875,-0.018,339.133,169.078,True,0,1,0,0
-1.306,-0.112,-1.304,compass,134.998,-0.112,12.014,-1.166,-0.112,-10.36,0.0,0.1715068097672731,-60.0,339.062,0.01,23507.275,False,0.008032505026758728,0.0047943384725066315,0.5,-0.09,-0.355,-9.875,-0.003,339.062,169.078,True,0,1,0,0
-1.314,0.224,-1.304,compass,71.566,-0.448,20.571,-1.159,-0.671,-10.36,0.0,0.21931141226128123,-60.0,338.984,0.01,23507.375,False,0.007672817669794391,0.004782828054800344,0.5,-0.09,-0.277,-9.879,-0.003,338.984,169.078,True,0,1,0,0
-1.32,-0.112,-1.305,compass,134.998,-0.112,27.891,-1.159,-0.112,-10.38,0.0,0.19181923172900947,-60.0,338.913,0.027,23507.475,False,0.02043640127752394,0.013362454715556143,0.5,-0.09,-0.316,-9.836,-0.013,338.913,169.078,True,0,1,0,0
-1.341,0.112,-1.306,compass,63.437,-0.112,34.542,-1.162,-0.224,-10.38,0.0,0.18119733093033666,-60.0,338.835,0.027,23507.575,False,0.019255795797576455,0.013330198504991609,0.5,-0.09,-0.316,-9.875,-0.013,338.835,169.078,True,0,1,0,0
-1.346,-0.112,-1.307,compass,-116.563,0.112,30.354,-1.169,0.224,-10.34,0.0,0.18397822742212766,-60.0,338.757,0.068,23507.675,False,0.05330399026875354,0.03324446894051571,0.51,-0.09,-0.316,-9.875,0.009,338.757,169.078,True,0,1,0,0
-1.358,0.112,-1.309,compass,-71.566,-0.112,24.09,-1.177,0.336,-10.34,0.0,0.2002754449423434,-60.0,338.687,0.068,23507.775,False,0.0587266823861284,0.03317194555805413,0.51,-0.09,-0.316,-9.875,0.009,338.687,169.078,True,0,1,0,0
-1.369,-0.224,-1.31,compass,-153.433,0.112,12.89,-1.192,0.112,-10.34,0.0,0.18978249164463734,-60.0,338.607,0.017,23507.875,False,-0.002090136895186332,0.00850870802896079,0.51,-0.09,-0.316,-9.836,0.009,338.607,169.078,True,0,1,0,0
-1.366,-0.224,-1.312,compass,111.8,-0.112,10.362,-1.206,-0.56,-10.36,0.0,0.2237637742760783,-60.0,338.586,0.017,23507.975,False,0.00427666654818214,0.008503137140553452,0.51,-0.09,-0.316,-9.836,0.001,338.586,169.078,True,0,1,0,0
-1.362,-0.224,-1.313,compass,-180.0,-0.0,1.114,-1.226,0.0,-10.36,0.0,0.20869016060113818,-60.0,338.593,0.037,23508.075,False,-0.02441264448240875,0.01795471750017279,0.51,-0.09,-0.277,-9.879,0.001,338.593,169.078,True,0,1,0,0
-1.364,-0.224,-1.317,compass,-153.434,-0.112,-5.751,-1.256,0.112,-10.36,0.0,0.20223983710953003,-60.0,338.628,0.047,23508.276,False,-0.0414618549612536,0.02270471013905135,0.51,-0.09,-0.316,-9.875,0.001,338.628,169.078,True,0,1,0,0
-1.364,-0.224,-1.317,compass,-153.434,-0.112,-5.751,-1.256,0.112,-10.36,0.0,0.20223983710953003,-60.0,338.628,0.047,23508.276,False,-0.0414618549612536,0.02270471013905135,0.51,-0.09,-0.316,-9.875,0.001,338.628,169.078,True,0,1,0,0
-1.369,-0.112,-1.32,compass,134.999,-0.112,-12.926,-1.272,-0.112,-10.4,0.0,0.18441286750006247,-60.0,338.684,0.014,23508.476,False,-0.01118764741338797,0.006633846677943416,0.51,-0.129,-0.355,-9.914,-0.019,338.684,169.078,True,0,1,0,0
-1.369,-0.112,-1.32,compass,134.999,-0.112,-12.926,-1.272,-0.112,-10.4,0.0,0.18441286750006247,-60.0,338.684,0.014,23508.476,False,-0.01118764741338797,0.006633846677943416,0.51,-0.129,-0.355,-9.914,-0.019,338.684,169.078,True,0,1,0,0
-1.361,-0.112,-1.322,compass,101.31,-0.112,0.454,-1.278,-0.56,-10.4,0.0,0.2062656901850598,-60.0,338.748,0.017,23508.676,False,-0.00206709179388404,0.008546347752381962,0.51,-0.09,-0.277,-9.879,-0.019,338.748,169.078,True,0,1,0,0
-1.361,-0.112,-1.322,compass,101.31,-0.112,0.454,-1.278,-0.56,-10.4,0.0,0.2062656901850598,-60.0,338.748,0.017,23508.676,False,-0.00206709179388404,0.008546347752381962,0.51,-0.09,-0.277,-9.879,-0.019,338.748,169.078,True,0,1,0,0
-1.354,0.224,-1.324,compass,-63.436,0.224,7.405,-1.243,0.448,-10.4,0.0,0.2509101732572668,-60.0,338.827,0.093,23508.876,False,0.03782714950076038,0.04569225579702511,0.51,-0.09,-0.277,-9.879,-0.017,338.827,169.078,True,0,1,0,0
-1.354,0.224,-1.324,compass,-63.436,0.224,7.405,-1.243,0.448,-10.4,0.0,0.2509101732572668,-60.0,338.827,0.093,23508.876,False,0.03782714950076038,0.04569225579702511,0.51,-0.09,-0.277,-9.879,-0.017,338.827,169.078,True,0,1,0,0
-1.351,0.336,-1.326,compass,-0.0,-0.0,2.342,-1.186,0.0,-10.38,0.0,0.28083752064372297,-60.0,338.885,0.117,23509.076,False,0.09179960538232812,0.05721900049250198,0.51,-0.09,-0.277,-9.918,-0.005,338.885,169.078,True,0,1,0,0
-1.351,0.336,-1.326,compass,-0.0,-0.0,2.342,-1.186,0.0,-10.38,0.0,0.28083752064372297,-60.0,338.885,0.117,23509.076,False,0.09179960538232812,0.05721900049250198,0.51,-0.09,-0.277,-9.918,-0.005,338.885,169.078,True,0,1,0,0
-1.338,0.224,-1.327,compass,26.567,0.112,-2.023,-1.142,-0.112,-10.42,0.0,0.27966308907288207,-60.0,338.935,0.134,23509.276,False,0.12623336873924929,0.06590366596577298,0.51,-0.09,-0.277,-9.918,-0.025,338.935,169.078,True,0,1,0,0
-1.338,0.224,-1.327,compass,26.567,0.112,-2.023,-1.142,-0.112,-10.42,0.0,0.27966308907288207,-60.0,338.935,0.134,23509.276,False,0.12623336873924929,0.06590366596577298,0.51,-0.09,-0.277,-9.918,-0.025,338.935,169.078,True,0,1,0,0
-1.314,0.224,-1.326,compass,45.002,-0.224,-3.617,-1.116,-0.224,-10.38,0.0,0.29345625344532644,-60.0,338.922,0.115,23509.476,False,0.11307977771970144,0.05632849881996162,0.51,-0.09,-0.316,-9.875,-0.002,338.922,169.078,True,0,1,0,0
-1.314,0.224,-1.326,compass,45.002,-0.224,-3.617,-1.116,-0.224,-10.38,0.0,0.29345625344532644,-60.0,338.922,0.115,23509.476,False,0.11307977771970144,0.05632849881996162,0.51,-0.09,-0.316,-9.875,-0.002,338.922,169.078,True,0,1,0,0
-1.299,0.0,-1.325,compass,-90.0,0.112,-9.589,-1.119,0.224,-10.36,0.0,0.25687957089984453,-60.0,338.843,0.041,23509.676,False,0.00877965850421346,0.020000386498922763,0.51,-0.09,-0.355,-9.914,0.005,338.843,169.078,True,0,1,0,0
-1.299,0.0,-1.325,compass,-90.0,0.112,-9.589,-1.119,0.224,-10.36,0.0,0.25687957089984453,-60.0,338.843,0.041,23509.676,False,0.00877965850421346,0.020000386498922763,0.51,-0.09,-0.355,-9.914,0.005,338.843,169.078,True,0,1,0,0
-1.24,-0.112,-1.321,compass,116.564,-0.112,-16.188,-1.163,-0.224,-10.32,0.0,0.24219683101511277,-60.0,338.77,0.058,23509.877,False,-0.008687919630161255,0.028507158836569464,0.51,-0.09,-0.355,-9.875,0.024,338.77,169.078,True,0,1,0,0
-1.24,-0.112,-1.321,compass,116.564,-0.112,-16.188,-1.163,-0.224,-10.32,0.0,0.24219683101511277,-60.0,338.77,0.058,23509.877,False,-0.008687919630161255,0.028507158836569464,0.51,-0.09,-0.355,-9.875,0.024,338.77,169.078,True,0,1,0,0
-1.212,-0.224,-1.314,compass,123.69,-0.112,-16.29,-1.201,-0.336,-10.32,0.0,0.25794893272103175,-60.0,338.768,0.072,23510.077,False,-0.03073785810237664,0.03515620479473795,0.51,-0.09,-0.355,-9.875,0.024,338.768,169.078,True,0,1,0,0
-1.212,-0.224,-1.314,compass,123.69,-0.112,-16.29,-1.201,-0.336,-10.32,0.0,0.25794893272103175,-60.0,338.768,0.072,23510.077,False,-0.03073785810237664,0.03515620479473795,0.51,-0.09,-0.355,-9.875,0.024,338.768,169.078,True,0,1,0,0
-1.199,-0.112,-1.308,compass,-116.565,-0.112,-20.06,-1.234,0.224,-10.4,0.0,0.2710692987053738,-60.0,338.782,0.249,23510.277,False,-0.23238574243291088,0.1216754233558902,0.51,-0.09,-0.395,-9.918,-0.005,338.782,169.078,True,0,1,0,0
-1.199,-0.112,-1.308,compass,-116.565,-0.112,-20.06,-1.234,0.224,-10.4,0.0,0.2710692987053738,-60.0,338.782,0.249,23510.277,False,-0.23238574243291088,0.1216754233558902,0.51,-0.09,-0.395,-9.918,-0.005,338.782,169.078,True,0,1,0,0
-1.174,-0.112,-1.3,compass,101.31,-0.112,-24.779,-1.251,-0.56,-10.36,0.0,0.3059734420936153,-60.0,338.802,0.051,23510.477,False,-0.0167476726310836,0.024730641616626678,0.5,-0.09,-0.355,-9.914,0.016,338.802,169.078,True,0,1,0,0
-1.174,-0.112,-1.3,compass,101.31,-0.112,-24.779,-1.251,-0.56,-10.36,0.0,0.3059734420936153,-60.0,338.802,0.051,23510.477,False,-0.0167476726310836,0.024730641616626678,0.5,-0.09,-0.355,-9.914,0.016,338.802,169.078,True,0,1,0,0
-1.16,0.112,-1.292,compass,78.69,0.112,-12.653,-1.249,-0.56,-10.4,0.0,0.29982821288824013,-60.0,338.802,0.113,23510.677,False,-0.10215393314284217,0.0551680285971836,0.5,-0.09,-0.355,-9.914,-0.006,338.802,169.078,True,0,1,0,0
-1.16,0.112,-1.292,compass,78.69,0.112,-12.653,-1.249,-0.56,-10.4,0.0,0.29982821288824013,-60.0,338.802,0.113,23510.677,False,-0.10215393314284217,0.0551680285971836,0.5,-0.09,-0.355,-9.914,-0.006,338.802,169.078,True,0,1,0,0
-1.19,0.112,-1.285,compass,-44.999,0.112,-9.844,-1.24,0.112,-10.36,0.0,0.24619724786755917,-60.0,338.795,0.051,23510.878,False,-0.0018981546838690354,0.02472571725129575,0.5,-0.09,-0.395,-9.918,0.008,338.795,169.078,True,0,1,0,0
-1.19,0.112,-1.285,compass,-44.999,0.112,-9.844,-1.24,0.112,-10.36,0.0,0.24619724786755917,-60.0,338.795,0.051,23510.878,False,-0.0018981546838690354,0.02472571725129575,0.5,-0.09,-0.395,-9.918,0.008,338.795,169.078,True,0,1,0,0
-1.218,0.112,-1.281,compass,45.0,0.56,-4.792,-1.209,-0.112,-10.36,0.0,0.2054067198880203,-60.0,338.796,0.023,23511.078,False,0.012609777272199509,0.011412218775175552,0.5,-0.051,-0.355,-9.879,0.008,338.796,169.078,True,0,1,0,0
-1.249,0.224,-1.28,compass,74.055,-0.112,1.397,-1.194,-0.783,-10.42,0.0,0.261736085313244,-60.0,338.784,0.023,23511.178,False,0.015054567543669567,0.011407615779971732,0.5,-0.051,-0.277,-9.875,-0.013,338.784,169.078,True,0,1,0,0
-1.266,0.224,-1.279,compass,45.001,0.224,6.354,-1.176,-0.224,-10.42,0.0,0.24709882057629995,-60.0,338.777,0.029,23511.278,False,0.020935193132663947,0.014256731977809925,0.5,-0.09,-0.316,-9.875,-0.013,338.777,169.078,True,0,1,0,0
-1.303,0.112,-1.28,compass,63.436,0.224,11.349,-1.168,-0.224,-10.38,0.0,0.2273152860749341,-60.0,338.756,0.029,23511.378,False,0.02207719834760572,0.014247326275322155,0.5,-0.09,-0.316,-9.875,0.008,338.756,169.078,True,0,1,0,0
-1.363,0.112,-1.283,compass,-45.002,0.112,9.169,-1.151,0.112,-10.38,0.0,0.22255644888375786,-60.0,338.744,0.126,23511.478,False,0.10701157625265394,0.06171438046995623,0.5,-0.09,-0.277,-9.879,0.008,338.744,169.078,True,0,1,0,0
-1.379,-0.112,-1.286,compass,134.997,-0.0,9.666,-1.147,-0.112,-10.38,0.0,0.21527594672651218,-60.0,338.773,0.126,23511.579,False,0.11198329257666562,0.06177036821887239,0.5,-0.09,-0.316,-9.875,0.008,338.773,169.078,True,0,1,0,0
-1.399,-0.112,-1.289,compass,-134.997,0.336,8.422,-1.151,0.112,-10.34,0.0,0.18807254414516383,-60.0,338.815,0.006,23511.679,False,0.0053902593257312385,0.0028547403366559043,0.5,-0.09,-0.277,-9.879,0.021,338.815,169.078,True,0,1,0,0
-1.412,0.0,-1.293,compass,90.0,-0.112,11.555,-1.161,-0.336,-10.34,0.0,0.1878718817192774,-60.0,338.858,0.006,23511.779,False,0.005387025096218597,0.0028585197880824525,0.5,-0.09,-0.277,-9.879,0.021,338.858,169.078,True,0,1,0,0
-1.418,-0.224,-1.296,compass,-153.433,-0.0,6.037,-1.17,0.112,-10.34,0.0,0.19178357467003107,-60.0,338.922,0.07,23511.879,False,0.06770981725448467,0.03437078830131248,0.5,-0.09,-0.277,-9.879,0.019,338.922,169.078,True,0,1,0,0
-1.439,-0.112,-1.301,compass,108.433,-0.448,6.05,-1.175,-0.336,-10.34,0.0,0.2064241150721018,-60.0,338.972,0.07,23511.979,False,0.06824361810614173,0.03442364532535504,0.5,-0.09,-0.277,-9.918,0.019,338.972,169.078,True,0,1,0,0
-1.445,-0.112,-1.305,compass,-108.433,-0.112,1.695,-1.184,0.336,-10.34,0.0,0.21223996862683406,-60.0,339.037,0.041,23512.079,False,0.04051841833010477,0.02012040351310598,0.5,-0.09,-0.316,-9.875,0.019,339.037,169.078,True,0,1,0,0
-1.449,-0.112,-1.309,compass,-134.997,-0.0,-5.53,-1.2,0.112,-10.36,0.0,0.19255733021499186,-60.0,339.065,0.041,23512.179,False,0.008622657988970609,0.020138147450155252,0.5,-0.09,-0.277,-9.879,0.01,339.065,169.078,True,0,1,0,0
-1.447,-0.224,-1.313,compass,-116.563,0.224,-16.059,-1.214,0.448,-10.36,0.0,0.21446485981389196,-60.0,339.086,0.029,23512.279,False,-0.018005546053199175,0.014393412930101978,0.5,-0.09,-0.316,-9.875,0.01,339.086,169.078,True,0,1,0,0
-1.414,-0.112,-1.316,compass,116.563,-0.224,-16.416,-1.236,-0.224,-10.34,0.0,0.20352385933157993,-60.0,339.092,0.029,23512.38,False,-0.0030842517996157058,0.014396061622362254,0.51,-0.09,-0.316,-9.875,0.019,339.092,169.078,True,0,1,0,0
-1.397,-0.336,-1.319,compass,161.564,0.112,-8.848,-1.255,-0.112,-10.34,0.0,0.20438007801484537,-60.0,339.113,0.017,23512.48,False,0.00336231822716538,0.008643298691860002,0.51,-0.09,-0.316,-9.875,0.019,339.113,169.078,True,0,1,0,0
-1.38,-0.224,-1.321,compass,134.999,0.112,2.135,-1.266,-0.224,-10.34,0.0,0.1995287242857157,-60.0,339.126,0.017,23512.58,False,0.005807739306950867,0.008646829532821332,0.51,-0.09,-0.355,-9.875,0.019,339.126,169.078,True,0,1,0,0
-1.352,-0.112,-1.322,compass,-116.564,0.224,2.647,-1.269,0.224,-10.36,0.0,0.19657213654904337,-60.0,339.161,0.052,23512.68,False,0.02927941538302138,0.02596846308358489,0.51,-0.129,-0.355,-9.875,0.01,339.161,169.078,True,0,1,0,0
-1.337,-0.224,-1.322,compass,-134.999,0.448,-2.137,-1.273,0.224,-10.36,0.0,0.20248520545271975,-60.0,339.19,0.052,23512.78,False,0.04045444306213501,0.025991108905773407,0.51,-0.09,-0.355,-9.914,0.01,339.19,169.078,True,0,1,0,0
-1.315,0.0,-1.322,compass,-90.0,0.112,-8.003,-1.277,0.224,-10.36,0.0,0.19533279013305266,-60.0,339.224,0.052,23512.88,False,-0.012458131708082564,0.026018136159552983,0.51,-0.09,-0.355,-9.875,0.01,339.224,169.078,True,0,1,0,0
-1.296,0.336,-1.321,compass,-33.69,0.336,-13.099,-1.267,0.224,-10.4,0.0,0.211119222874851,-60.0,339.259,0.052,23512.98,False,-0.04687326387490045,0.026046373782953113,0.51,-0.09,-0.355,-9.914,-0.004,339.259,169.078,True,0,1,0,0
-1.277,0.112,-1.32,compass,45.0,0.112,-13.393,-1.257,-0.112,-10.4,0.0,0.1993107914459404,-60.0,339.295,0.072,23513.081,False,-0.031991232394233654,0.03573186413982385,0.51,-0.09,-0.316,-9.875,-0.004,339.295,169.078,True,0,1,0,0
-1.272,0.112,-1.318,compass,78.69,-0.112,-10.313,-1.242,-0.56,-10.4,0.0,0.23911027477568836,-60.0,339.324,0.072,23513.181,False,-0.0012142220956054893,0.03576340370101349,0.51,-0.09,-0.355,-9.914,-0.004,339.324,169.078,True,0,1,0,0
-1.258,0.224,-1.317,compass,-0.0,-0.0,-8.459,-1.206,0.0,-10.34,0.0,0.22757929805986576,-60.0,339.409,0.066,23513.281,False,0.02193666167582664,0.032949176613014025,0.51,-0.129,-0.355,-9.875,0.016,339.409,169.078,True,0,1,0,0
-1.261,0.336,-1.315,compass,18.435,0.112,-6.173,-1.193,-0.112,-10.34,0.0,0.2339254987869117,-60.0,339.474,0.066,23513.381,False,0.03737615540490721,0.03301385965939401,0.51,-0.09,-0.355,-9.875,0.016,339.474,169.078,True,0,1,0,0
-1.264,0.224,-1.313,compass,-45.001,0.448,-6.352,-1.18,0.224,-10.34,0.0,0.24502867102128956,-59.978,339.53,0.113,23513.481,False,0.08398382427287644,0.056414178984499554,0.51,-0.09,-0.355,-9.914,0.016,339.53,169.078,True,0,1,0,0
-1.268,0.336,-1.312,compass,-53.131,0.448,-8.058,-1.16,0.448,-10.34,0.0,0.2826351350632269,-59.92,339.588,0.113,23513.581,False,0.09804480382853202,0.05651288969052469,0.51,-0.09,-0.316,-9.875,0.014,339.588,169.078,True,0,1,0,0
-1.277,0.224,-1.311,compass,45.001,0.112,-7.232,-1.149,-0.224,-10.34,0.0,0.2718788779770125,-59.856,339.652,0.062,23513.681,False,0.05760118064809274,0.03123920950207917,0.51,-0.09,-0.316,-9.875,0.014,339.652,169.078,True,0,1,0,0
-1.28,0.224,-1.31,compass,-26.566,0.224,-7.459,-1.136,0.112,-10.42,0.0,0.2556436385768377,-59.813,339.695,0.062,23513.781,False,0.05993809967842075,0.03127939244249178,0.51,-0.09,-0.316,-9.875,-0.027,339.695,169.078,True,0,1,0,0
-1.302,0.0,-1.31,compass,90.0,-0.112,-3.205,-1.133,-0.56,-10.42,0.0,0.27177709856653715,-59.784,339.724,0.027,23513.882,False,0.026319408632438986,0.013696711373460494,0.51,-0.09,-0.316,-9.875,-0.027,339.724,169.078,True,0,1,0,0
-1.31,-0.112,-1.31,compass,-134.998,-0.0,-6.162,-1.128,0.112,-10.34,0.0,0.23682907343822865,-59.762,339.746,0.027,23513.982,False,0.026960298758492197,0.01370578490390394,0.51,-0.051,-0.316,-9.918,0.016,339.746,169.078,True,0,1,0,0
-1.32,-0.112,-1.31,compass,-116.564,0.112,-10.964,-1.151,0.224,-10.34,0.0,0.23296183284290564,-59.762,339.746,0.091,23514.082,False,0.01721640588494844,0.04601198296427777,0.51,-0.09,-0.316,-9.875,0.016,339.746,169.078,True,0,1,0,0
-1.32,-0.224,-1.31,compass,-116.564,0.112,-18.597,-1.151,0.448,-10.42,0.0,0.2564720623543799,-59.762,339.746,0.091,23514.182,False,-0.05976966129579736,0.04601198296427777,0.51,-0.09,-0.316,-9.875,-0.026,339.746,169.078,True,0,1,0,0
-1.336,-0.112,-1.311,compass,134.998,-0.112,-17.404,-1.182,-0.112,-10.42,0.0,0.227491071547926,-59.762,339.746,0.039,23514.282,False,-0.006205324787311713,0.01957942191964225,0.51,-0.09,-0.277,-9.879,-0.026,339.746,169.078,True,0,1,0,0
-1.332,-0.224,-1.312,compass,-180.0,-0.0,-22.687,-1.203,0.0,-10.42,0.0,0.21104153250232624,-59.763,339.745,0.039,23514.382,False,-0.032764491872703194,0.019579190684891005,0.51,-0.09,-0.316,-9.875,-0.026,339.745,169.078,True,0,1,0,0
-1.344,-0.224,-1.313,compass,116.564,-0.224,-20.788,-1.219,-0.448,-10.32,0.0,0.22779510447652176,-59.785,339.723,0.016,23514.482,False,-0.0058009391698304776,0.00782652665368897,0.51,-0.09,-0.316,-9.875,0.01,339.723,169.078,True,0,1,0,0
-1.346,-0.112,-1.314,compass,134.999,0.112,-13.063,-1.247,-0.112,-10.32,0.0,0.19967954655939357,-59.806,339.702,0.016,23514.583,False,-0.0001169821920734645,0.007821581445403918,0.51,-0.09,-0.355,-9.875,0.01,339.702,169.078,True,0,1,0,0
-1.349,-0.224,-1.315,compass,153.434,0.112,-0.041,-1.269,-0.112,-10.32,0.0,0.18635321164269908,-59.828,339.68,0.006,23514.683,False,0.0009447368543517058,0.0029311412461594196,0.51,-0.09,-0.355,-9.875,0.01,339.68,169.078,True,0,1,0,0
-1.339,-0.224,-1.316,compass,-134.999,0.224,1.582,-1.281,0.224,-10.38,0.0,0.18439181621012973,-59.85,339.658,0.006,23514.783,False,0.0025076656082778934,0.002929182987635096,0.51,-0.09,-0.316,-9.875,-0.011,339.658,169.078,True,0,1,0,0
-1.337,-0.112,-1.316,compass,-180.0,0.224,-3.29,-1.294,0.0,-10.38,0.0,0.17197125034777938,-59.878,339.63,0.07,23514.883,False,-0.04010155906981909,0.03512082992512449,0.51,-0.09,-0.316,-9.875,-0.011,339.63,169.078,True,0,1,0,0
-1.334,-0.112,-1.317,compass,-180.0,0.224,-10.35,-1.308,0.0,-10.36,0.0,0.1595351105449381,-59.885,339.623,0.07,23514.983,False,-0.06866450816002131,0.0351132770772773,0.51,-0.09,-0.316,-9.875,0.0,339.623,169.078,True,0,1,0,0
-1.327,0.224,-1.317,compass,63.435,-0.112,-15.557,-1.306,-0.448,-10.36,0.0,0.19149987449794992,-59.907,339.601,0.037,23515.083,False,-0.03390098448040657,0.01851974338315826,0.51,-0.09,-0.355,-9.914,0.0,339.601,169.078,True,0,1,0,0
-1.328,0.0,-1.317,compass,-0.0,0.56,-14.217,-1.3,0.0,-10.36,0.0,0.15751127849585073,-59.893,339.615,0.037,23515.183,False,-0.033896548862904365,0.018527495618378607,0.51,-0.09,-0.355,-9.914,0.0,339.615,169.078,True,0,1,0,0
-1.332,0.112,-1.318,compass,75.964,0.224,-12.63,-1.279,-0.448,-10.36,0.0,0.20101940385628808,-59.878,339.63,0.105,23515.283,False,-0.05348688277286619,0.0526815067376634,0.51,-0.09,-0.316,-9.875,0.0,339.63,169.078,True,0,1,0,0
-1.328,0.112,-1.318,compass,-45.001,0.336,-12.432,-1.265,0.112,-10.36,0.0,0.19875339269774717,-59.85,339.658,0.105,23515.384,False,-0.0028331105893341095,0.05272539940974687,0.51,-0.09,-0.355,-9.875,0.0,339.658,169.078,True,0,1,0,0
-1.326,0.112,-1.319,compass,45.001,0.224,-12.187,-1.237,-0.112,-10.4,0.0,0.17197581976570975,-59.792,339.716,0.045,23515.584,False,0.02805914150830435,0.0224962245944796,0.51,-0.09,-0.316,-9.875,-0.02,339.716,169.078,True,0,1,0,0
-1.326,0.112,-1.319,compass,45.001,0.224,-12.187,-1.237,-0.112,-10.4,0.0,0.17197581976570975,-59.792,339.716,0.045,23515.584,False,0.02805914150830435,0.0224962245944796,0.51,-0.09,-0.316,-9.875,-0.02,339.716,169.078,True,0,1,0,0
-1.332,0.336,-1.319,compass,59.038,-0.224,-9.668,-1.203,-0.56,-10.38,0.0,0.20935609511851344,-59.749,339.759,0.031,23515.784,False,0.027232285995251057,0.01566980992810792,0.51,-0.09,-0.316,-9.875,-0.008,339.759,169.078,True,0,1,0,0
-1.332,0.336,-1.319,compass,59.038,-0.224,-9.668,-1.203,-0.56,-10.38,0.0,0.20935609511851344,-59.749,339.759,0.031,23515.784,False,0.027232285995251057,0.01566980992810792,0.51,-0.09,-0.316,-9.875,-0.008,339.759,169.078,True,0,1,0,0
-1.325,0.224,-1.32,compass,-45.002,0.224,-5.403,-1.167,0.224,-10.38,0.0,0.21173350622910353,-59.691,339.817,0.045,23515.984,False,0.04249978482038916,0.022564443152739862,0.51,-0.09,-0.277,-9.879,-0.007,339.817,169.078,True,0,1,0,0
-1.325,0.224,-1.32,compass,-45.002,0.224,-5.403,-1.167,0.224,-10.38,0.0,0.21173350622910353,-59.691,339.817,0.045,23515.984,False,0.04249978482038916,0.022564443152739862,0.5,-0.09,-0.277,-9.879,-0.007,339.817,169.078,True,0,1,0,0
-1.312,0.336,-1.32,compass,-45.002,0.112,-10.331,-1.124,0.336,-10.38,0.0,0.24115104247003524,-59.592,339.916,0.023,23516.185,False,0.0027620219446048647,0.011807661304690157,0.5,-0.09,-0.277,-9.879,-0.007,339.916,169.078,True,0,1,0,0
-1.312,0.336,-1.32,compass,-45.002,0.112,-10.331,-1.124,0.336,-10.38,0.0,0.24115104247003524,-59.592,339.916,0.023,23516.185,False,0.0027620219446048647,0.011807661304690157,0.5,-0.09,-0.277,-9.879,-0.007,339.916,169.078,True,0,1,0,0
-1.293,0.336,-1.318,compass,33.692,-0.224,-12.861,-1.071,-0.224,-10.32,0.0,0.2476036860192903,-59.556,339.952,0.06,23516.385,False,-0.01644750267654133,0.030535977273618894,0.5,-0.051,-0.316,-9.84,0.013,339.952,169.078,True,0,1,0,0
-1.293,0.336,-1.318,compass,33.692,-0.224,-12.861,-1.071,-0.224,-10.32,0.0,0.2476036860192903,-59.556,339.952,0.025,23516.385,False,-0.01644750267654133,0.030535977273618894,0.5,-0.051,-0.316,-9.84,0.013,339.952,169.078,True,0,1,0,0
-1.256,0.448,-1.315,compass,-0.0,-0.112,-13.723,-1.001,0.0,-10.36,0.0,0.2515270788128035,-59.541,339.967,0.025,23516.585,False,0.01319648620436876,0.01281087748930866,0.5,-0.051,-0.395,-9.914,-0.009,339.967,169.078,True,0,1,0,0
-1.256,0.448,-1.315,compass,-0.0,-0.112,-13.723,-1.001,0.0,-10.36,0.0,0.2515270788128035,-59.541,339.967,0.058,23516.585,False,0.01319648620436876,0.01281087748930866,0.5,-0.051,-0.395,-9.914,-0.009,339.967,169.078,True,0,1,0,0
-1.188,0.224,-1.309,compass,-56.312,-0.0,-18.233,-0.946,0.336,-10.38,0.0,0.29286852702796984,-59.534,339.974,0.058,23516.785,False,-0.056745358986894555,0.029569544804610885,0.5,-0.051,-0.434,-9.914,-0.014,339.974,169.078,True,0,1,0,0
-1.188,0.224,-1.309,compass,-56.312,-0.0,-18.233,-0.946,0.336,-10.38,0.0,0.29286852702796984,-59.534,339.974,0.091,23516.785,False,-0.056745358986894555,0.029569544804610885,0.5,-0.051,-0.434,-9.914,-0.014,339.974,169.078,True,0,1,0,0
-1.086,-0.112,-1.297,compass,-180.0,-0.0,-23.637,-0.922,0.0,-10.3,0.0,0.2541375715815655,-59.493,340.015,0.091,23516.986,False,-0.05893805423084536,0.04638267803434068,0.5,-0.051,-0.434,-9.914,0.028,340.015,169.078,True,0,1,0,0
-1.086,-0.112,-1.297,compass,-180.0,-0.0,-23.637,-0.922,0.0,-10.3,0.0,0.2541375715815655,-59.493,340.015,0.062,23516.986,False,-0.05893805423084536,0.04638267803434068,0.5,-0.051,-0.434,-9.914,0.028,340.015,169.078,True,0,1,0,0
-1.003,0.112,-1.281,compass,71.565,-0.224,-34.919,-0.952,-0.336,-10.3,0.0,0.2415444085184965,-59.381,340.127,0.062,23517.186,False,-0.010452036003954796,0.03168451118614463,0.5,-0.051,-0.355,-9.957,0.028,340.127,169.078,True,0,1,0,0
-0.963,-0.336,-1.271,compass,-126.87,0.448,-38.858,-0.974,0.448,-10.36,0.0,0.2706050534801094,-59.34,340.168,0.111,23517.286,False,0.0012751169021514984,0.05650516403077192,0.5,-0.051,-0.395,-9.953,0.006,340.168,169.078,True,0,1,0,0
-0.937,-0.224,-1.261,compass,-123.691,0.224,-42.963,-1.006,0.336,-10.36,0.0,0.27175676359462153,-59.306,340.202,0.111,23517.386,False,0.014812013966051496,0.05656280058534895,0.5,-0.09,-0.355,-9.914,0.006,340.202,169.078,True,0,1,0,0
-0.913,-0.112,-1.251,compass,-104.037,-0.0,-46.855,-1.024,0.448,-10.4,0.0,0.28008983343424754,-59.278,340.23,0.132,23517.486,False,0.02853583247338207,0.06753408433025687,0.5,-0.09,-0.434,-9.918,-0.016,340.23,169.078,True,0,1,0,0
-0.894,-0.224,-1.24,compass,-111.802,0.448,-51.998,-1.049,0.56,-10.4,0.0,0.2996757164209343,-59.272,340.236,0.132,23517.586,False,0.032145726072867496,0.06754619345418002,0.5,-0.09,-0.395,-9.918,-0.016,340.236,169.078,True,0,1,0,0
-0.882,-0.224,-1.229,compass,135.002,-0.0,-46.48,-1.075,-0.224,-10.4,0.0,0.29923022052971976,-59.272,340.236,0.138,23517.686,False,0.058012071935370176,0.07052470534047003,0.5,-0.09,-0.434,-9.918,-0.016,340.236,169.078,True,0,1,0,0
-0.864,-0.224,-1.218,compass,116.567,-0.0,-37.876,-1.1,-0.448,-10.36,0.0,0.3235112115743478,-59.273,340.235,0.138,23517.787,False,-0.09164290115975118,0.07052305179458908,0.5,-0.09,-0.434,-9.918,-0.001,340.235,169.078,True,0,1,0,0
-0.835,-0.112,-1.207,compass,-116.567,0.112,-34.878,-1.145,0.224,-10.36,0.0,0.2944136547669246,-59.274,340.234,0.058,23517.887,False,-0.018016633730687643,0.029797270697976858,0.5,-0.09,-0.434,-9.879,-0.001,340.234,169.078,True,0,1,0,0
-0.825,0.0,-1.195,compass,-90.0,0.112,-33.076,-1.158,0.112,-10.36,0.0,0.2546463516112053,-59.261,340.247,0.058,23517.987,False,-0.00010637683780854891,0.029808967682655473,0.49,-0.09,-0.434,-9.918,-0.001,340.247,169.078,True,0,1,0,0
-0.802,0.224,-1.183,compass,-44.997,-0.112,-31.113,-1.168,0.224,-10.36,0.0,0.2811789454578829,-59.262,340.246,0.222,23518.087,False,0.05510884374099987,0.11327212438802237,0.49,-0.09,-0.434,-9.879,-0.001,340.246,169.078,True,0,1,0,0
-0.794,0.112,-1.172,compass,-71.563,0.112,-30.413,-1.174,0.336,-10.36,0.0,0.3045156033013837,-59.255,340.253,0.222,23518.187,False,0.09326179052393213,0.11329419211208647,0.49,-0.09,-0.469,-9.879,-0.001,340.253,169.078,True,0,1,0,0
-0.795,0.224,-1.161,compass,44.997,-0.0,-28.909,-1.167,-0.224,-10.38,0.0,0.28921278884305845,-59.241,340.267,0.066,23518.287,False,0.036991150656679725,0.03380331793879611,0.49,-0.09,-0.434,-9.879,-0.007,340.267,169.078,True,0,1,0,0
-0.788,0.0,-1.149,compass,90.0,0.56,-23.658,-1.173,-0.224,-10.38,0.0,0.2668193155013802,-59.219,340.289,0.066,23518.387,False,-0.03687802103395458,0.033824744501733624,0.49,-0.09,-0.434,-9.879,-0.007,340.289,169.078,True,0,1,0,0
-0.797,0.224,-1.139,compass,68.196,0.224,-16.672,-1.161,-0.56,-10.38,0.0,0.2986778771401828,-59.197,340.311,0.089,23518.487,False,-0.08893861928141587,0.04579276317694142,0.49,-0.051,-0.434,-9.875,-0.007,340.311,169.078,True,0,1,0,0
-0.798,-0.112,-1.129,compass,-180.0,0.448,-16.788,-1.155,0.0,-10.38,0.0,0.2654931010259186,-59.176,340.332,0.089,23518.587,False,-0.06979953378918512,0.045820687726657316,0.49,-0.09,-0.395,-9.84,-0.007,340.332,169.078,True,0,1,0,0
-0.828,-0.112,-1.12,compass,135.003,0.56,-13.76,-1.147,-0.112,-10.38,0.0,0.2572225241408081,-59.126,340.382,0.144,23518.687,False,-0.04828457480634752,0.07381953435082626,0.49,-0.09,-0.434,-9.879,-0.007,340.382,169.078,True,0,1,0,0
-0.857,0.112,-1.112,compass,44.997,0.56,-10.705,-1.145,-0.112,-10.36,0.0,0.2501838673351419,-59.097,340.411,0.144,23518.787,False,0.011135152426244506,0.07388259011531122,0.49,-0.09,-0.434,-9.879,0.001,340.411,169.078,True,0,1,0,0
-0.885,-0.112,-1.105,compass,99.463,0.448,-2.268,-1.151,-0.671,-10.36,0.0,0.28737228285439964,-59.054,340.454,0.064,23518.887,False,0.01890413731331008,0.03298883602216324,0.49,-0.09,-0.434,-9.879,0.001,340.454,169.078,True,0,1,0,0
-0.906,-0.112,-1.099,compass,104.037,0.671,6.649,-1.156,-0.448,-10.36,0.0,0.2879377998520008,-59.004,340.504,0.064,23518.987,False,0.026809862039476315,0.033036545307954586,0.49,-0.09,-0.395,-9.918,0.001,340.504,169.078,True,0,1,0,0
-0.942,0.112,-1.094,compass,83.659,0.112,16.236,-1.155,-1.007,-10.42,0.0,0.35303613573309167,-58.967,340.541,0.072,23519.087,False,0.03374988686619801,0.03708124594514033,0.49,-0.09,-0.395,-9.879,-0.019,340.541,169.078,True,0,1,0,0
-0.962,0.0,-1.09,compass,90.0,0.56,21.108,-1.159,-0.224,-10.42,0.0,0.31030768691057886,-58.932,340.576,0.072,23519.187,False,0.03933463473988886,0.03711859895196812,0.49,-0.051,-0.395,-9.875,-0.019,340.576,169.078,True,0,1,0,0
-0.998,0.0,-1.087,compass,90.0,0.448,31.018,-1.159,-0.336,-10.36,0.0,0.28275291861374546,-58.91,340.598,0.012,23519.287,False,0.0060219317434142905,0.006023148283469358,0.49,-0.051,-0.316,-9.879,0.013,340.598,169.078,True,0,1,0,0
-1.02,-0.112,-1.085,compass,135.001,0.671,40.976,-1.156,-0.112,-10.36,0.0,0.23953028480431293,-58.896,340.612,0.012,23519.387,False,0.0053405244124187885,0.0060256247182023616,0.49,-0.051,-0.355,-9.879,0.013,340.612,169.078,True,0,1,0,0
-1.057,-0.112,-1.085,compass,-135.001,0.56,38.301,-1.148,0.112,-10.32,0.0,0.20866910067665378,-58.894,340.614,0.017,23519.487,False,0.009962836133661113,0.009038940404395821,0.49,-0.051,-0.355,-9.879,0.031,340.614,169.078,True,0,1,0,0
-1.094,0.0,-1.085,compass,90.0,0.448,37.823,-1.14,-0.112,-10.32,0.0,0.17860650833478292,-58.901,340.607,0.017,23519.587,False,0.010993967178278368,0.009037023394846501,0.49,-0.09,-0.355,-9.875,0.031,340.607,169.078,True,0,1,0,0
-1.154,0.0,-1.087,compass,90.0,0.112,40.483,-1.121,-0.783,-10.4,0.0,0.23929070180597362,-58.927,340.581,0.062,23519.687,False,0.03932059448325998,0.03210719791003866,0.49,-0.09,-0.355,-9.875,-0.012,340.581,169.078,True,0,1,0,0
-1.169,0.0,-1.089,compass,-0.0,0.56,29.712,-1.117,0.0,-10.4,0.0,0.20035021567884004,-58.927,340.581,0.062,23519.788,False,0.04918207013731093,0.032107494359209135,0.49,-0.051,-0.316,-9.879,-0.012,340.581,169.078,True,0,1,0,0
-1.189,0.112,-1.092,compass,63.436,0.336,30.206,-1.12,-0.224,-10.4,0.0,0.19498842474471495,-58.927,340.581,0.06,23519.888,False,0.04845475819652396,0.031104376567851224,0.49,-0.09,-0.316,-9.875,-0.012,340.581,169.078,True,0,1,0,0
-1.196,0.112,-1.095,compass,-45.001,0.336,26.446,-1.121,0.112,-10.28,0.0,0.18268343421682584,-58.94,340.568,0.06,23519.988,False,0.051475960347940414,0.031092036979945954,0.49,-0.09,-0.316,-9.875,0.03,340.568,169.078,True,0,1,0,0
-1.203,0.0,-1.099,compass,-90.0,0.56,20.669,-1.122,0.224,-10.28,0.0,0.1751334907737162,-58.955,340.553,0.027,23520.088,False,0.02477174276169237,0.014035510490619395,0.49,-0.09,-0.355,-9.875,0.03,340.553,169.078,True,0,1,0,0
-1.202,-0.112,-1.102,compass,-180.0,0.112,9.759,-1.129,0.0,-10.38,0.0,0.15542704142579883,-58.962,340.546,0.027,23520.188,False,-0.0008935826631622737,0.01403264900129548,0.49,-0.09,-0.395,-9.879,-0.023,340.546,169.078,True,0,1,0,0
-1.201,-0.224,-1.105,compass,116.565,0.336,6.616,-1.135,-0.448,-10.38,0.0,0.18952514976153712,-58.983,340.525,0.039,23520.288,False,0.012873582551203489,0.020034537078883793,0.49,-0.051,-0.355,-9.918,-0.023,340.525,169.078,True,0,1,0,0
-1.179,-0.112,-1.107,compass,-135.0,0.224,-0.399,-1.139,0.112,-10.38,0.0,0.1747695462626769,-58.977,340.531,0.039,23520.388,False,-0.02432720352050122,0.020038306599697686,0.49,-0.051,-0.395,-9.914,-0.023,340.531,169.078,True,0,1,0,0
-1.159,-0.112,-1.109,compass,135.0,0.224,-0.436,-1.128,-0.112,-10.36,0.0,0.1661759512823277,-58.984,340.524,0.051,23520.488,False,-0.009032732886187469,0.026044489645301698,0.49,-0.051,-0.355,-9.918,-0.014,340.524,169.078,True,0,1,0,0
-1.111,0.224,-1.109,compass,-26.565,0.112,-1.27,-1.12,0.112,-10.36,0.0,0.1705801668732021,-58.964,340.544,0.051,23520.588,False,0.011089827369544645,0.02605964878178727,0.49,-0.051,-0.355,-9.918,-0.014,340.544,169.078,True,0,1,0,0
-1.091,-0.112,-1.108,compass,135.0,0.224,2.032,-1.11,-0.112,-10.34,0.0,0.1624878904512237,-58.957,340.551,0.054,23520.688,False,0.02441538661937778,0.028069749290445964,0.49,-0.051,-0.395,-9.914,-0.003,340.551,169.078,True,0,1,0,0
-1.066,0.112,-1.107,compass,-78.69,0.336,2.103,-1.092,0.56,-10.34,0.0,0.2065979230602094,-58.942,340.566,0.054,23520.788,False,0.0350255117328752,0.028081883711448798,0.48,-0.09,-0.395,-9.918,-0.003,340.566,169.078,True,0,1,0,0
-1.046,0.112,-1.105,compass,-80.538,0.56,-1.441,-1.089,0.671,-10.34,0.0,0.24796278370799898,-58.915,340.593,0.025,23520.888,False,0.02047012972606923,0.013048335700430569,0.48,-0.051,-0.395,-9.914,-0.003,340.593,169.078,True,0,1,0,0
-1.026,0.0,-1.103,compass,-90.0,0.224,-6.499,-1.079,0.112,-10.38,0.0,0.21205045346053675,-58.893,340.615,0.025,23520.988,False,-0.005174730486614018,0.013056550137462212,0.48,-0.051,-0.395,-9.875,-0.016,340.615,169.078,True,0,1,0,0
-0.999,-0.112,-1.1,compass,-135.001,0.671,-11.993,-1.075,0.112,-10.38,0.0,0.19980265117685375,-58.859,340.649,0.084,23521.088,False,-0.07359617220658728,0.043229671346974585,0.48,-0.051,-0.395,-9.875,-0.016,340.649,169.078,True,0,1,0,0
-0.978,0.0,-1.096,compass,90.0,0.112,-13.471,-1.072,-0.448,-10.36,0.0,0.227288666229399,-58.83,340.678,0.084,23521.188,False,-0.03432369915467311,0.04326524984455019,0.48,-0.051,-0.355,-9.879,-0.004,340.678,169.078,True,0,1,0,0
-0.958,0.112,-1.092,compass,-63.434,0.336,-16.513,-1.069,0.224,-10.36,0.0,0.2131735084921464,-58.788,340.72,0.029,23521.288,False,-0.02778173663542874,0.015110938205543043,0.48,-0.09,-0.434,-9.879,-0.004,340.72,169.078,True,0,1,0,0
-0.945,-0.112,-1.087,compass,-135.001,0.56,-22.333,-1.06,0.112,-10.34,0.0,0.19011082819968325,-58.767,340.741,0.029,23521.389,False,-0.027980828282260378,0.015119933153743147,0.48,-0.09,-0.395,-9.84,0.006,340.741,169.078,True,0,1,0,0
-0.918,0.0,-1.082,compass,90.0,0.448,-21.825,-1.057,-0.56,-10.34,0.0,0.22843679759967866,-58.682,340.826,0.062,23521.489,False,-0.04162562264470119,0.03233449513885258,0.48,-0.09,-0.434,-9.84,0.006,340.826,169.078,True,0,1,0,0
-0.895,0.0,-1.077,compass,-90.0,1.231,-21.984,-1.069,0.112,-10.32,0.0,0.2043749187098615,-58.598,340.91,0.062,23521.589,False,-0.019084561318044313,0.03241285149509438,0.48,-0.09,-0.355,-9.875,0.016,340.91,169.078,True,0,1,0,0
-0.887,0.112,-1.071,compass,44.998,1.343,-21.037,-1.076,-0.112,-10.32,0.0,0.18127067396932275,-58.534,340.974,0.014,23521.689,False,-0.013267034674559822,0.0071033102553201485,0.48,-0.09,-0.395,-9.797,0.016,340.974,169.078,True,0,1,0,0
-0.88,0.0,-1.065,compass,-90.0,1.679,-23.81,-1.076,0.56,-10.32,0.0,0.21089222564978563,-58.471,341.037,0.014,23521.789,False,-0.010071493377192743,0.007116097552623638,0.48,-0.09,-0.355,-9.801,0.016,341.037,169.078,True,0,1,0,0
-0.889,0.224,-1.06,compass,-0.0,0.56,-24.173,-1.072,0.0,-10.36,0.0,0.19367272786614786,-58.413,341.095,0.012,23521.889,False,-0.004558621693573964,0.006109525559057604,0.48,-0.051,-0.434,-9.992,0.001,341.095,169.078,True,0,1,0,0
-0.882,0.112,-1.055,compass,-63.434,0.112,-26.117,-1.072,0.224,-10.36,0.0,0.18326011461040437,-58.357,341.151,0.012,23521.989,False,-0.0010920132546702469,0.006119276920000875,0.48,-0.051,-0.395,-9.914,0.001,341.151,169.078,True,0,1,0,0
-0.889,0.112,-1.05,compass,63.434,0.224,-23.077,-1.074,-0.224,-10.4,0.0,0.1804999917392863,-58.293,341.215,0.035,23522.089,False,-0.032020608349906006,0.01839074068995996,0.48,-0.051,-0.395,-9.836,-0.019,341.215,169.078,True,0,1,0,0
-0.892,0.224,-1.045,compass,44.999,0.56,-18.4,-1.061,-0.224,-10.4,0.0,0.18623910898640694,-58.242,341.266,0.035,23522.189,False,-0.03258248461287022,0.018417174277006974,0.48,-0.051,-0.434,-9.875,-0.019,341.266,169.078,True,0,1,0,0
-0.9,-0.112,-1.041,compass,-135.001,0.224,-19.626,-1.057,0.112,-10.4,0.0,0.17104764234912034,-58.193,341.315,0.033,23522.289,False,-0.03148977092757868,0.017418354049958947,0.48,-0.051,-0.395,-9.875,-0.019,341.315,169.078,True,0,1,0,0
-0.915,0.0,-1.037,compass,90.0,0.224,-16.313,-1.055,-0.224,-10.36,0.0,0.1674073114271981,-58.058,341.45,0.033,23522.389,False,-0.02952440198684891,0.017484397821201928,0.48,-0.051,-0.395,-9.914,-0.004,341.45,169.078,True,0,1,0,0
-0.922,-0.112,-1.033,compass,135.001,-0.0,-7.146,-1.057,-0.112,-10.36,0.0,0.15019998642426316,-57.987,341.521,0.004,23522.489,False,-0.002242569821401681,0.0020610951843390724,0.48,-0.051,-0.395,-9.914,-0.004,341.521,169.078,True,0,1,0,0
-0.929,-0.112,-1.03,compass,135.001,0.224,5.076,-1.06,-0.112,-10.36,0.0,0.136530685378147,-57.903,341.605,0.004,23522.589,False,-0.0012275018854977244,0.002065928354339543,0.48,-0.051,-0.395,-9.914,-0.004,341.605,169.078,True,0,1,0,0
-0.936,-0.112,-1.027,compass,135.001,0.224,13.463,-1.063,-0.112,-10.32,0.0,0.13028047637423834,-57.831,341.677,0.049,23522.689,False,-0.0034961075436164817,0.025875357384717298,0.48,-0.051,-0.395,-9.875,0.009,341.677,169.078,True,0,1,0,0
-0.95,-0.112,-1.025,compass,135.001,0.336,22.354,-1.066,-0.112,-10.32,0.0,0.12317936523094249,-57.782,341.726,0.049,23522.789,False,0.003967340133243482,0.025910969676963984,0.48,-0.051,-0.395,-9.875,0.009,341.726,169.078,True,0,1,0,0
-0.964,-0.224,-1.023,compass,135.001,0.448,33.418,-1.069,-0.224,-10.44,0.0,0.13359446164339941,-57.739,341.769,0.066,23522.89,False,0.008548511563883365,0.03528059138964433,0.48,-0.051,-0.395,-9.914,-0.051,341.769,169.078,True,0,1,0,0
-0.978,-0.112,-1.022,compass,108.435,0.448,43.188,-1.072,-0.336,-10.44,0.0,0.14514272346144103,-57.696,341.812,0.066,23522.99,False,0.009696506482279349,0.035322245176594755,0.48,-0.09,-0.434,-9.918,-0.051,341.812,169.078,True,0,1,0,0
-0.993,-0.112,-1.021,compass,108.435,0.224,53.438,-1.068,-0.336,-10.44,0.0,0.1538358924793311,-57.66,341.848,0.035,23523.09,False,0.004020185993229015,0.018718568014719595,0.48,-0.09,-0.395,-9.918,-0.051,341.848,169.078,True,0,1,0,0
