imu.roll,imu.pitchrate,imu.heel,ap.mode,ap.wind_angle,imu.headingrate,ap.true_wind_angle,imu.pitch,imu.rollrate,rudder.angle,wind.speed,ap.true_wind_speed,ap.heading_error,ap.heading,gps.speed,timestamp,ap.enabled,ap.vmg,ap.cmg,sow.speed,imu.accel_X,imu.accel_Y,imu.accel_Z,rudder.speed,imu.heading,gps.track,perf.quality_flag,perf.boat_config.Main,perf.boat_config.jib,perf.boat_config.spi,perf.boat_config.weight
-0.671,-0.112,-0.734,compass,-60.632,0.224,-68.311,-0.979,0.224,-10.24,2.448,2.6134731513279075,-53.164,346.344,0.031,23936.472,False,0.011525347282340916,0.018647473734384676,0.43,-0.051,-0.434,-9.875,-0.01,346.344,169.078,True,0,1,0,0
-0.633,-0.112,-0.729,compass,-59.88,0.112,-66.859,-0.996,0.112,-10.22,2.528,2.5820155175577986,-53.172,346.336,0.049,23936.672,False,0.019122283914564303,0.02913133997187918,0.43,-0.051,-0.434,-9.875,0.001,346.336,169.078,True,0,1,0,0
-0.633,-0.112,-0.729,compass,-59.88,0.112,-66.859,-0.996,0.112,-10.22,2.528,2.5820155175577986,-53.172,346.336,0.049,23936.672,False,0.019122283914564303,0.02913133997187918,0.43,-0.051,-0.434,-9.875,0.001,346.336,169.078,True,0,1,0,0
-0.617,0.0,-0.722,compass,-58.696,-0.0,-65.03,-1.015,0.112,-10.22,2.588,2.611924955334864,-53.173,346.335,0.041,23936.872,False,0.017245923561363292,0.024469941787458562,0.43,-0.012,-0.469,-9.879,0.001,346.335,169.078,True,0,1,0,0
-0.617,0.0,-0.722,compass,-58.696,-0.0,-65.03,-1.015,0.112,-10.22,2.588,2.611924955334864,-53.173,346.335,0.041,23936.872,False,0.017245923561363292,0.024469941787458562,0.44,-0.012,-0.469,-9.879,0.001,346.335,169.078,True,0,1,0,0
-0.61,-0.112,-0.716,compass,-58.429,-0.112,-63.359,-1.015,-0.112,-10.17,2.647,2.608929274326349,-53.117,346.391,0.039,23937.073,False,0.01746498488723528,0.023335270001394775,0.44,-0.051,-0.469,-9.914,0.018,346.391,169.078,True,0,1,0,0
-0.61,-0.112,-0.716,compass,-58.429,-0.112,-63.359,-1.015,-0.112,-10.17,2.647,2.608929274326349,-53.117,346.391,0.039,23937.073,False,0.01746498488723528,0.023335270001394775,0.44,-0.051,-0.469,-9.914,0.018,346.391,169.078,True,0,1,0,0
-0.603,0.0,-0.709,compass,-54.223,-0.112,-61.662,-1.016,-0.112,-10.17,2.627,2.613825071178641,-53.053,346.455,0.056,23937.273,False,0.026825889227408774,0.0338858859818794,0.44,-0.051,-0.469,-9.914,0.016,346.455,169.078,True,0,1,0,0
-0.603,0.0,-0.709,compass,-54.223,-0.112,-61.662,-1.016,-0.112,-10.17,2.627,2.613825071178641,-53.053,346.455,0.056,23937.273,False,0.026825889227408774,0.0338858859818794,0.44,-0.051,-0.469,-9.914,0.016,346.455,169.078,True,0,1,0,0
-0.597,-0.224,-0.703,compass,-55.698,-0.112,-59.889,-1.016,-0.224,-10.17,2.608,2.578189676251765,-52.99,346.518,0.027,23937.473,False,0.013690645488767028,0.01638269833830107,0.44,-0.051,-0.469,-9.914,0.016,346.518,169.078,True,0,1,0,0
-0.604,0.0,-0.7,compass,-53.406,-0.0,-59.078,-1.018,-0.224,-10.2,2.608,2.5665481667546715,-52.955,346.553,0.027,23937.573,False,0.014025074198031827,0.01639589821833842,0.44,-0.051,-0.434,-9.914,0.004,346.553,169.078,True,0,1,0,0
-0.611,0.224,-0.697,compass,-51.153,0.112,-57.857,-1.012,-0.224,-10.2,2.548,2.5721791087007007,-52.94,346.568,0.111,23937.673,False,0.059096318374352544,0.06677782397762487,0.44,-0.051,-0.434,-9.914,0.004,346.568,169.078,True,0,1,0,0
-0.649,0.112,-0.696,compass,-52.244,-0.0,-56.746,-0.996,-0.224,-10.2,2.548,2.568522013533022,-52.912,346.596,0.111,23937.773,False,0.060907912395771056,0.06682212051149611,0.44,-0.051,-0.434,-9.914,0.004,346.596,169.078,True,0,1,0,0
-0.671,0.0,-0.695,compass,-59.533,0.224,-56.508,-0.985,-0.224,-10.17,2.408,2.5111992482480088,-52.89,346.618,0.008,23937.874,False,0.004300925678132147,0.004691678657528935,0.44,-0.051,-0.434,-9.914,0.014,346.618,169.078,True,0,1,0,0
-0.693,-0.224,-0.695,compass,-60.689,-0.0,-56.554,-0.981,-0.448,-10.17,2.408,2.429976353155896,-52.868,346.64,0.008,23937.974,False,0.004295349922768737,0.004693978550332339,0.44,-0.09,-0.469,-9.879,0.014,346.64,169.078,True,0,1,0,0
-0.722,0.112,-0.696,compass,-58.248,-0.0,-56.642,-0.971,-0.224,-10.17,2.408,2.410488393177524,-52.861,346.647,0.012,23938.074,False,0.006425914390815379,0.007042202462930768,0.44,-0.051,-0.434,-9.875,0.014,346.647,169.078,True,0,1,0,0
-0.744,0.112,-0.697,compass,-58.248,0.112,-56.762,-0.967,-0.224,-10.17,2.408,2.395277906364565,-52.832,346.676,0.012,23938.174,False,0.006406700277039113,0.007046909153274077,0.44,-0.051,-0.434,-9.914,0.013,346.676,169.078,True,0,1,0,0
-0.766,0.112,-0.699,compass,-57.35,-0.224,-56.707,-0.962,-0.336,-10.17,2.349,2.3629739972938744,-52.817,346.691,0.043,23938.274,False,0.023521606842785276,0.02584717358083757,0.44,-0.051,-0.434,-9.875,0.013,346.691,169.078,True,0,1,0,0
-0.794,0.112,-0.702,compass,-56.486,-0.336,-56.616,-0.959,-0.448,-10.2,2.349,2.3266093404274084,-52.81,346.698,0.043,23938.374,False,0.023572167912167888,0.025851597986784575,0.44,-0.051,-0.434,-9.875,-0.004,346.698,169.078,True,0,1,0,0
-0.809,0.112,-0.705,compass,-58.1,-0.0,-56.416,-0.954,-0.224,-10.2,2.289,2.3126457376538623,-52.788,346.72,0.082,23938.474,False,0.045243017106963525,0.049377990652690544,0.44,-0.051,-0.434,-9.875,-0.004,346.72,169.078,True,0,1,0,0
-0.824,0.112,-0.709,compass,-58.1,-0.0,-56.293,-0.949,-0.224,-10.2,2.289,2.301713252842512,-52.781,346.727,0.082,23938.574,False,0.045378334953535084,0.04938623964129002,0.44,-0.051,-0.395,-9.875,-0.004,346.727,169.078,True,0,1,0,0
-0.85,0.0,-0.713,compass,-59.41,0.112,-56.351,-0.966,-0.224,-10.13,2.229,2.270778621881359,-52.774,346.734,0.064,23938.674,False,0.035593347190385594,0.038809693586283014,0.44,-0.051,-0.395,-9.875,0.02,346.734,169.078,True,0,1,0,0
-0.863,0.112,-0.718,compass,-58.855,-0.0,-56.451,-0.975,-0.112,-10.13,2.229,2.2649249823725697,-52.774,346.734,0.064,23938.774,False,0.035490354673006756,0.03880970960709962,0.44,-0.051,-0.434,-9.875,0.02,346.734,169.078,True,0,1,0,0
-0.877,-0.112,-0.722,compass,-60.844,0.224,-56.701,-0.976,-0.224,-10.13,2.269,2.2425589601802103,-52.78,346.728,0.052,23938.874,False,0.02883526335800483,0.031748457057825696,0.44,-0.051,-0.395,-9.875,0.02,346.728,169.078,True,0,1,0,0
-0.882,-0.112,-0.727,compass,-61.62,0.224,-57.04,-0.991,-0.112,-10.26,2.269,2.2367169893672734,-52.788,346.72,0.052,23938.974,False,0.028566914029975923,0.03174323159193739,0.44,-0.051,-0.395,-9.875,-0.025,346.72,169.078,True,0,1,0,0
-0.888,-0.112,-0.732,compass,-61.603,0.336,-57.408,-1.005,-0.112,-10.26,2.329,2.24544655082943,-52.795,346.713,0.054,23939.074,False,0.02932411513541711,0.03291348839020112,0.44,-0.051,-0.395,-9.875,-0.025,346.713,169.078,True,0,1,0,0
-0.894,-0.224,-0.737,compass,-64.342,0.112,-57.918,-1.013,0.112,-10.2,2.329,2.2698193426085194,-52.809,346.699,0.054,23939.174,False,0.028905559313783098,0.03290292844532284,0.44,-0.051,-0.395,-9.875,0.007,346.699,169.078,True,0,1,0,0
-0.892,-0.224,-0.741,compass,-64.179,0.336,-58.707,-1.026,0.112,-10.2,2.448,2.3091355085451744,-52.831,346.677,0.004,23939.274,False,0.0020182052957974273,0.002349022367250623,0.44,-0.051,-0.395,-9.875,0.007,346.677,169.078,True,0,1,0,0
-0.884,-0.112,-0.746,compass,-63.539,0.112,-59.417,-1.032,0.224,-10.2,2.448,2.357679308737875,-52.845,346.663,0.004,23939.374,False,0.0019764777698494966,0.002348258139182939,0.44,-0.051,-0.395,-9.875,0.007,346.663,169.078,True,0,1,0,0
-0.877,-0.224,-0.75,compass,-63.607,-0.0,-59.985,-1.038,0.224,-10.11,2.588,2.4214026718949992,-52.866,346.642,0.019,23939.474,False,0.009712953160087493,0.011735590175191414,0.44,-0.051,-0.395,-9.875,0.036,346.642,169.078,True,0,1,0,0
-0.849,0.0,-0.753,compass,-61.291,0.112,-60.378,-1.034,0.224,-10.11,2.588,2.483489000317008,-52.909,346.599,0.019,23939.574,False,0.009589841518880057,0.01172399791487299,0.44,-0.051,-0.395,-9.875,0.036,346.599,169.078,True,0,1,0,0
-0.834,-0.224,-0.755,compass,-62.918,0.448,-60.746,-1.039,0.112,-10.24,2.667,2.524449494020139,-52.916,346.592,0.014,23939.675,False,0.006638556192984333,0.008205419734190186,0.44,-0.051,-0.395,-9.875,-0.033,346.592,169.078,True,0,1,0,0
-0.82,-0.112,-0.757,compass,-62.366,-0.0,-61.037,-1.037,0.224,-10.24,2.667,2.5744054320316936,-52.923,346.585,0.014,23939.775,False,0.006579429402475771,0.008204070075741218,0.44,-0.051,-0.395,-9.875,-0.033,346.585,169.078,True,0,1,0,0
-0.806,0.112,-0.758,compass,-60.161,-0.0,-61.119,-1.035,0.224,-10.24,2.727,2.6406979877057384,-52.938,346.57,0.025,23939.875,False,0.01218701125987973,0.015230891074067554,0.44,-0.051,-0.395,-9.914,-0.033,346.57,169.078,True,0,1,0,0
-0.793,0.0,-0.759,compass,-61.227,0.112,-61.152,-1.027,0.224,-10.17,2.727,2.6858827016004536,-52.938,346.57,0.025,23939.975,False,0.012178396896426823,0.01523088402811083,0.44,-0.051,-0.395,-9.875,-0.006,346.57,169.078,True,0,1,0,0
-0.78,0.0,-0.76,compass,-61.254,-0.112,-61.184,-1.018,0.224,-10.17,2.667,2.7071214258289107,-52.952,346.556,0.017,23940.075,False,0.008421984623683045,0.010541068950055866,0.44,-0.051,-0.434,-9.875,-0.006,346.556,169.078,True,0,1,0,0
-0.767,0.224,-0.76,compass,-59.099,-0.0,-61.09,-1.009,0.224,-10.17,2.667,2.7370110649910324,-52.966,346.542,0.017,23940.175,False,0.008446753418829507,0.010537679720621728,0.44,-0.051,-0.434,-9.875,-0.006,346.542,169.078,True,0,1,0,0
-0.754,0.0,-0.76,compass,-61.254,0.112,-60.98,-1.0,0.224,-10.15,2.667,2.7483869364001166,-52.973,346.535,0.029,23940.275,False,0.014128858280385119,0.017559972441603754,0.44,-0.051,-0.434,-9.875,0.001,346.535,169.078,True,0,1,0,0
-0.726,0.112,-0.759,compass,-59.535,0.112,-60.817,-0.997,0.112,-10.15,2.667,2.7522764875393766,-52.981,346.527,0.029,23940.375,False,0.014202006960934568,0.017556677099332695,0.44,-0.051,-0.434,-9.875,0.001,346.527,169.078,True,0,1,0,0
-0.687,0.224,-0.757,compass,-59.704,-0.0,-60.506,-0.971,0.336,-10.17,2.528,2.758666026221793,-52.988,346.52,0.064,23940.475,False,0.03155049021363481,0.038618461139753306,0.44,-0.051,-0.469,-9.875,-0.009,346.52,169.078,True,0,1,0,0
-0.673,0.112,-0.754,compass,-59.51,-0.0,-60.203,-0.962,0.112,-10.17,2.528,2.733895791604103,-52.988,346.52,0.064,23940.575,False,0.03185318257024762,0.03861845797156843,0.44,-0.051,-0.434,-9.875,-0.009,346.52,169.078,True,0,1,0,0
-0.653,0.112,-0.751,compass,-59.507,0.112,-60.051,-0.953,0.112,-10.17,2.508,2.7064718158021033,-52.988,346.52,0.033,23940.675,False,0.016487910631494174,0.019894318340294096,0.44,-0.051,-0.469,-9.914,-0.009,346.52,169.078,True,0,1,0,0
-0.64,0.112,-0.748,compass,-59.507,-0.112,-59.903,-0.944,0.112,-10.3,2.508,2.6850914011665954,-52.988,346.52,0.033,23940.775,False,0.016564108552251364,0.019894318795695705,0.44,-0.051,-0.434,-9.875,-0.052,346.52,169.078,True,0,1,0,0
-0.633,0.112,-0.745,compass,-58.762,-0.0,-59.696,-0.943,0.0,-10.3,2.408,2.6357990580808206,-52.988,346.52,0.039,23940.875,False,0.019610991727431398,0.023405036538777933,0.44,-0.051,-0.469,-9.875,-0.052,346.52,169.078,True,0,1,0,0
-0.626,0.112,-0.741,compass,-59.487,-0.112,-59.526,-0.943,0.112,-10.15,2.408,2.608815825328537,-52.981,346.527,0.039,23940.975,False,0.0197150769741672,0.023408754745391763,0.44,-0.012,-0.469,-9.879,0.027,346.527,169.078,True,0,1,0,0
-0.62,0.0,-0.737,compass,-59.998,0.112,-59.327,-0.942,0.0,-10.15,2.468,2.5849948387921486,-52.988,346.52,0.058,23941.075,False,0.0297437145915627,0.035107421859415684,0.44,-0.051,-0.434,-9.875,0.027,346.52,169.078,True,0,1,0,0
-0.613,-0.112,-0.734,compass,-61.906,0.224,-59.276,-0.941,0.112,-10.15,2.468,2.5715129919959407,-52.981,346.527,0.058,23941.176,False,0.02979402273729672,0.03511299931080167,0.44,-0.051,-0.469,-9.875,0.027,346.527,169.078,True,0,1,0,0
-0.612,-0.112,-0.73,compass,-60.532,-0.0,-59.233,-0.948,-0.112,-10.2,2.468,2.5378062888243207,-52.988,346.52,0.06,23941.276,False,0.030821679546439978,0.036277459885400196,0.44,-0.051,-0.469,-9.875,0.008,346.52,169.078,True,0,1,0,0
-0.61,-0.112,-0.726,compass,-59.798,-0.112,-59.17,-0.962,-0.224,-10.2,2.468,2.4999445215730387,-52.975,346.533,0.06,23941.376,False,0.030889585235733135,0.03628884152521889,0.44,-0.051,-0.434,-9.875,0.008,346.533,169.078,True,0,1,0,0
-0.616,-0.224,-0.723,compass,-61.114,-0.0,-59.133,-0.97,-0.224,-10.24,2.448,2.4601127238644573,-52.968,346.54,0.066,23941.476,False,0.03391965977813495,0.039806982378499535,0.44,-0.051,-0.469,-9.875,-0.013,346.54,169.078,True,0,1,0,0
-0.622,-0.336,-0.72,compass,-62.466,-0.0,-59.199,-0.985,-0.224,-10.24,2.448,2.4226300860057366,-52.968,346.54,0.066,23941.576,False,0.03385163229262089,0.03980675116917355,0.44,-0.051,-0.469,-9.875,-0.013,346.54,169.078,True,0,1,0,0
-0.635,-0.112,-0.718,compass,-59.804,-0.112,-59.255,-0.993,-0.224,-10.24,2.548,2.427286836461004,-52.975,346.533,0.058,23941.676,False,0.029814078028302844,0.03511796275714347,0.44,-0.051,-0.434,-9.875,-0.013,346.533,169.078,True,0,1,0,0
-0.64,-0.224,-0.715,compass,-61.759,-0.0,-59.356,-1.008,-0.112,-10.26,2.548,2.4360105129498004,-52.976,346.532,0.058,23941.776,False,0.0297257689555648,0.03511776149983128,0.44,-0.051,-0.434,-9.914,-0.018,346.532,169.078,True,0,1,0,0
-0.659,-0.112,-0.713,compass,-60.487,-0.224,-59.386,-1.024,-0.112,-10.26,2.687,2.4813155587274043,-52.989,346.519,0.07,23941.876,False,0.03562800557638733,0.04212769789439241,0.44,-0.051,-0.434,-9.875,-0.018,346.519,169.078,True,0,1,0,0
-0.665,0.0,-0.712,compass,-59.337,-0.0,-59.344,-1.031,-0.112,-10.2,2.687,2.5234298647615905,-53.003,346.505,0.07,23941.976,False,0.0356634893911624,0.042114074469194615,0.44,-0.051,-0.434,-9.875,0.013,346.505,169.078,True,0,1,0,0
-0.679,-0.112,-0.711,compass,-59.82,-0.112,-59.341,-1.032,-0.224,-10.2,2.767,2.553663436701581,-53.024,346.484,0.054,23942.076,False,0.02773070098577418,0.03273971575443392,0.44,-0.09,-0.434,-9.879,0.013,346.484,169.078,True,0,1,0,0
-0.693,-0.112,-0.711,compass,-59.821,-0.224,-59.315,-1.034,-0.224,-10.15,2.767,2.577272978047608,-53.046,346.462,0.054,23942.176,False,0.027743865316485584,0.032723409904431046,0.44,-0.09,-0.434,-9.918,0.037,346.462,169.078,True,0,1,0,0
-0.727,0.112,-0.711,compass,-49.248,-0.0,-58.861,-1.036,-0.112,-10.15,2.807,2.6302684380034345,-53.108,346.4,0.033,23942.276,False,0.01704951929241384,0.01983878861304425,0.44,-0.09,-0.469,-9.918,0.037,346.4,169.078,True,0,1,0,0
-0.748,0.112,-0.712,compass,-48.423,-0.224,-58.055,-1.039,-0.224,-10.2,2.807,2.661766970710197,-53.122,346.386,0.033,23942.376,False,0.01744983698016949,0.019832503922055676,0.44,-0.051,-0.434,-9.875,0.008,346.386,169.078,True,0,1,0,0
-0.769,0.112,-0.714,compass,-46.415,-0.0,-56.914,-1.041,-0.448,-10.2,2.647,2.633823273967172,-53.115,346.393,0.047,23942.476,False,0.025433607019459993,0.028003524503013376,0.44,-0.051,-0.434,-9.914,0.008,346.393,169.078,True,0,1,0,0
-0.784,-0.112,-0.716,compass,-49.432,-0.112,-55.819,-1.036,-0.336,-10.2,2.647,2.6041609592235946,-53.115,346.393,0.047,23942.576,False,0.02618468814499327,0.028003743018513105,0.44,-0.051,-0.434,-9.914,0.008,346.393,169.078,True,0,1,0,0
-0.806,0.224,-0.719,compass,-46.26,0.112,-54.623,-1.025,-0.336,-10.22,2.588,2.5964388200463775,-53.107,346.401,0.056,23942.677,False,0.03261850920084981,0.033843776206886736,0.44,-0.051,-0.434,-9.875,0.001,346.401,169.078,True,0,1,0,0
-0.828,0.112,-0.722,compass,-47.27,0.112,-53.494,-1.02,-0.336,-10.22,2.588,2.5814068843778615,-53.106,346.402,0.056,23942.777,False,0.03352367996751975,0.03384475896901203,0.44,-0.051,-0.395,-9.914,0.001,346.402,169.078,True,0,1,0,0
-0.844,0.224,-0.726,compass,-47.194,0.112,-52.458,-1.001,-0.224,-10.22,2.588,2.5889646060855562,-53.105,346.403,0.058,23942.877,False,0.03552492369261043,0.035012339317840736,0.44,-0.051,-0.395,-9.875,0.0,346.403,169.078,True,0,1,0,0
-0.866,0.112,-0.73,compass,-47.27,-0.224,-51.527,-0.996,-0.336,-10.22,2.588,2.5760728993678175,-53.112,346.396,0.058,23942.977,False,0.03627029520672564,0.035007023460802394,0.44,-0.051,-0.395,-9.875,0.0,346.396,169.078,True,0,1,0,0
-0.911,0.224,-0.735,compass,-44.111,0.112,-50.579,-0.973,-0.336,-10.22,2.528,2.562995428847082,-53.132,346.376,0.052,23943.077,False,0.03330996853567083,0.03149127007027312,0.44,-0.051,-0.355,-9.918,0.0,346.376,169.078,True,0,1,0,0
-0.933,0.112,-0.741,compass,-46.097,-0.112,-49.746,-0.969,-0.224,-10.2,2.528,2.5528901180209287,-53.132,346.376,0.052,23943.177,False,0.033901019796051715,0.03149156727903206,0.44,-0.051,-0.395,-9.914,0.007,346.376,169.078,True,0,1,0,0
-0.954,0.112,-0.748,compass,-46.209,0.112,-49.186,-0.971,-0.224,-10.2,2.627,2.559857413149335,-53.124,346.384,0.008,23943.277,False,0.005081298809087605,0.0046662892863816,0.44,-0.051,-0.395,-9.875,0.007,346.384,169.078,True,0,1,0,0
-0.967,-0.224,-0.754,compass,-50.187,0.112,-48.887,-0.98,-0.112,-10.2,2.627,2.5485146585536245,-53.11,346.398,0.008,23943.377,False,0.005113342146017532,0.004667799517034703,0.44,-0.051,-0.355,-9.879,0.007,346.398,169.078,True,0,1,0,0
-0.981,0.112,-0.761,compass,-47.222,-0.112,-48.484,-0.975,-0.112,-10.22,2.767,2.603467859064085,-53.096,346.412,0.051,23943.478,False,0.033510262409490274,0.030350718873698865,0.44,-0.051,-0.355,-9.879,-0.0,346.412,169.078,True,0,1,0,0
-0.995,0.0,-0.768,compass,-49.812,-0.112,-48.27,-0.977,0.112,-10.22,2.767,2.657447385971858,-53.095,346.413,0.051,23943.578,False,0.03364987967921814,0.03035084060373826,0.44,-0.012,-0.355,-9.875,-0.0,346.413,169.078,True,0,1,0,0
-1.009,0.112,-0.775,compass,-48.037,-0.0,-48.076,-0.979,0.0,-10.22,2.687,2.6813666552454114,-53.095,346.413,0.054,23943.678,False,0.03637427056702945,0.032685652049434674,0.44,-0.012,-0.355,-9.875,-0.0,346.413,169.078,True,0,1,0,0
-1.016,0.112,-0.782,compass,-49.689,-0.112,-48.001,-0.979,0.224,-10.22,2.687,2.7201031913819187,-53.102,346.406,0.054,23943.778,False,0.036421766687817235,0.032680442582019874,0.44,-0.051,-0.355,-9.879,-0.0,346.406,169.078,True,0,1,0,0
-1.025,0.112,-0.79,compass,-47.21,-0.112,-47.913,-0.966,-0.112,-10.22,2.747,2.7316812403678394,-53.102,346.406,0.043,23943.878,False,0.028665907935722722,0.025677713078970262,0.44,-0.051,-0.395,-9.836,-0.0,346.406,169.078,True,0,1,0,0
-1.032,-0.112,-0.797,compass,-50.784,-0.224,-47.967,-0.96,0.112,-10.26,2.747,2.743283484752347,-53.102,346.406,0.043,23943.978,False,0.028635949342041864,0.02567784942769857,0.44,-0.051,-0.355,-9.918,-0.02,346.406,169.078,True,0,1,0,0
-1.026,-0.224,-0.804,compass,-51.697,-0.0,-48.126,-0.952,0.112,-10.26,2.826,2.762576824858468,-53.095,346.413,0.051,23944.078,False,0.03374217147017759,0.030351488088364853,0.44,-0.051,-0.395,-9.953,-0.02,346.413,169.078,True,0,1,0,0
-1.019,-0.112,-0.817,compass,-49.121,-0.0,-48.067,-0.959,-0.112,-10.17,2.926,2.801783805737253,-53.081,346.427,0.128,23944.278,False,0.08576013010442407,0.0770705426276124,0.44,-0.051,-0.355,-9.918,0.027,346.427,169.078,True,0,1,0,0
-1.019,-0.112,-0.817,compass,-49.121,-0.0,-48.067,-0.959,-0.112,-10.17,2.926,2.801783805737253,-53.081,346.427,0.128,23944.278,False,0.08576013010442407,0.0770705426276124,0.44,-0.051,-0.355,-9.918,0.027,346.427,169.078,True,0,1,0,0
-1.025,0.0,-0.829,compass,-49.001,-0.448,-48.249,-0.966,0.0,-10.17,3.026,2.8934059376693364,-53.136,346.372,0.029,23944.478,False,0.019404603826278916,0.017493398230958256,0.44,-0.012,-0.355,-9.875,0.025,346.372,169.078,True,0,1,0,0
-1.025,0.0,-0.829,compass,-49.001,-0.448,-48.249,-0.966,0.0,-10.17,3.026,2.8934059376693364,-53.136,346.372,0.029,23944.478,False,0.019404603826278916,0.017493398230958256,0.44,-0.012,-0.355,-9.875,0.025,346.372,169.078,True,0,1,0,0
-1.046,0.112,-0.841,compass,-47.386,-0.224,-48.186,-0.959,-0.112,-10.26,3.045,2.9557086277055444,-53.235,346.273,0.119,23944.678,False,0.07892413589840992,0.07097665605064342,0.44,-0.09,-0.395,-9.957,-0.023,346.273,169.078,True,0,1,0,0
-1.046,0.112,-0.841,compass,-47.386,-0.224,-48.186,-0.959,-0.112,-10.26,3.045,2.9557086277055444,-53.235,346.273,0.119,23944.678,False,0.07892413589840992,0.07097665605064342,0.44,-0.09,-0.395,-9.957,-0.023,346.273,169.078,True,0,1,0,0
-1.08,0.112,-0.855,compass,-45.789,0.112,-47.822,-0.968,-0.336,-10.2,3.045,2.9610569413555923,-53.34,346.168,0.041,23944.879,False,0.027343961801417686,0.024374309513282937,0.44,-0.09,-0.355,-9.875,0.009,346.168,169.078,True,0,1,0,0
-1.08,0.112,-0.855,compass,-45.789,0.112,-47.822,-0.968,-0.336,-10.2,3.045,2.9610569413555923,-53.34,346.168,0.041,23944.879,False,0.027343961801417686,0.024374309513282937,0.44,-0.09,-0.355,-9.875,0.009,346.168,169.078,True,0,1,0,0
-1.139,0.112,-0.871,compass,-46.662,0.112,-47.562,-1.002,-0.224,-10.24,3.125,2.9977560272557606,-53.453,346.055,0.047,23945.079,False,0.03139193043717546,0.02778279168259724,0.44,-0.051,-0.395,-9.875,-0.012,346.055,169.078,True,0,1,0,0
-1.139,0.112,-0.871,compass,-46.662,0.112,-47.562,-1.002,-0.224,-10.24,3.125,2.9977560272557606,-53.453,346.055,0.047,23945.079,False,0.03139193043717546,0.02778279168259724,0.44,-0.051,-0.395,-9.875,-0.012,346.055,169.078,True,0,1,0,0
-1.208,0.0,-0.89,compass,-45.792,-0.0,-47.319,-1.01,-0.448,-10.24,3.026,2.965422488784731,-53.494,346.014,0.021,23945.279,False,0.014464022553623794,0.012721555583145475,0.44,-0.051,-0.355,-9.918,-0.012,346.014,169.078,True,0,1,0,0
-1.208,0.0,-0.89,compass,-45.792,-0.0,-47.319,-1.01,-0.448,-10.24,3.026,2.965422488784731,-53.494,346.014,0.021,23945.279,False,0.014464022553623794,0.012721555583145475,0.44,-0.051,-0.355,-9.918,-0.012,346.014,169.078,True,0,1,0,0
-1.279,-0.112,-0.912,compass,-46.762,-0.0,-46.842,-1.004,-0.448,-10.2,3.125,2.9373074934700343,-53.52,345.988,0.064,23945.479,False,0.043805835233090076,0.03814071579256932,0.44,-0.051,-0.355,-9.879,0.003,345.988,169.078,True,0,1,0,0
-1.279,-0.112,-0.912,compass,-46.762,-0.0,-46.842,-1.004,-0.448,-10.2,3.125,2.9373074934700343,-53.52,345.988,0.064,23945.479,False,0.043805835233090076,0.03814071579256932,0.44,-0.051,-0.355,-9.879,0.003,345.988,169.078,True,0,1,0,0
-1.366,0.112,-0.938,compass,-44.958,-0.224,-46.219,-0.985,-0.448,-10.17,3.045,2.949773226199813,-53.561,345.947,0.054,23945.679,False,0.0376036547410239,0.032330547894243424,0.44,-0.012,-0.277,-9.918,0.012,345.947,169.078,True,0,1,0,0
-1.366,0.112,-0.938,compass,-44.958,-0.224,-46.219,-0.985,-0.448,-10.17,3.045,2.949773226199813,-53.561,345.947,0.054,23945.679,False,0.0376036547410239,0.032330547894243424,0.44,-0.012,-0.277,-9.918,0.012,345.947,169.078,True,0,1,0,0
-1.51,0.112,-0.969,compass,-43.961,-0.112,-45.74,-0.953,-0.56,-10.15,2.966,2.899161991444606,-53.615,345.893,0.043,23945.879,False,0.02980024161351279,0.025370264304655776,0.44,-0.051,-0.316,-9.918,0.021,345.893,169.078,True,0,1,0,0
-1.51,0.112,-0.969,compass,-43.961,-0.112,-45.74,-0.953,-0.56,-10.15,2.966,2.899161991444606,-53.615,345.893,0.043,23945.879,False,0.02980024161351279,0.025370264304655776,0.44,-0.051,-0.316,-9.918,0.021,345.893,169.078,True,0,1,0,0
-1.596,0.112,-1.004,compass,-44.632,-0.112,-45.313,-0.943,-0.448,-10.15,2.826,2.843413721680993,-53.606,345.902,0.021,23946.079,False,0.015025218438650085,0.012687893767456462,0.44,-0.012,-0.277,-9.879,0.021,345.902,169.078,True,0,1,0,0
-1.596,0.112,-1.004,compass,-44.632,-0.112,-45.313,-0.943,-0.448,-10.15,2.826,2.843413721680993,-53.606,345.902,0.021,23946.079,False,0.015025218438650085,0.012687893767456462,0.44,-0.012,-0.277,-9.879,0.021,345.902,169.078,True,0,1,0,0
-1.682,0.224,-1.044,compass,-44.38,-0.224,-45.011,-0.932,-0.336,-10.17,2.667,2.7597923971648926,-53.611,345.897,0.023,23946.279,False,0.016482816105333208,0.013839514740773926,0.44,-0.051,-0.242,-9.875,0.012,345.897,169.078,True,0,1,0,0
-1.682,0.224,-1.044,compass,-44.38,-0.224,-45.011,-0.932,-0.336,-10.17,2.667,2.7597923971648926,-53.611,345.897,0.023,23946.279,False,0.016482816105333208,0.013839514740773926,0.44,-0.051,-0.242,-9.875,0.012,345.897,169.078,True,0,1,0,0
-1.76,0.0,-1.085,compass,-46.261,-0.0,-44.719,-0.928,-0.336,-10.13,2.627,2.671052920099179,-53.624,345.884,0.08,23946.479,False,0.056606772322934755,0.0472707766376998,0.43,-0.051,-0.242,-9.914,0.024,345.884,169.078,True,0,1,0,0
-1.76,0.0,-1.085,compass,-46.261,-0.0,-44.719,-0.928,-0.336,-10.13,2.627,2.671052920099179,-53.624,345.884,0.08,23946.479,False,0.056606772322934755,0.0472707766376998,0.43,-0.051,-0.242,-9.914,0.024,345.884,169.078,True,0,1,0,0
-1.837,0.0,-1.128,compass,-42.011,0.224,-44.53,-0.93,-0.336,-10.13,2.588,2.6139654140547357,-53.645,345.863,0.01,23946.68,False,0.006925586735607068,0.005761913389407411,0.43,-0.051,-0.242,-9.875,0.024,345.863,169.078,True,0,1,0,0
-1.837,0.0,-1.128,compass,-42.011,0.224,-44.53,-0.93,-0.336,-10.13,2.588,2.6139654140547357,-53.645,345.863,0.01,23946.68,False,0.006925586735607068,0.005761913389407411,0.43,-0.051,-0.242,-9.875,0.024,345.863,169.078,True,0,1,0,0
-1.922,0.0,-1.174,compass,-43.061,0.112,-44.301,-0.933,-0.224,-10.22,2.608,2.5588090541913235,-53.658,345.85,0.027,23946.88,False,0.01946927620936863,0.016128492917743445,0.43,-0.051,-0.203,-9.875,-0.008,345.85,169.078,True,0,1,0,0
-1.922,0.0,-1.174,compass,-43.061,0.112,-44.301,-0.933,-0.224,-10.22,2.608,2.5588090541913235,-53.658,345.85,0.027,23946.88,False,0.01946927620936863,0.016128492917743445,0.43,-0.051,-0.203,-9.875,-0.008,345.85,169.078,True,0,1,0,0
-1.954,-0.112,-1.22,compass,-45.013,0.112,-44.05,-0.958,-0.112,-10.24,2.667,2.5764938833643454,-53.671,345.837,0.047,23947.08,False,0.033518201525607416,0.02763986459285128,0.43,-0.051,-0.203,-9.875,-0.014,345.837,169.078,True,0,1,0,0
-1.954,-0.112,-1.22,compass,-45.013,0.112,-44.05,-0.958,-0.112,-10.24,2.667,2.5764938833643454,-53.671,345.837,0.047,23947.08,False,0.033518201525607416,0.02763986459285128,0.43,-0.051,-0.203,-9.875,-0.014,345.837,169.078,True,0,1,0,0
-1.974,0.0,-1.264,compass,-45.908,-0.0,-44.058,-0.967,0.112,-10.24,2.707,2.6277877344184257,-53.714,345.794,0.035,23947.28,False,0.025127063980741195,0.020709071918087345,0.43,-0.051,-0.164,-9.836,-0.013,345.794,169.078,True,0,1,0,0
-1.974,0.0,-1.264,compass,-45.908,-0.0,-44.058,-0.967,0.112,-10.24,2.707,2.6277877344184257,-53.714,345.794,0.035,23947.28,False,0.025127063980741195,0.020709071918087345,0.43,-0.051,-0.164,-9.836,-0.013,345.794,169.078,True,0,1,0,0
-1.972,0.112,-1.306,compass,-45.013,-0.0,-44.304,-0.981,0.112,-10.15,2.727,2.70508530452102,-53.728,345.78,0.062,23947.48,False,0.044490325205061125,0.0368038285117635,0.43,-0.051,-0.203,-9.836,0.034,345.78,169.078,True,0,1,0,0
-1.972,0.112,-1.306,compass,-45.013,-0.0,-44.304,-0.981,0.112,-10.15,2.727,2.70508530452102,-53.728,345.78,0.062,23947.48,False,0.044490325205061125,0.0368038285117635,0.43,-0.051,-0.203,-9.836,0.034,345.78,169.078,True,0,1,0,0
-1.915,-0.112,-1.343,compass,-53.169,-0.0,-45.116,-0.988,0.336,-10.2,2.866,2.7947569977927413,-53.722,345.786,0.021,23947.68,False,0.015085325555605848,0.012653126988723291,0.43,-0.051,-0.203,-9.875,0.006,345.786,169.078,True,0,1,0,0
-1.915,-0.112,-1.343,compass,-53.169,-0.0,-45.116,-0.988,0.336,-10.2,2.866,2.7947569977927413,-53.722,345.786,0.021,23947.68,False,0.015085325555605848,0.012653126988723291,0.43,-0.051,-0.203,-9.875,0.006,345.786,169.078,True,0,1,0,0
-1.865,0.112,-1.375,compass,-50.598,-0.0,-46.484,-0.989,0.224,-10.2,2.946,2.8966911537228324,-53.68,345.828,0.041,23947.88,False,0.028119175393885233,0.02417995207477259,0.43,-0.051,-0.242,-9.875,0.006,345.828,169.078,True,0,1,0,0
-1.844,0.112,-1.389,compass,-51.305,-0.0,-47.067,-0.987,0.336,-10.15,2.946,2.9534498120117005,-53.645,345.863,0.041,23947.98,False,0.027828423118855555,0.02419970997735072,0.43,-0.051,-0.277,-9.875,0.022,345.863,169.078,True,0,1,0,0
-1.817,0.112,-1.402,compass,-51.304,-0.0,-47.594,-0.984,0.336,-10.15,2.946,2.9979730380445835,-53.624,345.884,0.043,23948.08,False,0.02886848776728207,0.0253648880441068,0.43,-0.051,-0.242,-9.914,0.022,345.884,169.078,True,0,1,0,0
-1.817,0.112,-1.402,compass,-51.304,-0.0,-47.594,-0.984,0.336,-10.15,2.946,2.9979730380445835,-53.624,345.884,0.043,23948.08,False,0.02886848776728207,0.0253648880441068,0.42,-0.051,-0.242,-9.914,0.022,345.884,169.078,True,0,1,0,0
-1.753,-0.112,-1.423,compass,-51.647,-0.0,-48.528,-0.991,0.112,-10.2,2.986,3.01505787468626,-53.583,345.925,0.035,23948.28,False,0.02320009954350256,0.020773058563517532,0.42,-0.051,-0.242,-9.914,-0.005,345.925,169.078,True,0,1,0,0
-1.717,-0.224,-1.432,compass,-52.569,0.112,-48.975,-0.993,0.112,-10.2,2.986,3.0077211048989296,-53.562,345.946,0.035,23948.381,False,0.022996665657579043,0.020783436471422913,0.42,-0.09,-0.277,-9.918,-0.005,345.946,169.078,True,0,1,0,0
-1.689,-0.224,-1.44,compass,-57.253,-0.0,-49.671,-0.997,0.224,-10.28,2.966,3.0085042122329697,-53.542,345.966,0.019,23948.481,False,0.012597505094944351,0.011551908182118585,0.42,-0.051,-0.277,-9.914,-0.03,345.966,169.078,True,0,1,0,0
-1.631,0.112,-1.446,compass,-53.754,0.112,-50.28,-1.012,0.112,-10.28,2.966,3.020774135604241,-53.487,346.021,0.019,23948.581,False,0.012447165130344186,0.01156700182246943,0.42,-0.09,-0.277,-9.918,-0.03,346.021,169.078,True,0,1,0,0
-1.602,0.112,-1.45,compass,-54.423,0.112,-50.752,-1.016,0.224,-10.26,2.926,3.036263897962264,-53.466,346.042,0.047,23948.681,False,0.0295738505739332,0.027774118596148752,0.42,-0.051,-0.277,-9.914,-0.017,346.042,169.078,True,0,1,0,0
-1.588,0.112,-1.454,compass,-53.056,0.112,-51.114,-1.014,0.0,-10.26,2.926,3.0267934640013903,-53.453,346.055,0.047,23948.781,False,0.029339732318599782,0.027783080596319797,0.42,-0.051,-0.316,-9.918,-0.017,346.055,169.078,True,0,1,0,0
-1.581,0.0,-1.458,compass,-54.006,-0.0,-51.401,-1.014,0.0,-10.26,2.826,2.9909319983796965,-53.438,346.07,0.056,23948.881,False,0.03522762293875377,0.03358279462395992,0.42,-0.051,-0.277,-9.914,-0.017,346.07,169.078,True,0,1,0,0
-1.574,0.224,-1.462,compass,-52.79,0.112,-51.609,-1.013,0.112,-10.2,2.826,2.9896299294516964,-53.431,346.077,0.056,23948.981,False,0.03505944158598272,0.03358820752180102,0.42,-0.051,-0.316,-9.918,0.005,346.077,169.078,True,0,1,0,0
-1.567,0.224,-1.465,compass,-51.98,-0.0,-51.822,-1.012,0.0,-10.2,2.707,2.946796075643612,-53.417,346.091,0.021,23949.081,False,0.01323511592063871,0.012744488190275686,0.42,-0.051,-0.277,-9.914,0.005,346.091,169.078,True,0,1,0,0
-1.561,0.224,-1.468,compass,-51.195,-0.112,-51.904,-1.005,-0.112,-10.2,2.707,2.9029313791561138,-53.396,346.112,0.021,23949.182,False,0.013211882577773731,0.012750734544193024,0.42,-0.051,-0.277,-9.914,0.005,346.112,169.078,True,0,1,0,0
-1.557,0.224,-1.47,compass,-50.244,-0.0,-51.749,-0.983,-0.224,-10.2,2.608,2.8407907998071398,-53.381,346.127,0.051,23949.282,False,0.031334411149922345,0.030148702035143058,0.42,-0.051,-0.316,-9.918,0.004,346.127,169.078,True,0,1,0,0
-1.567,0.224,-1.473,compass,-50.244,-0.112,-51.542,-0.957,-0.224,-10.2,2.608,2.792365419056695,-53.339,346.169,0.051,23949.382,False,0.031490858671783535,0.030178563580599397,0.42,-0.051,-0.277,-9.914,0.004,346.169,169.078,True,0,1,0,0
-1.575,0.224,-1.476,compass,-50.094,-0.0,-51.207,-0.951,-0.224,-10.2,2.508,2.7365620347815978,-53.324,346.184,0.076,23949.482,False,0.047575825875652254,0.045283688591145295,0.42,-0.051,-0.277,-9.914,0.004,346.184,169.078,True,0,1,0,0
-1.59,0.224,-1.48,compass,-49.179,-0.0,-50.84,-0.947,-0.336,-10.2,2.508,2.682940726065751,-53.275,346.233,0.076,23949.582,False,0.047975312261485596,0.04533555429907817,0.42,-0.051,-0.277,-9.914,0.004,346.233,169.078,True,0,1,0,0
-1.604,0.0,-1.484,compass,-52.296,0.112,-50.713,-0.949,-0.224,-10.2,2.488,2.6263256815821947,-53.226,346.282,0.051,23949.682,False,0.03208223718048096,0.0302587758842747,0.42,-0.051,-0.242,-9.875,0.004,346.282,169.078,True,0,1,0,0
-1.625,0.0,-1.488,compass,-52.296,0.112,-50.668,-0.952,-0.224,-10.17,2.488,2.5821227631335777,-53.19,346.318,0.051,23949.782,False,0.03211478847726065,0.030284081513347022,0.42,-0.051,-0.277,-9.914,0.014,346.318,169.078,True,0,1,0,0
-1.646,-0.112,-1.493,compass,-53.475,0.224,-50.846,-0.955,-0.224,-10.17,2.528,2.544017677545906,-53.162,346.346,0.021,23949.882,False,0.013534684396048496,0.012820874383696442,0.42,-0.051,-0.277,-9.914,0.014,346.346,169.078,True,0,1,0,0
-1.673,-0.112,-1.498,compass,-52.592,0.224,-51.018,-0.965,-0.336,-10.2,2.528,2.5036080996037695,-53.133,346.375,0.021,23949.982,False,0.013484282041856668,0.012829494629404574,0.42,-0.051,-0.277,-9.875,-0.003,346.375,169.078,True,0,1,0,0
-1.686,0.0,-1.504,compass,-54.008,0.224,-51.198,-0.974,0.0,-10.2,2.588,2.5275543086936296,-53.105,346.403,0.037,23950.082,False,0.02319920437804458,0.02217440015256757,0.43,-0.051,-0.277,-9.875,-0.003,346.403,169.078,True,0,1,0,0
-1.706,-0.112,-1.51,compass,-52.627,-0.0,-51.337,-0.984,-0.336,-10.22,2.588,2.5061000681120102,-53.083,346.425,0.037,23950.182,False,0.02312613686053283,0.02218565562758256,0.43,-0.051,-0.277,-9.875,-0.012,346.425,169.078,True,0,1,0,0
-1.726,-0.112,-1.516,compass,-51.769,0.112,-51.334,-0.994,-0.448,-10.22,2.627,2.490386230721795,-53.049,346.459,0.056,23950.282,False,0.035303939275638865,0.03388976514871972,0.43,-0.051,-0.242,-9.875,-0.012,346.459,169.078,True,0,1,0,0
-1.746,-0.112,-1.523,compass,-52.65,0.112,-51.351,-1.004,-0.336,-10.22,2.627,2.4886768231372955,-53.027,346.481,0.056,23950.382,False,0.03528617994661626,0.03390693563097255,0.43,-0.051,-0.242,-9.875,-0.012,346.481,169.078,True,0,1,0,0
-1.774,0.0,-1.531,compass,-51.667,0.112,-51.213,-1.008,-0.336,-10.17,2.767,2.5315787205356983,-52.977,346.531,0.093,23950.483,False,0.058601332997348765,0.05618661721094272,0.43,-0.051,-0.242,-9.875,0.005,346.531,169.078,True,0,1,0,0
-1.802,0.112,-1.539,compass,-50.641,-0.0,-51.034,-1.011,-0.336,-10.17,2.767,2.573519111890163,-52.963,346.545,0.093,23950.583,False,0.05880920303230742,0.056205167126339,0.43,-0.012,-0.203,-9.879,0.005,346.545,169.078,True,0,1,0,0
-1.817,0.112,-1.547,compass,-51.457,0.112,-51.154,-1.006,-0.224,-10.13,2.767,2.6050223601821636,-52.955,346.553,0.014,23950.683,False,0.008551174833116288,0.008197957464378588,0.43,-0.051,-0.203,-9.875,0.025,346.553,169.078,True,0,1,0,0
-1.832,0.0,-1.556,compass,-53.257,0.224,-51.318,-0.993,-0.112,-10.13,2.767,2.6320111742884995,-52.955,346.553,0.014,23950.783,False,0.008517437113340406,0.008198028897636824,0.43,-0.051,-0.203,-9.875,0.025,346.553,169.078,True,0,1,0,0
-1.846,-0.112,-1.564,compass,-55.041,0.224,-51.512,-0.995,0.0,-10.24,2.767,2.659083440983936,-52.955,346.553,0.035,23950.883,False,0.02180244501587179,0.02108073703861048,0.43,-0.051,-0.203,-9.875,-0.033,346.553,169.078,True,0,1,0,0
-1.855,0.112,-1.573,compass,-52.245,0.112,-51.64,-0.982,-0.112,-10.24,2.767,2.6852943532696925,-52.968,346.54,0.035,23950.983,False,0.02173075027805704,0.02107410112878216,0.43,-0.051,-0.203,-9.875,-0.033,346.54,169.078,True,0,1,0,0
-1.869,0.0,-1.582,compass,-54.011,0.112,-51.66,-0.976,0.0,-10.24,2.707,2.7010875249908843,-52.996,346.512,0.076,23951.083,False,0.047032857814667095,0.045631493956329316,0.43,-0.09,-0.203,-9.879,-0.029,346.512,169.078,True,0,1,0,0
-1.87,0.112,-1.591,compass,-53.735,0.224,-51.722,-0.969,0.112,-10.24,2.707,2.7320401245596604,-53.011,346.497,0.076,23951.183,False,0.04695668278654255,0.045616040976684785,0.43,-0.09,-0.203,-9.918,-0.029,346.497,169.078,True,0,1,0,0
-1.856,0.224,-1.599,compass,-53.456,0.448,-51.89,-0.967,0.224,-10.24,2.608,2.748534133293239,-53.025,346.483,0.045,23951.283,False,0.027583515238372408,0.0268929937988334,0.43,-0.051,-0.203,-9.914,-0.026,346.483,169.078,True,0,1,0,0
-1.842,0.112,-1.606,compass,-55.2,0.336,-52.119,-0.966,0.336,-10.24,2.608,2.7644082231170826,-53.039,346.469,0.045,23951.383,False,0.027438766952444682,0.026884218774203893,0.43,-0.051,-0.242,-9.914,-0.026,346.469,169.078,True,0,1,0,0
-1.828,0.0,-1.613,compass,-55.533,-0.0,-52.354,-0.971,0.224,-10.24,2.588,2.754852684674977,-53.039,346.469,0.052,23951.483,False,0.03204427736519964,0.03155953182302246,0.43,-0.051,-0.242,-9.914,-0.026,346.469,169.078,True,0,1,0,0
-1.799,0.112,-1.618,compass,-54.478,0.112,-52.56,-0.974,0.224,-10.24,2.588,2.7550413208602205,-53.054,346.454,0.052,23951.583,False,0.03188903935648733,0.03154841965788161,0.43,-0.051,-0.242,-9.914,-0.024,346.454,169.078,True,0,1,0,0
-1.771,0.0,-1.623,compass,-56.173,0.224,-52.899,-0.971,0.336,-10.24,2.687,2.777450867620672,-53.055,346.453,0.031,23951.683,False,0.018753320625587794,0.01869520036363399,0.43,-0.09,-0.242,-9.918,-0.024,346.453,169.078,True,0,1,0,0
-1.735,0.112,-1.626,compass,-55.846,0.112,-53.226,-0.974,0.448,-10.22,2.687,2.8134494336700318,-53.076,346.432,0.031,23951.783,False,0.018605939042828527,0.01868591813829101,0.43,-0.051,-0.277,-9.875,-0.011,346.432,169.078,True,0,1,0,0
-1.707,0.112,-1.629,compass,-56.36,0.224,-53.478,-0.977,0.224,-10.22,2.727,2.8313705696065563,-53.083,346.425,0.052,23951.883,False,0.031213620828135624,0.03152705877045107,0.43,-0.051,-0.277,-9.875,-0.011,346.425,169.078,True,0,1,0,0
-1.671,-0.112,-1.63,compass,-59.072,0.448,-53.859,-0.987,0.336,-10.22,2.727,2.8422321264534616,-53.077,346.431,0.052,23951.983,False,0.03094129754309115,0.03153165853458367,0.43,-0.051,-0.277,-9.875,-0.011,346.431,169.078,True,0,1,0,0
-1.634,-0.224,-1.63,compass,-60.102,0.448,-54.322,-0.997,0.336,-10.22,2.747,2.8491808596498958,-53.078,346.43,0.06,23952.083,False,0.03513411632593083,0.03620245172704109,0.43,-0.051,-0.277,-9.875,-0.01,346.43,169.078,True,0,1,0,0
-1.599,-0.112,-1.629,compass,-58.414,0.56,-54.752,-0.999,0.224,-10.22,2.747,2.8498789836201968,-53.085,346.423,0.06,23952.183,False,0.03476378989634564,0.03619613439376198,0.43,-0.051,-0.277,-9.875,-0.01,346.423,169.078,True,0,1,0,0
-1.534,-0.112,-1.626,compass,-58.363,0.224,-55.26,-1.006,0.224,-10.22,2.807,2.859228517745774,-53.065,346.443,0.027,23952.283,False,0.015509444373219213,0.016354153953108803,0.43,-0.051,-0.316,-9.918,-0.009,346.443,169.078,True,0,1,0,0
-1.505,-0.112,-1.622,compass,-58.362,-0.0,-55.698,-1.017,0.224,-10.22,2.807,2.866499842788932,-53.059,346.449,0.027,23952.384,False,0.015339905922082502,0.01635656446694796,0.43,-0.012,-0.316,-9.914,-0.009,346.449,169.078,True,0,1,0,0
-1.477,-0.112,-1.618,compass,-57.728,0.224,-55.975,-1.014,0.112,-10.22,2.787,2.8586856793552378,-53.039,346.469,0.045,23952.484,False,0.02503174966327381,0.026884261270787264,0.43,-0.012,-0.316,-9.914,-0.009,346.469,169.078,True,0,1,0,0
-1.457,-0.112,-1.613,compass,-57.727,0.448,-56.193,-1.012,0.112,-10.22,2.787,2.8525809014287713,-53.01,346.498,0.045,23952.584,False,0.0249023359338582,0.02690192162960749,0.43,-0.012,-0.316,-9.914,-0.008,346.498,169.078,True,0,1,0,0
-1.436,0.112,-1.608,compass,-56.65,0.224,-56.433,-1.01,0.112,-10.22,2.807,2.862605388405176,-52.99,346.518,0.012,23952.684,False,0.006456868307749706,0.007021235190421787,0.43,-0.051,-0.316,-9.918,-0.008,346.518,169.078,True,0,1,0,0
-1.423,0.112,-1.602,compass,-56.65,-0.0,-56.581,-1.002,0.112,-10.22,2.807,2.870428097821859,-52.962,346.546,0.012,23952.784,False,0.006433770718541692,0.007025740005796511,0.43,-0.051,-0.316,-9.918,-0.008,346.546,169.078,True,0,1,0,0
-1.409,-0.112,-1.597,compass,-58.673,0.224,-56.639,-1.0,0.112,-10.24,2.866,2.8798124732886983,-52.941,346.567,0.047,23952.884,False,0.025698592902574396,0.02811691623678592,0.43,-0.051,-0.316,-9.918,-0.014,346.567,169.078,True,0,1,0,0
-1.396,-0.112,-1.591,compass,-58.673,0.224,-56.735,-0.992,0.112,-10.24,2.866,2.8870927090633254,-52.92,346.588,0.047,23952.984,False,0.025634710853747276,0.028130414371837033,0.43,-0.051,-0.316,-9.879,-0.014,346.588,169.078,True,0,1,0,0
-1.39,-0.112,-1.585,compass,-57.369,0.112,-56.644,-0.985,-0.112,-10.22,2.886,2.87949175822222,-52.877,346.631,0.086,23953.084,False,0.047134968160316516,0.05162305498908529,0.43,-0.012,-0.277,-9.918,-0.003,346.631,169.078,True,0,1,0,0
-1.391,-0.112,-1.579,compass,-57.369,0.224,-56.555,-0.978,-0.112,-10.22,2.886,2.8735812700469037,-52.87,346.638,0.086,23953.184,False,0.04722951415571925,0.05163146603821013,0.43,-0.051,-0.316,-9.918,-0.003,346.638,169.078,True,0,1,0,0
-1.398,0.0,-1.573,compass,-55.613,0.112,-56.331,-0.972,-0.224,-10.17,2.826,2.8539878038332915,-52.877,346.631,0.099,23953.284,False,0.05503607765329083,0.0598362696017482,0.43,-0.051,-0.316,-9.879,0.023,346.631,169.078,True,0,1,0,0
-1.399,-0.112,-1.568,compass,-57.377,-0.0,-56.167,-0.965,-0.112,-10.17,2.826,2.8424588999997367,-52.884,346.624,0.099,23953.384,False,0.05524879687793698,0.05982685185265971,0.43,-0.012,-0.316,-9.914,0.023,346.624,169.078,True,0,1,0,0
-1.399,0.112,-1.563,compass,-53.281,-0.0,-55.983,-0.965,-0.112,-10.15,2.826,2.8445136582395367,-52.898,346.61,0.064,23953.484,False,0.0359028928386028,0.03869835952434265,0.43,-0.051,-0.316,-9.918,0.03,346.61,169.078,True,0,1,0,0
-1.399,-0.112,-1.558,compass,-56.71,0.112,-55.858,-0.965,0.112,-10.15,2.826,2.852665723173001,-52.898,346.61,0.064,23953.584,False,0.03601601083145113,0.03869835952434265,0.43,-0.051,-0.316,-9.879,0.03,346.61,169.078,True,0,1,0,0
-1.399,0.112,-1.553,compass,-54.702,0.224,-55.799,-0.965,0.112,-10.2,2.747,2.8519952944426423,-52.892,346.616,0.029,23953.684,False,0.016396916658462365,0.01759298270044121,0.43,-0.051,-0.277,-9.875,0.002,346.616,169.078,True,0,1,0,0
-1.399,0.0,-1.549,compass,-55.718,0.224,-55.735,-0.965,0.112,-10.2,2.747,2.843856395219048,-52.892,346.616,0.029,23953.784,False,0.016422397349688804,0.01759298270044121,0.43,-0.09,-0.277,-9.879,0.002,346.616,169.078,True,0,1,0,0
-1.392,0.112,-1.544,compass,-55.403,0.112,-55.66,-0.964,0.224,-10.2,2.727,2.8517142034662144,-52.892,346.616,0.029,23953.884,False,0.016453022592959297,0.017592946689176873,0.43,-0.09,-0.316,-9.875,0.002,346.616,169.078,True,0,1,0,0
-1.391,-0.112,-1.539,compass,-56.771,0.224,-55.64,-0.971,0.112,-10.22,2.727,2.831830284443746,-52.906,346.602,0.029,23953.984,False,0.016455734626645426,0.01758725899779971,0.43,-0.09,-0.316,-9.914,-0.004,346.602,169.078,True,0,1,0,0
-1.373,0.0,-1.534,compass,-55.004,0.224,-55.3,-1.004,0.0,-10.22,2.667,2.8095833883037575,-52.906,346.602,0.103,23954.085,False,0.05864845809549797,0.06214052094183533,0.43,-0.09,-0.355,-9.875,-0.004,346.602,169.078,True,0,1,0,0
-1.344,0.112,-1.529,compass,-56.772,0.336,-55.109,-1.014,0.448,-10.24,2.667,2.84388253165298,-52.893,346.615,0.103,23954.185,False,0.0589465625207688,0.06215956953028372,0.43,-0.051,-0.277,-9.836,-0.014,346.615,169.078,True,0,1,0,0
-1.322,0.0,-1.523,compass,-57.113,0.112,-55.138,-1.026,0.336,-10.24,2.687,2.851244786516038,-52.872,346.636,0.064,23954.285,False,0.036689704010925854,0.03872199278660295,0.43,-0.051,-0.316,-9.879,-0.014,346.636,169.078,True,0,1,0,0
-1.293,0.0,-1.516,compass,-57.767,0.224,-55.236,-1.03,0.448,-10.24,2.687,2.8681742669411348,-52.852,346.656,0.064,23954.385,False,0.036609943797730825,0.03874015074414013,0.43,-0.051,-0.316,-9.879,-0.014,346.656,169.078,True,0,1,0,0
-1.258,0.112,-1.508,compass,-56.102,0.336,-55.072,-1.026,0.336,-10.22,2.667,2.8814256821184534,-52.838,346.67,0.126,23954.485,False,0.07241359755417774,0.07632996866150857,0.43,-0.051,-0.316,-9.918,-0.006,346.67,169.078,True,0,1,0,0
-1.224,0.0,-1.499,compass,-57.127,-0.112,-54.968,-1.016,0.336,-10.22,2.667,2.884350903736097,-52.825,346.683,0.126,23954.585,False,0.07260510724571072,0.07635381023974547,0.43,-0.051,-0.355,-9.918,-0.006,346.683,169.078,True,0,1,0,0
-1.14,0.0,-1.48,compass,-57.785,0.112,-55.169,-1.014,0.448,-10.24,2.667,2.884003794052826,-52.811,346.697,0.076,23954.685,False,0.043347086195132764,0.0458264553085317,0.43,-0.051,-0.395,-9.875,-0.016,346.718,169.078,True,0,1,0,0
-1.14,0.0,-1.48,compass,-57.785,0.112,-55.361,-1.014,0.448,-10.24,2.667,2.8907038446566773,-52.79,346.718,0.076,23954.785,False,0.043146618215077905,0.045848467251940785,0.43,-0.051,-0.395,-9.875,-0.016,346.718,169.078,True,0,1,0,0
-0.993,-0.112,-1.452,compass,-59.445,0.112,-55.77,-1.012,0.56,-10.15,2.667,2.907264595448917,-52.694,346.814,0.064,23954.986,False,0.03617163070007216,0.03888031554833837,0.43,-0.051,-0.395,-9.875,0.029,346.814,169.078,True,0,1,0,0
-0.993,-0.112,-1.452,compass,-59.445,0.112,-55.77,-1.012,0.56,-10.15,2.687,2.907264595448917,-52.694,346.814,0.064,23954.986,False,0.03617163070007216,0.03888031554833837,0.43,-0.051,-0.395,-9.875,0.029,346.814,169.078,True,0,1,0,0
-0.894,-0.112,-1.421,compass,-58.794,-0.112,-56.323,-1.023,0.448,-10.17,2.687,2.9051850771066956,-52.64,346.868,0.027,23955.186,False,0.015128439881687043,0.016515333918193802,0.43,-0.051,-0.395,-9.875,0.019,346.868,169.078,True,0,1,0,0
-0.894,-0.112,-1.421,compass,-58.794,-0.112,-56.323,-1.023,0.448,-10.17,2.747,2.9051850771066956,-52.64,346.868,0.021,23955.186,False,0.015128439881687043,0.016515333918193802,0.43,-0.051,-0.395,-9.875,0.019,346.868,169.078,True,0,1,0,0
-0.795,0.112,-1.385,compass,-53.956,-0.0,-56.526,-1.026,0.448,-10.17,2.747,2.9438627151784793,-52.621,346.887,0.021,23955.386,False,0.011816072543523714,0.01298181793397826,0.43,-0.051,-0.434,-9.914,0.019,346.887,169.078,True,0,1,0,0
-0.795,0.112,-1.385,compass,-53.956,-0.0,-56.526,-1.026,0.448,-10.17,2.727,2.9438627151784793,-52.621,346.887,0.051,23955.386,False,0.011816072543523714,0.01298181793397826,0.43,-0.051,-0.434,-9.914,0.019,346.887,169.078,True,0,1,0,0
-0.71,-0.336,-1.346,compass,-57.296,-0.112,-56.13,-1.03,0.336,-10.15,2.727,2.919860273004784,-52.637,346.871,0.051,23955.586,False,0.028191589407283436,0.030673589036066356,0.43,-0.09,-0.434,-9.918,0.024,346.871,169.078,True,0,1,0,0
-0.71,-0.336,-1.346,compass,-57.296,-0.112,-56.13,-1.03,0.336,-10.15,2.767,2.919860273004784,-52.637,346.871,0.047,23955.586,False,0.028191589407283436,0.030673589036066356,0.43,-0.09,-0.434,-9.918,0.024,346.871,169.078,True,0,1,0,0
-0.639,0.0,-1.306,compass,-54.205,-0.224,-55.618,-1.028,0.336,-10.15,2.767,2.9342781347136966,-52.666,346.842,0.047,23955.786,False,0.026345402461494638,0.028294900468320422,0.43,-0.051,-0.469,-9.914,0.021,346.842,169.078,True,0,1,0,0
-0.639,0.0,-1.306,compass,-54.205,-0.224,-55.618,-1.028,0.336,-10.15,2.727,2.9342781347136966,-52.666,346.842,0.054,23955.786,False,0.026345402461494638,0.028294900468320422,0.43,-0.051,-0.469,-9.914,0.021,346.842,169.078,True,0,1,0,0
-0.584,0.0,-1.263,compass,-50.369,-0.336,-54.666,-1.014,-0.224,-10.22,2.727,2.8603442359747726,-52.701,346.807,0.054,23955.986,False,0.03146043396201268,0.03298407739844449,0.43,-0.051,-0.469,-9.914,-0.016,346.807,169.078,True,0,1,0,0
-0.584,0.0,-1.263,compass,-50.369,-0.336,-54.666,-1.014,-0.224,-10.22,2.627,2.8603442359747726,-52.701,346.807,0.041,23955.986,False,0.03146043396201268,0.03298407739844449,0.43,-0.051,-0.469,-9.914,-0.016,346.807,169.078,True,0,1,0,0
-0.598,-0.112,-1.223,compass,-48.61,-0.224,-53.785,-1.015,-0.56,-10.22,2.627,2.759065105058481,-52.723,346.785,0.041,23956.187,False,0.02410254745788328,0.024725886594874458,0.43,-0.051,-0.469,-9.914,-0.016,346.785,169.078,True,0,1,0,0
-0.598,-0.112,-1.223,compass,-48.61,-0.224,-53.785,-1.015,-0.56,-10.22,2.528,2.759065105058481,-52.723,346.785,0.031,23956.187,False,0.02410254745788328,0.024725886594874458,0.43,-0.051,-0.469,-9.914,-0.016,346.785,169.078,True,0,1,0,0
-0.634,0.224,-1.188,compass,-50.354,-0.112,-53.133,-1.005,-0.448,-10.22,2.528,2.632581368639307,-52.757,346.751,0.031,23956.387,False,0.018642769125667945,0.018824096331323065,0.43,-0.051,-0.469,-9.914,-0.014,346.751,169.078,True,0,1,0,0
-0.634,0.224,-1.188,compass,-50.354,-0.112,-53.133,-1.005,-0.448,-10.22,2.369,2.632581368639307,-52.757,346.751,0.012,23956.387,False,0.018642769125667945,0.018824096331323065,0.43,-0.051,-0.469,-9.914,-0.014,346.751,169.078,True,0,1,0,0
-0.691,0.0,-1.158,compass,-52.41,-0.0,-52.743,-0.997,-0.448,-10.2,2.369,2.469740785951101,-52.791,346.717,0.012,23956.587,False,0.0070533234106628295,0.007053440259009817,0.43,-0.051,-0.469,-9.914,-0.003,346.717,169.078,True,0,1,0,0
-0.691,0.0,-1.158,compass,-52.41,-0.0,-52.743,-0.997,-0.448,-10.2,2.17,2.469740785951101,-52.791,346.717,0.041,23956.587,False,0.0070533234106628295,0.007053440259009817,0.43,-0.051,-0.469,-9.914,-0.003,346.717,169.078,True,0,1,0,0
-0.783,0.112,-1.134,compass,-50.684,-0.112,-51.96,-0.992,-0.448,-10.15,2.17,2.2927145455346616,-52.846,346.662,0.041,23956.787,False,0.025116790126430217,0.024656314695497332,0.43,-0.051,-0.434,-9.914,0.023,346.662,169.078,True,0,1,0,0
-0.827,0.112,-1.125,compass,-40.797,-0.112,-51.014,-0.983,-0.448,-10.22,2.07,2.2273489811728098,-52.866,346.642,0.072,23956.887,False,0.045183533255303554,0.04342205720379632,0.43,-0.051,-0.434,-9.914,-0.015,346.642,169.078,True,0,1,0,0
-0.867,-0.112,-1.117,compass,-41.852,-0.112,-49.909,-0.994,-0.56,-10.22,2.07,2.1477961609957337,-52.887,346.621,0.072,23956.987,False,0.04625326416320704,0.043400749904178026,0.43,-0.051,-0.395,-9.914,-0.015,346.621,169.078,True,0,1,0,0
-0.909,-0.112,-1.111,compass,-40.606,-0.224,-48.973,-0.999,-0.671,-10.22,2.13,2.0814797486033947,-52.9,346.608,0.017,23957.087,False,0.011469418226346381,0.010553683583549946,0.43,-0.051,-0.395,-9.914,-0.015,346.608,169.078,True,0,1,0,0
-0.959,-0.224,-1.106,compass,-44.645,-0.112,-48.178,-0.997,-0.448,-10.22,2.13,2.038033446018723,-52.934,346.574,0.017,23957.187,False,0.011648888457690531,0.010545409515119956,0.43,-0.051,-0.395,-9.914,-0.013,346.574,169.078,True,0,1,0,0
-1.001,0.224,-1.103,compass,-37.262,-0.224,-47.061,-0.994,-0.671,-10.22,2.15,2.0353687802758085,-52.969,346.539,0.041,23957.287,False,0.02776399697707231,0.024586123960019565,0.43,-0.051,-0.355,-9.879,-0.013,346.539,169.078,True,0,1,0,0
-1.043,-0.112,-1.101,compass,-44.685,-0.0,-46.228,-0.991,-0.336,-10.26,2.15,2.0292886681173306,-52.996,346.512,0.041,23957.387,False,0.028195477496203606,0.024570701038117464,0.43,-0.051,-0.355,-9.879,-0.032,346.512,169.078,True,0,1,0,0
-1.086,-0.112,-1.101,compass,-42.172,-0.448,-45.493,-0.989,-0.56,-10.26,2.19,2.0146370817105206,-53.045,346.463,0.039,23957.487,False,0.027202326005678946,0.023374230890504208,0.43,-0.051,-0.355,-9.84,-0.032,346.463,169.078,True,0,1,0,0
-1.122,0.0,-1.101,compass,-43.542,-0.112,-44.926,-0.978,-0.336,-10.28,2.19,2.031183451387658,-53.093,346.415,0.039,23957.587,False,0.027469516806728093,0.023348251509101782,0.42,-0.051,-0.316,-9.84,-0.039,346.415,169.078,True,0,1,0,0
-1.185,-0.112,-1.104,compass,-44.818,-0.224,-44.559,-0.977,-0.336,-10.28,2.269,2.0513380472393328,-53.184,346.324,0.035,23957.687,False,0.024861751052291062,0.020968957433235846,0.42,-0.051,-0.316,-9.84,-0.039,346.324,169.078,True,0,1,0,0
-1.207,0.0,-1.107,compass,-45.935,-0.112,-44.378,-0.972,-0.112,-10.26,2.269,2.0954285588841195,-53.218,346.29,0.035,23957.787,False,0.024943214772238907,0.02095217345633389,0.42,-0.051,-0.316,-9.84,-0.025,346.29,169.078,True,0,1,0,0
-1.221,-0.112,-1.11,compass,-65.778,-0.56,-45.308,-0.973,-0.112,-10.26,2.249,2.115212866337393,-53.26,346.248,0.023,23957.887,False,0.01636164436937364,0.013954311549096876,0.42,-0.051,-0.316,-9.84,-0.025,346.248,169.078,True,0,1,0,0
-1.227,-0.112,-1.114,compass,-67.031,-0.112,-46.901,-0.98,0.112,-10.26,2.249,2.1548759584173367,-53.289,346.219,0.023,23957.987,False,0.015896421576699564,0.013944960656572393,0.42,-0.051,-0.316,-9.879,-0.025,346.219,169.078,True,0,1,0,0
-1.226,-0.112,-1.117,compass,-66.395,-0.224,-48.804,-0.986,0.0,-10.22,2.289,2.1815746028051723,-53.317,346.191,0.019,23958.088,False,0.012769723564897247,0.01161321002834356,0.42,-0.051,-0.316,-9.84,-0.009,346.191,169.078,True,0,1,0,0
-1.225,0.0,-1.12,compass,-66.228,-0.224,-50.788,-0.993,0.224,-10.22,2.289,2.232105403334939,-53.353,346.155,0.019,23958.188,False,0.012254953994685623,0.011603497666412475,0.42,-0.051,-0.355,-9.879,-0.009,346.155,169.078,True,0,1,0,0
-1.203,-0.112,-1.123,compass,-67.465,-0.224,-52.719,-0.997,0.224,-10.22,2.389,2.289898285059299,-53.388,346.12,0.035,23958.288,False,0.021132200479210942,0.02086908878061335,0.42,-0.051,-0.355,-9.879,-0.009,346.12,169.078,True,0,1,0,0
-1.181,-0.112,-1.125,compass,-67.992,-0.112,-54.6,-1.001,0.336,-10.15,2.389,2.3471517288812906,-53.41,346.098,0.035,23958.388,False,0.0202109931340497,0.020858266954937688,0.42,-0.09,-0.355,-9.875,0.015,346.098,169.078,True,0,1,0,0
-1.11,0.112,-1.124,compass,-66.006,-0.112,-56.051,-1.006,0.448,-10.15,2.468,2.438387296131822,-53.432,346.076,0.091,23958.488,False,0.05087882534790336,0.0544351007106627,0.42,-0.09,-0.355,-9.875,0.015,346.076,169.078,True,0,1,0,0
-1.067,-0.112,-1.122,compass,-68.391,-0.0,-57.441,-1.015,0.448,-10.17,2.468,2.498832347236661,-53.426,346.082,0.091,23958.588,False,0.04906217862681868,0.054442951704996835,0.42,-0.051,-0.355,-9.879,0.004,346.082,169.078,True,0,1,0,0
-1.032,-0.112,-1.12,compass,-68.648,-0.0,-58.859,-1.011,0.56,-10.17,2.627,2.590527147998131,-53.405,346.103,0.068,23958.688,False,0.03513883743808664,0.04056205874924884,0.42,-0.051,-0.395,-9.914,0.004,346.103,169.078,True,0,1,0,0
-0.983,0.224,-1.116,compass,-64.333,-0.224,-59.926,-1.005,0.336,-10.17,2.627,2.653562631956571,-53.378,346.13,0.068,23958.788,False,0.03408015752109714,0.04058794083397666,0.42,-0.051,-0.395,-9.914,0.004,346.13,169.078,True,0,1,0,0
-0.942,0.0,-1.11,compass,-67.051,-0.224,-60.922,-1.001,0.448,-10.22,2.647,2.706535689732873,-53.365,346.143,0.052,23958.888,False,0.025507471158073537,0.031320518952936346,0.42,-0.051,-0.434,-9.914,-0.013,346.143,169.078,True,0,1,0,0
-0.895,0.112,-1.104,compass,-65.943,-0.224,-61.728,-0.981,0.448,-10.22,2.647,2.7531529199539944,-53.337,346.171,0.052,23958.988,False,0.02487775964890916,0.031341324006886766,0.42,-0.051,-0.395,-9.914,-0.013,346.171,169.078,True,0,1,0,0
-0.847,0.224,-1.096,compass,-64.857,-0.112,-62.454,-0.969,0.448,-10.24,2.707,2.8047985978171024,-53.309,346.199,0.019,23959.088,False,0.00900138808269794,0.011615333331479488,0.42,-0.051,-0.434,-9.914,-0.022,346.199,169.078,True,0,1,0,0
-0.806,0.0,-1.088,compass,-67.008,-0.0,-63.099,-0.964,0.448,-10.24,2.707,2.834157956517699,-53.289,346.219,0.019,23959.188,False,0.008809289800378137,0.011620861317038773,0.42,-0.051,-0.434,-9.914,-0.022,346.219,169.078,True,0,1,0,0
-0.765,0.112,-1.078,compass,-65.881,-0.0,-63.578,-0.953,0.448,-10.24,2.846,2.8940110998690214,-53.268,346.24,0.029,23959.288,False,0.01299905813386633,0.017439990384649266,0.42,-0.051,-0.434,-9.914,-0.022,346.24,169.078,True,0,1,0,0
-0.73,-0.112,-1.067,compass,-67.078,-0.448,-64.01,-0.949,0.224,-10.17,2.846,2.9055060616309447,-53.254,346.254,0.029,23959.388,False,0.012801585884883625,0.017445484214620437,0.41,-0.051,-0.469,-9.875,0.003,346.254,169.078,True,0,1,0,0
-0.674,-0.112,-1.056,compass,-67.121,-0.112,-64.381,-0.95,0.224,-10.17,2.787,2.9017065580535784,-53.227,346.281,0.033,23959.488,False,0.014320989104484903,0.019784001430591266,0.41,-0.051,-0.434,-9.875,0.003,346.281,169.078,True,0,1,0,0
-0.645,0.0,-1.043,compass,-65.516,-0.224,-64.632,-0.954,0.112,-10.2,2.787,2.8918890422373065,-53.214,346.294,0.033,23959.589,False,0.01418882372847133,0.019790187833774887,0.41,-0.012,-0.469,-9.918,-0.012,346.294,169.078,True,0,1,0,0
-0.637,-0.112,-1.031,compass,-66.116,-0.112,-64.827,-0.96,0.0,-10.2,2.846,2.879700885944591,-53.207,346.301,0.033,23959.689,False,0.014083264597267128,0.01979327995370953,0.41,-0.012,-0.469,-9.879,-0.012,346.301,169.078,True,0,1,0,0
-0.616,-0.112,-1.019,compass,-66.606,-0.224,-65.005,-0.965,0.112,-10.17,2.846,2.8824159259939126,-53.207,346.301,0.033,23959.789,False,0.013984242325703264,0.019793088225040337,0.41,-0.051,-0.434,-9.914,0.004,346.301,169.078,True,0,1,0,0
-0.602,-0.224,-1.006,compass,-66.261,-0.0,-65.039,-0.963,-0.224,-10.17,2.826,2.8404453213900114,-53.215,346.293,0.056,23959.889,False,0.0238129419802929,0.03375907905975333,0.41,-0.012,-0.434,-9.918,0.004,346.293,169.078,True,0,1,0,0
-0.602,-0.112,-0.994,compass,-66.124,-0.0,-65.071,-0.962,0.0,-10.2,2.826,2.837544119407558,-53.235,346.273,0.056,23959.989,False,0.02376465012833491,0.03374266463431484,0.41,-0.051,-0.469,-9.914,-0.011,346.273,169.078,True,0,1,0,0
-0.608,-0.224,-0.982,compass,-66.28,-0.224,-65.093,-0.97,-0.224,-10.2,2.787,2.7965015551301393,-53.257,346.251,0.054,23960.089,False,0.02291090311003176,0.03256256881369027,0.41,-0.012,-0.469,-9.918,-0.011,346.251,169.078,True,0,1,0,0
-0.622,-0.112,-0.972,compass,-64.513,0.112,-65.026,-0.971,-0.336,-10.2,2.787,2.757976662087532,-53.285,346.223,0.054,23960.189,False,0.0229530344195635,0.03254155188787294,0.41,-0.051,-0.434,-9.914,-0.011,346.223,169.078,True,0,1,0,0
-0.636,-0.224,-0.962,compass,-65.167,-0.448,-64.858,-0.965,-0.448,-10.24,2.787,2.712021952534011,-53.313,346.195,0.072,23960.289,False,0.03050565381044882,0.04297287599509819,0.41,-0.051,-0.434,-9.914,-0.023,346.195,169.078,True,0,1,0,0
-0.692,0.0,-0.953,compass,-62.707,-0.448,-64.59,-0.97,-0.448,-10.24,2.787,2.6880885147180797,-53.368,346.14,0.072,23960.389,False,0.03077280362216285,0.0429176197986208,0.41,-0.051,-0.469,-9.914,-0.023,346.14,169.078,True,0,1,0,0
-0.727,0.112,-0.947,compass,-61.406,-0.224,-64.42,-0.967,-0.448,-10.2,2.707,2.6528959375976195,-53.367,346.141,0.021,23960.489,False,0.009212132376466143,0.01275946590763878,0.41,-0.051,-0.434,-9.914,-0.001,346.141,169.078,True,0,1,0,0
-0.756,0.112,-0.941,compass,-61.406,-0.336,-64.151,-0.964,-0.448,-10.2,2.707,2.62548887095752,-53.36,346.148,0.021,23960.589,False,0.009309267064922713,0.012761692812379832,0.41,-0.051,-0.434,-9.914,-0.001,346.148,169.078,True,0,1,0,0
-0.792,-0.112,-0.937,compass,-64.487,-0.112,-63.766,-0.955,-0.336,-10.13,2.647,2.596059950209161,-53.338,346.17,0.07,23960.689,False,0.03091737831900123,0.04178666663677033,0.41,-0.051,-0.434,-9.914,0.033,346.17,169.078,True,0,1,0,0
-0.827,-0.112,-0.933,compass,-62.526,-0.224,-63.384,-0.959,-0.671,-10.13,2.647,2.5373038708881785,-53.316,346.192,0.07,23960.789,False,0.03135878949252232,0.04180830416224787,0.41,-0.051,-0.355,-9.879,0.033,346.192,169.078,True,0,1,0,0
-0.869,0.112,-0.931,compass,-61.29,-0.0,-62.972,-0.965,-0.448,-10.13,2.627,2.5240256653813207,-53.316,346.192,0.076,23960.89,False,0.03445690358593909,0.045292865104504726,0.41,-0.051,-0.395,-9.875,0.033,346.192,169.078,True,0,1,0,0
-0.911,-0.112,-0.931,compass,-65.085,0.112,-62.756,-0.969,-0.224,-10.2,2.627,2.5253578097562466,-53.322,346.186,0.076,23960.99,False,0.03470443056037531,0.04528603760776695,0.41,-0.09,-0.395,-9.84,0.006,346.186,169.078,True,0,1,0,0
-0.96,0.0,-0.932,compass,-62.537,-0.112,-62.563,-0.968,-0.448,-10.2,2.608,2.5031189093472075,-53.328,346.18,0.068,23961.09,False,0.031343884779845385,0.0406354131011948,0.41,-0.051,-0.355,-9.84,0.006,346.18,169.078,True,0,1,0,0
-1.021,0.112,-0.934,compass,-62.586,0.112,-62.396,-0.989,-0.224,-10.28,2.608,2.515677461143184,-53.342,346.166,0.068,23961.19,False,0.031510381808944894,0.04062264956234302,0.41,-0.051,-0.355,-9.879,-0.034,346.166,169.078,True,0,1,0,0
-1.049,-0.112,-0.938,compass,-65.641,-0.0,-62.573,-0.993,-0.112,-10.28,2.707,2.5428784137756333,-53.341,346.167,0.025,23961.29,False,0.011636177048967723,0.01508853614897629,0.41,-0.051,-0.355,-9.879,-0.034,346.167,169.078,True,0,1,0,0
-1.076,-0.112,-0.942,compass,-65.642,0.112,-62.805,-0.996,-0.112,-10.28,2.707,2.564065228882683,-53.334,346.174,0.025,23961.39,False,0.011548379338883483,0.015091116491823141,0.41,-0.051,-0.355,-9.879,-0.034,346.174,169.078,True,0,1,0,0
-1.098,0.112,-0.947,compass,-62.746,-0.224,-62.924,-0.992,-0.224,-10.17,2.787,2.5977396465888676,-53.327,346.181,0.025,23961.49,False,0.011504386904086119,0.015093715165010908,0.41,-0.051,-0.355,-9.879,0.007,346.181,169.078,True,0,1,0,0
-1.106,-0.112,-0.951,compass,-65.623,-0.0,-63.104,-0.986,-0.112,-10.17,2.787,2.6243677148159326,-53.327,346.181,0.025,23961.591,False,0.011433516491118402,0.015093795174102554,0.41,-0.051,-0.355,-9.879,0.007,346.181,169.078,True,0,1,0,0
-1.107,0.0,-0.956,compass,-64.489,-0.112,-63.234,-0.979,-0.112,-10.17,2.926,2.6822474687497695,-53.326,346.182,0.033,23961.691,False,0.014884731230175795,0.019738493655501368,0.41,-0.051,-0.355,-9.879,0.007,346.182,169.078,True,0,1,0,0
-1.114,-0.112,-0.961,compass,-66.566,-0.0,-63.449,-0.973,0.112,-10.13,2.926,2.7461331650227114,-53.333,346.175,0.033,23961.791,False,0.014770326503564303,0.019734995955353597,0.41,-0.051,-0.355,-9.879,0.02,346.175,169.078,True,0,1,0,0
-1.107,-0.112,-0.965,compass,-66.066,-0.0,-63.543,-0.979,0.0,-10.13,2.986,2.8007370194808026,-53.34,346.168,0.07,23961.891,False,0.031170744876813084,0.04178473381341147,0.41,-0.051,-0.355,-9.879,0.02,346.168,169.078,True,0,1,0,0
-1.108,0.112,-0.969,compass,-63.437,-0.224,-63.538,-0.972,-0.112,-10.22,2.986,2.8427332471675593,-53.354,346.154,0.07,23961.991,False,0.031166223054151062,0.041771263514645635,0.41,-0.051,-0.395,-9.875,-0.027,346.154,169.078,True,0,1,0,0
