imu.roll,imu.pitchrate,imu.heel,ap.mode,ap.wind_angle,imu.headingrate,ap.true_wind_angle,imu.pitch,imu.rollrate,rudder.angle,wind.speed,ap.true_wind_speed,ap.heading_error,ap.heading,gps.speed,timestamp,ap.enabled,ap.vmg,ap.cmg,sow.speed,imu.accel_X,imu.accel_Y,imu.accel_Z,rudder.speed,imu.heading,gps.track,perf.quality_flag,perf.boat_config.Main,perf.boat_config.jib,perf.boat_config.spi,perf.boat_config.weight
-1.424,0.224,-1.655,compass,-17.888,0.224,-34.877,-0.957,-0.224,1.74,7.862,3.1292476416852564,-11.233,58.034,5.095,22865.433,False,4.180642985690624,4.997616128445805,4.8,-0.051,-0.434,-9.953,0.25,58.034,69.379,True,0,1,0,0
-1.397,0.224,-1.648,compass,-16.204,-0.0,-34.638,-0.965,-0.671,1.74,7.862,3.08243749170298,-11.187,58.08,5.095,22865.533,False,4.1944435610705595,4.99841742302115,4.8,-0.051,-0.469,-10.027,0.225,58.08,69.379,True,0,1,0,0
-1.387,0.224,-1.64,compass,-14.498,-0.224,-33.815,-0.963,-0.336,1.74,7.882,3.0725730705800234,-11.146,58.121,5.031,22865.633,False,4.183275601549384,4.936175684146746,4.81,-0.012,-0.395,-10.066,0.225,58.121,68.951,True,0,1,0,0
-1.388,-0.336,-1.632,compass,-13.298,-0.56,-32.868,-0.979,-0.783,1.68,7.882,2.9820743684858693,-11.115,58.152,5.031,22865.733,False,4.229376738964769,4.936701360030924,4.81,0.027,-0.434,-9.992,0.173,58.152,68.951,True,0,1,0,0
-1.422,-0.56,-1.626,compass,-13.112,-0.336,-31.653,-1.04,-0.895,1.68,8.022,2.9362961746062513,-11.115,58.152,4.912,22865.833,False,4.184399766814999,4.820334456384751,4.81,-0.012,-0.434,-10.023,0.173,58.152,68.302,True,0,1,0,0
-1.465,-0.783,-1.621,compass,-13.323,-0.224,-30.395,-1.088,-0.895,1.7,8.022,2.871331992393798,-11.147,58.12,4.912,22865.933,False,4.238257477790182,4.819816088853009,4.81,-0.012,-0.434,-10.023,0.166,58.12,68.302,True,0,1,0,0
-1.441,-0.783,-1.616,compass,-16.005,-0.112,-29.673,-1.117,-0.224,1.7,8.002,2.8021181971271583,-11.163,58.104,5.08,22866.033,False,4.41371432997848,4.983564244682779,4.81,-0.012,-0.316,-9.953,0.166,58.104,68.159,True,0,1,0,0
-1.487,-0.783,-1.612,compass,-13.768,-0.56,-28.887,-1.17,-0.783,1.7,8.002,2.7286664405856236,-11.204,58.063,5.08,22866.133,False,4.44640036941508,4.98286222002917,4.81,-0.051,-0.277,-9.953,0.166,58.063,68.159,True,0,1,0,0
-1.533,-0.895,-1.609,compass,-15.259,-0.671,-28.23,-1.24,-0.448,1.65,8.221,2.6893206938844973,-11.251,58.016,5.204,22866.233,False,4.582533022352903,5.104073852529851,4.81,-0.09,-0.242,-9.957,0.132,58.016,68.145,True,0,1,0,0
-1.592,-1.007,-1.609,compass,-14.496,-0.224,-27.659,-1.302,-0.671,1.65,8.221,2.637973015517603,-11.307,57.96,5.204,22866.333,False,4.605583028105646,5.103074406170071,4.81,-0.09,-0.242,-9.957,0.132,57.96,68.145,True,0,1,0,0
-1.657,-0.895,-1.61,compass,-12.66,-0.448,-26.274,-1.361,-1.119,1.72,8.34,2.653206645080017,-11.382,57.885,5.043,22866.433,False,4.51674469932989,4.943554954262878,4.81,-0.09,-0.125,-9.879,0.154,57.885,68.835,True,0,1,0,0
-1.712,-0.671,-1.613,compass,-14.188,-0.448,-25.023,-1.417,-0.671,1.72,8.34,2.7027647840571847,-11.454,57.813,5.043,22866.534,False,4.563565205147338,4.94230496907042,4.8,-0.09,-0.164,-9.879,0.154,57.813,68.835,True,0,1,0,0
-1.785,-0.336,-1.619,compass,-15.531,-1.231,-24.22,-1.447,-0.224,1.65,8.3,2.7895012907622907,-11.572,57.695,5.031,22866.634,False,4.58046590036704,4.928806623581108,4.8,-0.09,-0.164,-9.879,0.104,57.695,68.33,True,0,1,0,0
-1.878,-0.224,-1.626,compass,-17.455,-0.895,-23.777,-1.472,0.336,1.65,8.3,2.8900322911071528,-11.827,57.44,5.031,22866.734,False,4.590994355729198,4.9242603337351465,4.8,-0.09,-0.086,-9.879,0.104,57.44,68.33,True,0,1,0,0
-1.921,0.0,-1.635,compass,-16.784,-0.671,-23.427,-1.462,0.224,1.63,8.539,3.025934127791758,-11.955,57.312,5.107,22866.834,False,4.672173404078034,4.996125456731077,4.8,-0.09,-0.125,-9.84,0.083,57.312,68.47,True,0,1,0,0
-1.951,-0.112,-1.645,compass,-18.838,-0.112,-23.472,-1.444,0.783,1.63,8.539,3.1418858115272825,-12.082,57.185,5.107,22866.934,False,4.670010281316089,4.993756648059564,4.8,-0.051,-0.125,-9.836,0.083,57.185,68.47,True,0,1,0,0
-1.965,-0.112,-1.654,compass,-16.506,-0.783,-23.41,-1.427,0.112,1.63,8.619,3.2117879804611658,-12.217,57.05,5.161,22867.034,False,4.72143176898111,5.044440839475774,4.8,-0.051,-0.203,-9.836,0.083,57.05,68.874,True,0,1,0,0
-1.96,-0.112,-1.663,compass,-18.05,-0.895,-23.485,-1.404,0.56,1.22,8.619,3.282990547655953,-12.351,56.916,5.161,22867.134,False,4.71821335313439,5.041865482419431,4.8,-0.051,-0.242,-9.801,-0.062,56.916,68.874,True,0,1,0,0
-1.943,-0.112,-1.672,compass,-16.876,-0.56,-23.539,-1.387,0.224,1.22,8.798,3.3714794971315443,-12.47,56.797,5.138,22867.234,False,4.69498220871578,5.016783204335568,4.8,-0.012,-0.203,-9.723,-0.062,56.797,68.592,True,0,1,0,0
-1.917,-0.336,-1.679,compass,-16.725,-0.671,-23.593,-1.368,0.112,0.94,8.798,3.410696038127451,-12.599,56.668,5.138,22867.334,False,4.692803041626622,5.014279426052169,4.8,-0.051,-0.203,-9.758,-0.195,56.668,68.592,True,0,1,0,0
-1.881,0.0,-1.685,compass,-17.109,-0.56,-23.329,-1.33,0.336,0.94,9.037,3.5473253276324317,-12.724,56.543,5.093,22867.434,False,4.661378237087022,4.96820271429522,4.8,-0.09,-0.316,-9.801,-0.195,56.543,68.991,True,0,1,0,0
-1.842,0.0,-1.69,compass,-18.561,-0.56,-23.262,-1.302,0.783,0.71,9.037,3.6711862515314113,-12.812,56.455,5.093,22867.534,False,4.664739918862824,4.966473783958179,4.79,-0.129,-0.277,-9.797,-0.29,56.455,68.991,True,0,1,0,0
-1.737,0.224,-1.691,compass,-21.778,-0.448,-23.431,-1.254,0.336,0.71,9.196,3.807331896663104,-12.901,56.366,5.128,22867.634,False,4.691471986801757,4.998824550269818,4.79,-0.09,-0.277,-9.84,-0.29,56.366,69.734,True,0,1,0,0
-1.698,0.224,-1.692,compass,-23.144,-0.0,-24.043,-1.227,0.783,0.14,9.196,3.9381271509837847,-12.907,56.36,5.128,22867.734,False,4.6720293361305405,4.998695199686551,4.79,-0.09,-0.355,-9.875,-0.546,56.36,69.734,True,0,1,0,0
-1.645,0.448,-1.69,compass,-22.168,0.224,-24.879,-1.2,0.56,0.14,9.335,4.067494240703672,-12.892,56.375,5.229,22867.834,False,4.735247744441783,5.097536248541939,4.79,-0.129,-0.355,-9.836,-0.546,56.375,69.467,True,0,1,0,0
-1.584,0.224,-1.687,compass,-21.766,0.336,-25.791,-1.177,0.336,0.14,9.335,4.136245032287875,-12.868,56.399,5.229,22867.934,False,4.702116480749308,5.098033166615753,4.79,-0.09,-0.355,-9.875,-0.546,56.399,69.467,True,0,1,0,0
-1.534,0.448,-1.682,compass,-22.155,0.336,-26.676,-1.157,0.56,-1.22,9.435,4.268366106508672,-12.831,56.436,5.152,22868.034,False,4.599410794324668,5.022963605375268,4.79,-0.09,-0.355,-9.875,-0.945,56.436,68.83,True,0,1,0,0
-1.483,0.224,-1.676,compass,-21.082,-0.0,-27.499,-1.137,0.112,-1.22,9.435,4.328169061504011,-12.791,56.476,5.152,22868.134,False,4.56776673436478,5.023765273565638,4.79,-0.051,-0.395,-9.875,-0.945,56.476,68.83,True,0,1,0,0
-1.442,0.448,-1.669,compass,-19.477,0.224,-28.105,-1.105,-0.336,-1.22,9.495,4.367210473945149,-12.75,56.517,5.276,22868.234,False,4.653815224117492,5.145919672664356,4.79,-0.051,-0.316,-9.918,-0.945,56.517,68.733,True,0,1,0,0
-1.41,0.336,-1.662,compass,-19.938,0.336,-28.545,-1.075,-0.224,-2.16,9.495,4.389145513662001,-12.709,56.558,5.276,22868.335,False,4.635982021267237,5.146745402295849,4.79,-0.012,-0.316,-9.914,-1.164,56.558,68.733,True,0,1,0,0
-1.393,0.336,-1.654,compass,-20.265,0.112,-29.232,-1.045,-0.112,-2.16,9.335,4.391568950582304,-12.687,56.58,5.243,22868.435,False,4.577070105815112,5.114949932402269,4.8,-0.051,-0.355,-9.957,-1.164,56.58,67.472,True,0,1,0,0
-1.391,0.448,-1.646,compass,-19.796,-0.112,-29.693,-0.951,-0.224,-2.08,9.335,4.400424687240696,-12.676,56.591,5.243,22868.535,False,4.556337773028728,5.115168822282674,4.8,-0.051,-0.395,-9.953,-1.009,56.591,67.472,True,0,1,0,0
-1.408,0.448,-1.639,compass,-19.044,-0.112,-30.131,-0.91,-0.448,-2.08,9.037,4.332508639755758,-12.66,56.607,5.243,22868.635,False,4.5365883768822695,5.1155004084701545,4.8,-0.051,-0.355,-9.918,-1.009,56.607,67.472,True,0,1,0,0
-1.435,0.56,-1.632,compass,-19.984,0.224,-30.465,-0.856,-0.112,-2.08,9.037,4.295770657208679,-12.643,56.624,5.29,22868.735,False,4.561570359654402,5.161362399233432,4.8,-0.09,-0.277,-9.918,-1.009,56.624,67.434,True,0,1,0,0
-1.471,0.448,-1.628,compass,-18.597,0.336,-30.951,-0.821,-0.56,-1.95,8.698,4.168548163662464,-12.611,56.656,5.27,22868.835,False,4.522701578868144,5.143043055476601,4.8,-0.051,-0.316,-9.879,-0.865,56.656,67.2,True,0,1,0,0
-1.502,0.336,-1.624,compass,-20.214,0.671,-31.389,-0.79,-0.112,-1.95,8.698,4.075668237590355,-12.554,56.713,5.27,22868.935,False,4.503364543813089,5.1441900793916995,4.8,-0.051,-0.277,-9.875,-0.865,56.713,67.2,True,0,1,0,0
-1.548,0.448,-1.622,compass,-17.681,0.448,-31.364,-0.758,-0.783,-1.91,8.261,3.8552424473653755,-12.499,56.768,5.381,22869.035,False,4.600341717550349,5.253451253847357,4.8,-0.051,-0.242,-9.875,-0.758,56.768,69.307,True,0,1,0,0
-1.597,0.448,-1.621,compass,-16.883,-0.0,-31.076,-0.732,-1.007,-1.91,8.261,3.672375044381562,-12.448,56.819,5.381,22869.136,False,4.614992020128037,5.254490140561983,4.8,-0.09,-0.203,-9.879,-0.758,56.819,69.307,True,0,1,0,0
-1.649,0.56,-1.622,compass,-18.717,0.336,-30.71,-0.697,-0.448,-1.99,8.201,3.573293452346707,-12.394,56.873,5.272,22869.236,False,4.539504538277899,5.14925775374229,4.8,-0.09,-0.242,-9.957,-0.721,56.873,69.171,True,0,1,0,0
-1.716,0.671,-1.624,compass,-18.585,0.671,-30.385,-0.661,-0.448,-1.99,8.201,3.508625208611045,-12.321,56.946,5.272,22869.336,False,4.555822516073075,5.150701156839748,4.8,-0.051,-0.203,-9.953,-0.721,56.946,69.171,True,0,1,0,0
-1.83,0.56,-1.631,compass,-14.229,0.224,-29.848,-0.609,-0.336,-1.99,8.101,3.4144357155579397,-12.159,57.108,5.344,22869.436,False,4.6470813452541195,5.224168653037211,4.8,-0.051,-0.203,-9.914,-0.721,57.108,68.991,True,0,1,0,0
-1.88,0.336,-1.638,compass,-14.437,0.112,-29.118,-0.599,-0.336,-2.67,8.101,3.312043079717741,-12.059,57.208,5.344,22869.536,False,4.681297680811907,5.226137178349761,4.8,-0.012,-0.164,-9.918,-0.884,57.208,68.991,True,0,1,0,0
-1.926,0.448,-1.647,compass,-17.147,0.224,-28.822,-0.583,0.448,-2.67,8.081,3.2878434800227585,-11.967,57.3,5.272,22869.636,False,4.631830418314135,5.157552437072778,4.8,-0.012,-0.164,-9.879,-0.884,57.3,67.855,True,0,1,0,0
-1.963,0.336,-1.656,compass,-15.253,0.56,-28.505,-0.579,-0.112,-2.67,8.081,3.236260637147782,-11.873,57.394,5.272,22869.736,False,4.646113925621353,5.159343440786608,4.8,-0.012,-0.164,-9.84,-0.884,57.394,67.855,True,0,1,0,0
-1.991,0.224,-1.666,compass,-12.659,0.895,-27.826,-0.573,0.224,-2.96,8.081,3.1948215503806345,-11.8,57.467,5.247,22869.836,False,4.65248407878956,5.135971885530314,4.8,-0.012,-0.125,-9.797,-0.892,57.467,67.653,True,0,1,0,0
-2.033,0.112,-1.677,compass,-11.499,0.56,-26.833,-0.591,-0.112,-2.96,8.081,3.1370539119185494,-11.722,57.545,5.247,22869.936,False,4.693733329720112,5.137435750098486,4.8,-0.012,-0.086,-9.797,-0.892,57.545,67.653,True,0,1,0,0
-2.064,-0.112,-1.689,compass,-9.496,0.224,-25.31,-0.605,-0.671,-3.0,7.982,3.0561964172723224,-11.665,57.602,5.111,22870.036,False,4.630358984663473,5.005216833849966,4.8,-0.051,-0.164,-9.836,-0.822,57.602,67.88,True,0,1,0,0
-2.087,-0.112,-1.701,compass,-12.528,0.112,-23.954,-0.633,0.112,-3.0,7.982,3.0103016964617733,-11.609,57.658,5.111,22870.136,False,4.679741003413443,5.0062312771150745,4.8,-0.051,-0.125,-9.801,-0.822,57.658,67.88,True,0,1,0,0
-2.101,0.0,-1.713,compass,-12.432,0.448,-22.983,-0.658,0.112,-3.04,8.002,2.9498882774445803,-11.553,57.714,5.305,22870.237,False,4.8927578868276544,5.197701286386928,4.82,-0.012,-0.125,-9.84,-0.76,57.714,67.644,True,0,1,0,0
-2.109,0.0,-1.725,compass,-13.699,0.56,-22.32,-0.718,0.448,-3.04,8.002,2.91255584736619,-11.444,57.823,5.305,22870.337,False,4.917265068434123,5.199711825400554,4.82,-0.012,-0.203,-9.879,-0.76,57.823,67.644,True,0,1,0,0
-2.086,-0.224,-1.736,compass,-14.748,0.336,-21.668,-0.748,0.671,-2.94,8.022,2.8986977888114276,-11.413,57.854,5.161,22870.437,False,4.8044508380065105,5.0592631117977565,4.82,-0.012,-0.203,-9.84,-0.634,57.854,68.314,True,0,1,0,0
-2.065,-0.224,-1.745,compass,-15.587,-0.336,-21.413,-0.783,0.895,-2.94,8.022,2.896291828380291,-11.404,57.863,5.161,22870.537,False,4.8113538962562,5.059421685847642,4.82,-0.012,-0.242,-9.918,-0.634,57.863,68.314,True,0,1,0,0
-2.011,-0.336,-1.762,compass,-15.001,0.112,-21.694,-0.845,0.448,-2.94,8.101,2.8775234250871904,-11.389,57.878,5.183,22870.637,False,4.820469727274768,5.080652340025375,4.82,-0.051,-0.277,-9.914,-0.634,57.902,68.107,True,0,1,0,0
-2.011,-0.336,-1.762,compass,-15.001,0.112,-21.694,-0.845,0.448,-2.98,8.101,2.8775234250871904,-11.365,57.902,5.183,22870.737,False,4.820469727274768,5.081087412498308,4.82,-0.051,-0.277,-9.914,-0.584,57.902,68.107,True,0,1,0,0
-1.973,-0.448,-1.768,compass,-13.841,0.448,-21.23,-0.891,0.112,-2.98,8.042,2.852223640460757,-11.334,57.933,5.076,22870.837,False,4.735684489314409,4.97679104414131,4.82,-0.09,-0.277,-9.918,-0.584,57.933,69.441,True,0,1,0,0
-1.937,-0.336,-1.773,compass,-12.44,-0.0,-20.604,-0.927,-0.224,-2.96,8.042,2.835337053218173,-11.326,57.941,5.076,22870.937,False,4.754625031947832,4.976940914510418,4.82,-0.09,-0.242,-9.918,-0.515,57.941,69.441,True,0,1,0,0
-1.891,-0.112,-1.777,compass,-13.955,-0.56,-20.552,-0.961,0.224,-2.96,8.002,2.8356326021500884,-11.317,57.95,5.163,22871.037,False,4.837638975867136,5.062867411810212,4.82,-0.051,-0.203,-9.875,-0.515,57.95,68.36,True,0,1,0,0
-1.845,-0.112,-1.779,compass,-14.377,-0.224,-20.571,-0.994,0.336,-3.0,8.002,2.839534823919392,-11.297,57.97,5.163,22871.137,False,4.836884583943112,5.06323301721695,4.82,-0.051,-0.242,-9.953,-0.484,57.97,68.36,True,0,1,0,0
-1.739,-0.224,-1.777,compass,-16.805,0.112,-21.091,-1.062,0.56,-3.0,7.962,2.8498803554334087,-11.267,58.0,5.132,22871.237,False,4.791354438429541,5.033248533327094,4.82,-0.051,-0.242,-9.953,-0.484,58.018,67.99,True,0,1,0,0
-1.739,-0.224,-1.777,compass,-17.352,0.112,-21.889,-1.062,0.56,-2.89,7.962,2.852111405539077,-11.249,58.018,5.132,22871.337,False,4.765069314686088,5.033569117663416,4.82,-0.051,-0.242,-9.953,-0.38,58.018,67.99,True,0,1,0,0
-1.693,-0.112,-1.773,compass,-17.227,-0.0,-23.665,-1.095,0.56,-2.89,7.942,2.8425141090284485,-11.234,58.033,5.204,22871.537,False,4.768740114633749,5.104371897100645,4.82,-0.09,-0.316,-9.953,-0.38,58.033,68.47,True,0,1,0,0
-1.693,-0.112,-1.773,compass,-17.227,-0.0,-23.665,-1.095,0.56,-2.89,7.942,2.8425141090284485,-11.234,58.033,5.204,22871.537,False,4.768740114633749,5.104371897100645,4.82,-0.09,-0.316,-9.953,-0.38,58.033,68.47,True,0,1,0,0
-1.648,-0.336,-1.767,compass,-16.215,0.336,-25.014,-1.129,0.224,-2.85,7.922,2.8583276996447893,-11.201,58.066,5.025,22871.737,False,4.556168383927857,4.929522045337095,4.82,-0.051,-0.277,-9.914,-0.329,58.066,68.362,True,0,1,0,0
-1.648,-0.336,-1.767,compass,-16.215,0.336,-25.014,-1.129,0.224,-2.85,7.922,2.8583276996447893,-11.201,58.066,5.025,22871.737,False,4.556168383927857,4.929522045337095,4.82,-0.051,-0.277,-9.914,-0.329,58.066,68.362,True,0,1,0,0
-1.622,-0.224,-1.758,compass,-14.377,0.224,-25.611,-1.184,-0.224,-3.1,8.022,2.838727940469446,-11.139,58.128,5.107,22871.937,False,4.608219415706804,5.01067408767487,4.82,-0.051,-0.316,-9.879,-0.379,58.128,67.743,True,0,1,0,0
-1.622,-0.224,-1.758,compass,-14.377,0.224,-25.611,-1.184,-0.224,-3.1,8.022,2.838727940469446,-11.139,58.128,5.107,22871.937,False,4.608219415706804,5.01067408767487,4.82,-0.051,-0.316,-9.879,-0.379,58.128,67.743,True,0,1,0,0
-1.6,-0.224,-1.749,compass,-14.372,0.448,-25.684,-1.23,-0.224,-3.53,7.962,2.8157377641559234,-11.059,58.208,5.099,22872.037,False,4.599484959114869,5.004424078897924,4.76,-0.09,-0.277,-9.918,-0.379,58.208,67.257,True,0,1,0,0
-1.6,-0.224,-1.749,compass,-14.372,0.448,-25.684,-1.23,-0.224,-3.53,7.962,2.8157377641559234,-11.059,58.208,5.099,22872.137,False,4.599484959114869,5.004424078897924,4.76,-0.09,-0.277,-9.918,-0.555,58.208,67.257,True,0,1,0,0
-1.633,-0.224,-1.742,compass,-16.955,0.895,-25.608,-1.261,0.448,-3.53,7.862,2.8262760557456406,-10.971,58.296,5.023,22872.338,False,4.53469944579048,4.931486426425384,4.76,-0.129,-0.316,-9.953,-0.555,58.296,67.266,True,0,1,0,0
-1.633,-0.224,-1.742,compass,-16.955,0.895,-25.608,-1.261,0.448,-3.53,7.862,2.8262760557456406,-10.971,58.296,5.023,22872.338,False,4.53469944579048,4.931486426425384,4.76,-0.129,-0.316,-9.953,-0.555,58.296,67.266,True,0,1,0,0
-1.672,-0.224,-1.737,compass,-16.119,0.671,-26.413,-1.289,0.224,-3.65,7.723,2.7757911327520692,-10.877,58.39,5.035,22872.538,False,4.5149547561054195,4.944503648742113,4.76,-0.09,-0.203,-9.918,-0.54,58.39,66.651,True,0,1,0,0
-1.672,-0.224,-1.737,compass,-16.119,0.671,-26.413,-1.289,0.224,-3.65,7.723,2.7757911327520692,-10.877,58.39,5.035,22872.538,False,4.5149547561054195,4.944503648742113,4.76,-0.09,-0.203,-9.918,-0.54,58.39,66.651,True,0,1,0,0
-1.736,-0.112,-1.736,compass,-11.503,1.119,-26.782,-1.303,-0.895,-3.71,7.604,2.6401695053761434,-10.748,58.519,5.105,22872.738,False,4.5643953029802855,5.015392119416198,4.76,-0.09,-0.242,-9.918,-0.516,58.519,66.962,True,0,1,0,0
-1.736,-0.112,-1.736,compass,-11.503,1.119,-26.782,-1.303,-0.895,-3.71,7.604,2.6401695053761434,-10.748,58.519,5.105,22872.738,False,4.5643953029802855,5.015392119416198,4.76,-0.09,-0.242,-9.918,-0.516,58.519,66.962,True,0,1,0,0
-1.808,0.0,-1.739,compass,-12.782,1.007,-26.333,-1.304,-0.56,-3.69,7.643,2.6441637417609853,-10.624,58.643,5.014,22872.938,False,4.500876652579419,4.927631844281708,4.76,-0.09,-0.203,-9.879,-0.458,58.643,66.247,True,0,1,0,0
-1.9,0.0,-1.744,compass,-12.834,0.895,-26.092,-1.311,-0.56,-3.69,7.823,2.670632165139121,-10.498,58.769,5.076,22873.038,False,4.568264923728608,4.990827702677861,4.76,-0.012,-0.164,-9.879,-0.458,58.769,65.952,True,0,1,0,0
-1.954,-0.112,-1.75,compass,-13.375,1.231,-25.958,-1.306,-0.448,-3.61,7.823,2.68180794862384,-10.415,58.852,5.076,22873.138,False,4.573780967996925,4.992154651150232,4.71,-0.012,-0.164,-9.879,-0.371,58.852,65.952,True,0,1,0,0
-2.019,-0.112,-1.758,compass,-14.695,1.679,-25.487,-1.294,-0.112,-3.61,8.002,2.7285536057384663,-10.367,58.9,5.105,22873.238,False,4.617313419443154,5.021607765899797,4.71,0.027,-0.125,-9.836,-0.371,58.9,66.973,True,0,1,0,0
-2.084,-0.224,-1.768,compass,-12.648,0.783,-25.073,-1.281,-0.671,-3.61,8.002,2.7353439556222243,-10.375,58.892,5.105,22873.338,False,4.6307308952884085,5.021475135374953,4.71,0.027,-0.125,-9.801,-0.371,58.892,66.973,True,0,1,0,0
-2.161,-0.224,-1.78,compass,-13.986,0.671,-24.397,-1.261,-0.336,-3.26,8.28,2.8126294172303146,-10.405,58.862,5.086,22873.438,False,4.635734802155139,5.001877178698828,4.71,-0.012,-0.164,-9.84,-0.218,58.862,67.405,True,0,1,0,0
-2.233,-0.336,-1.794,compass,-11.121,0.448,-23.634,-1.261,-1.119,-3.26,8.28,2.8374100445383648,-10.419,58.848,5.086,22873.538,False,4.661832971478518,5.001646523346392,4.71,-0.012,-0.125,-9.84,-0.218,58.848,67.405,True,0,1,0,0
-2.311,-0.448,-1.809,compass,-14.197,1.007,-23.073,-1.256,-0.336,-3.26,8.28,2.8536438672098656,-10.453,58.814,5.132,22873.638,False,4.722912239912375,5.0469928294475155,4.71,-0.012,-0.125,-9.84,-0.218,58.814,67.735,True,0,1,0,0
-2.395,-0.336,-1.827,compass,-12.404,0.448,-22.497,-1.249,-0.783,-1.59,8.28,2.8660087994291534,-10.498,58.769,5.132,22873.738,False,4.741397933925713,5.046253961941042,4.71,-0.09,-0.164,-9.918,0.361,58.769,67.735,True,0,1,0,0
-2.476,-0.224,-1.846,compass,-13.153,0.895,-21.886,-1.235,-0.56,-1.59,8.28,2.884592027290385,-10.562,58.705,5.171,22873.838,False,4.796482461605282,5.083420064059318,4.71,-0.051,-0.086,-9.914,0.361,58.705,68.071,True,0,1,0,0
-2.622,0.112,-1.869,compass,-13.686,0.224,-21.379,-1.225,-0.336,-1.59,8.28,2.9443583307806254,-10.585,58.682,5.171,22873.938,False,4.8132267732785605,5.083045654846492,4.71,-0.051,-0.047,-9.996,0.361,58.682,68.071,True,0,1,0,0
-2.699,0.224,-1.894,compass,-13.124,-0.112,-20.827,-1.189,-0.448,-0.23,8.022,2.9502862983136353,-10.63,58.637,5.134,22874.039,False,4.795982751139518,5.0459888666938735,4.71,-0.051,-0.047,-9.957,0.778,58.637,68.591,True,0,1,0,0
-2.757,0.224,-1.92,compass,-13.544,-0.0,-20.428,-1.165,-0.336,-0.23,8.022,2.958143068598786,-10.645,58.622,5.134,22874.139,False,4.808851808574121,5.045747945905756,4.71,-0.09,-0.012,-9.992,0.778,58.622,68.591,True,0,1,0,0
-2.802,0.224,-1.947,compass,-12.622,0.224,-20.374,-1.131,-0.56,-0.23,7.743,2.889852616458122,-10.66,58.607,5.173,22874.239,False,4.847118872748685,5.083712336465803,4.71,-0.09,0.027,-9.957,0.778,58.607,68.155,True,0,1,0,0
-2.835,0.224,-1.973,compass,-13.925,0.336,-20.418,-1.104,-0.224,0.4,7.743,2.8463509805282468,-10.659,58.608,5.173,22874.339,False,4.846248635680344,5.083722580174956,4.71,-0.09,0.027,-9.918,0.91,58.608,68.155,True,0,1,0,0
-2.859,0.336,-2.0,compass,-16.404,0.224,-20.853,-1.075,0.448,0.4,7.504,2.7831274144304947,-10.643,58.624,5.229,22874.439,False,4.88583771218256,5.139397046947763,4.71,-0.051,-0.012,-9.879,0.91,58.624,68.519,True,0,1,0,0
-2.873,0.448,-2.026,compass,-17.977,0.56,-21.672,-1.043,0.895,0.63,7.504,2.7662999004104645,-10.612,58.655,5.229,22874.539,False,4.8597409805917575,5.139928108445443,4.71,-0.051,0.027,-9.875,0.929,58.655,68.519,True,0,1,0,0
-2.847,0.224,-2.051,compass,-17.428,0.224,-22.54,-1.026,0.671,0.63,7.405,2.701236487146683,-10.602,58.665,5.212,22874.639,False,4.8140188370561425,5.12288501339915,4.71,-0.012,-0.086,-9.797,0.929,58.665,69.29,True,0,1,0,0
-2.828,0.224,-2.074,compass,-17.863,-0.224,-23.553,-1.005,0.783,0.63,7.405,2.657334307039337,-10.606,58.661,5.212,22874.739,False,4.777803679330306,5.122823746558085,4.71,-0.012,-0.125,-9.762,0.929,58.661,69.29,True,0,1,0,0
-2.726,0.112,-2.094,compass,-19.851,-0.0,-24.946,-0.966,1.007,0.59,7.385,2.611035988262982,-10.607,58.66,5.259,22874.839,False,4.767999923313158,5.1686594999118975,4.71,-0.012,-0.125,-9.762,0.823,58.66,69.443,True,0,1,0,0
-2.641,0.0,-2.11,compass,-19.572,0.112,-26.534,-0.957,0.895,0.59,7.385,2.5625296285076935,-10.609,58.658,5.259,22874.939,False,4.704662339710049,5.168639194993194,4.72,-0.012,-0.164,-9.723,0.823,58.658,69.443,True,0,1,0,0
-2.565,-0.112,-2.124,compass,-18.375,-0.112,-28.134,-0.952,0.56,0.59,7.464,2.5240861677542967,-10.616,58.651,5.247,22875.039,False,4.626702180609384,5.157053738979868,4.72,-0.012,-0.203,-9.723,0.823,58.651,69.003,True,0,1,0,0
-2.464,0.0,-2.134,compass,-19.1,-0.224,-29.45,-0.944,0.783,0.55,7.464,2.51702028778551,-10.623,58.644,5.247,22875.14,False,4.568411848328947,5.156927031780533,4.72,-0.051,-0.203,-9.758,0.727,58.644,69.003,True,0,1,0,0
-2.358,0.0,-2.141,compass,-19.477,-0.56,-30.382,-0.94,0.895,0.55,7.584,2.5348237173015358,-10.625,58.642,5.274,22875.24,False,4.54935758652118,5.1836509669215225,4.72,-0.051,-0.242,-9.801,0.727,58.642,69.418,True,0,1,0,0
-2.242,0.0,-2.144,compass,-20.32,-0.0,-31.334,-0.933,1.119,0.59,7.584,2.5610319146695693,-10.626,58.641,5.274,22875.34,False,4.504446672297154,5.183623557303939,4.72,-0.09,-0.277,-9.84,0.675,58.641,69.418,True,0,1,0,0
-2.125,0.112,-2.143,compass,-18.483,-0.56,-32.01,-0.926,0.671,0.59,7.564,2.5607458746882497,-10.612,58.655,5.313,22875.44,False,4.5053639631696,5.222076362851428,4.72,-0.09,-0.277,-9.879,0.675,58.655,69.832,True,0,1,0,0
-1.994,0.224,-2.139,compass,-19.185,-0.224,-32.492,-0.92,0.895,0.61,7.564,2.582074066784683,-10.589,58.678,5.313,22875.54,False,4.482398282098009,5.222474285593015,4.72,-0.09,-0.242,-9.918,0.617,58.678,69.832,True,0,1,0,0
-1.881,0.112,-2.131,compass,-18.074,-0.224,-32.923,-0.92,0.56,0.61,7.484,2.5490107876877186,-10.54,58.727,5.334,22875.64,False,4.480430158803473,5.244325324715113,4.72,-0.051,-0.277,-9.953,0.617,58.727,70.222,True,0,1,0,0
-1.765,0.448,-2.12,compass,-18.504,-0.448,-32.982,-0.913,0.783,0.61,7.484,2.5681063086036073,-10.501,58.766,5.334,22875.74,False,4.478363796891356,5.24499167374157,4.72,-0.09,-0.277,-9.957,0.617,58.766,70.222,True,0,1,0,0
-1.566,0.448,-2.103,compass,-19.444,-0.224,-33.503,-0.874,1.007,0.59,7.245,2.5378863233481663,-10.447,58.82,5.36,22875.84,False,4.474293987633167,5.27076088687849,4.72,-0.09,-0.277,-9.957,0.549,58.82,70.183,True,0,1,0,0
-1.474,0.448,-2.084,compass,-18.58,-0.448,-33.948,-0.854,0.783,0.59,7.245,2.5057719568423877,-10.423,58.844,5.36,22875.94,False,4.451063806365184,5.271170581371171,4.72,-0.09,-0.277,-9.957,0.549,58.844,70.183,True,0,1,0,0
-1.397,0.56,-2.064,compass,-19.826,0.112,-34.487,-0.817,1.119,0.59,7.026,2.492527827142454,-10.398,58.869,5.222,22876.04,False,4.308797827236063,5.135830328964129,4.72,-0.129,-0.355,-9.953,0.549,58.869,69.792,True,0,1,0,0
-1.327,0.56,-2.042,compass,-18.506,-0.0,-34.953,-0.793,0.783,0.14,7.026,2.4691309895418048,-10.352,58.915,5.222,22876.14,False,4.285437386499235,5.136590521509176,4.72,-0.09,-0.316,-9.953,0.344,58.915,69.792,True,0,1,0,0
-1.265,0.783,-2.018,compass,-18.273,0.56,-35.514,-0.757,0.783,0.14,6.827,2.4126533315098713,-10.302,58.965,5.313,22876.24,False,4.331302062452515,5.227304339053041,4.72,-0.09,-0.316,-9.953,0.344,58.965,70.014,True,0,1,0,0
-1.211,0.783,-1.994,compass,-16.458,0.448,-35.756,-0.732,0.336,0.14,6.827,2.3494095809662436,-10.252,59.015,5.313,22876.34,False,4.318884414572581,5.228132027647845,4.72,-0.051,-0.395,-9.914,0.344,59.015,70.014,True,0,1,0,0
-1.166,0.671,-1.969,compass,-17.066,0.448,-36.166,-0.71,0.448,-0.17,6.748,2.277191467293828,-10.205,59.062,5.307,22876.44,False,4.292291456142323,5.223160980198565,4.72,-0.051,-0.395,-9.953,0.206,59.062,69.693,True,0,1,0,0
-1.133,0.56,-1.944,compass,-16.741,0.112,-36.461,-0.681,0.336,-0.17,6.748,2.202923193490974,-10.174,59.093,5.307,22876.541,False,4.275773904157007,5.223674746308934,4.72,-0.012,-0.355,-9.914,0.206,59.093,69.693,True,0,1,0,0
-1.107,0.336,-1.919,compass,-13.582,-0.0,-36.697,-0.664,-0.448,-0.13,6.608,2.0681258865315284,-10.139,59.128,5.266,22876.641,False,4.229858109329714,5.184054718474268,4.72,-0.012,-0.395,-9.879,0.205,59.128,69.795,True,0,1,0,0
-1.122,0.224,-1.895,compass,-13.705,0.224,-36.459,-0.649,-0.448,-0.13,6.608,1.9450373696384444,-10.107,59.16,5.266,22876.741,False,4.242571317933846,5.184566903826834,4.72,-0.012,-0.469,-9.918,0.205,59.16,69.795,True,0,1,0,0
-1.151,-0.112,-1.873,compass,-13.534,0.448,-35.885,-0.672,-0.56,-0.19,6.529,1.8143397740884923,-10.107,59.16,5.128,22876.841,False,4.160135403134557,5.048683865314547,4.79,0.027,-0.434,-9.875,0.155,59.16,69.969,True,0,1,0,0
-1.18,-0.336,-1.852,compass,-13.794,0.112,-35.397,-0.695,-0.56,-0.19,6.529,1.6847148131260161,-10.117,59.15,5.128,22876.941,False,4.18399865686685,5.048533171481314,4.79,0.027,-0.469,-9.836,0.155,59.15,69.969,True,0,1,0,0
-1.229,-0.448,-1.833,compass,-12.905,-0.0,-34.82,-0.724,-0.783,-0.19,6.668,1.5716027178384482,-10.133,59.134,5.227,22877.041,False,4.293711187405869,5.145886807157823,4.79,0.027,-0.395,-9.875,0.155,59.134,69.814,True,0,1,0,0
-1.281,-0.336,-1.817,compass,-10.099,-0.783,-33.192,-0.758,-1.343,0.16,6.668,1.4763462043587912,-10.148,59.119,5.227,22877.141,False,4.375566256702482,5.145637105946077,4.79,0.027,-0.395,-9.875,0.257,59.119,69.814,True,0,1,0,0
-1.352,-0.671,-1.803,compass,-10.469,-0.448,-31.621,-0.798,-1.343,0.16,6.748,1.3854510354533838,-10.182,59.085,5.196,22877.241,False,4.424373068622606,5.114468884679896,4.79,-0.012,-0.277,-9.84,0.257,59.085,69.391,True,0,1,0,0
-1.429,-0.448,-1.792,compass,-10.27,-0.56,-29.369,-0.834,-1.343,0.16,6.748,1.337420157030072,-10.229,59.038,5.196,22877.341,False,4.526511663726155,5.113723289172254,4.79,-0.09,-0.316,-9.914,0.257,59.038,69.391,True,0,1,0,0
-1.515,-0.448,-1.783,compass,-4.532,-0.224,-25.04,-0.871,-1.007,2.44,6.748,1.3071657675245878,-10.423,58.844,5.243,22877.441,False,4.743000907662933,5.156460579480927,4.79,-0.09,-0.277,-9.918,0.99,58.844,69.711,True,0,1,0,0
-1.611,-0.224,-1.778,compass,-2.859,-0.56,-19.679,-0.911,-1.343,2.44,6.748,1.3114153073352304,-10.575,58.692,5.243,22877.541,False,4.928569458192215,5.153912988898099,4.79,-0.129,-0.242,-9.918,0.99,58.692,69.711,True,0,1,0,0
-1.805,0.0,-1.779,compass,-4.862,-0.783,-14.643,-0.969,-0.895,3.3,6.708,1.3508613325145762,-10.67,58.597,5.196,22877.641,False,5.021055043465509,5.106459115402099,4.79,-0.129,-0.203,-9.918,1.319,58.597,69.846,True,0,1,0,0
-1.899,0.112,-1.782,compass,-7.392,-0.56,-10.712,-0.98,-0.336,3.3,6.708,1.4024990343468398,-10.694,58.573,5.196,22877.741,False,5.10172652270078,5.106057594755342,4.86,-0.129,-0.203,-9.996,1.319,58.573,69.846,True,0,1,0,0
-1.982,0.448,-1.788,compass,-5.082,-0.895,-6.881,-0.998,-0.783,3.3,6.509,1.4018267181192654,-10.678,58.589,5.352,22877.841,False,5.311333989943193,5.259164679801007,4.86,-0.129,-0.125,-9.996,1.319,58.589,69.49,True,0,1,0,0
-2.053,0.56,-1.796,compass,-5.549,-0.56,-3.651,-0.982,-0.671,2.93,6.509,1.417870106644183,-10.686,58.581,5.352,22877.941,False,5.340119437844456,5.259020933377917,4.86,-0.09,-0.164,-9.957,1.064,58.581,69.49,True,0,1,0,0
-2.124,0.671,-1.806,compass,-4.36,-0.671,-0.491,-0.966,-0.895,2.93,6.33,1.4579401955373221,-10.685,58.582,5.128,22878.041,False,5.1279909520737075,5.039357787094792,4.86,-0.051,-0.164,-9.914,1.064,58.582,70.173,True,0,1,0,0
-2.167,0.336,-1.817,compass,-8.754,-0.224,1.806,-0.942,0.0,2.89,6.33,1.4589681477742054,-10.7,58.567,5.128,22878.141,False,5.1259902685065,5.039112262486971,4.86,-0.012,-0.125,-9.918,0.938,58.567,70.173,True,0,1,0,0
-2.194,0.448,-1.828,compass,-9.721,-1.007,2.36,-0.918,0.224,2.89,6.31,1.467249360960022,-10.73,58.537,5.115,22878.241,False,5.110681239318335,5.025232096978593,4.86,0.027,-0.125,-9.801,0.938,58.537,69.472,True,0,1,0,0
-2.215,0.224,-1.84,compass,-9.903,-0.895,2.522,-0.898,0.224,2.87,6.31,1.4455169502466618,-10.78,58.487,5.115,22878.341,False,5.110154711933084,5.02440220440849,4.86,0.027,-0.125,-9.801,0.834,58.487,69.472,True,0,1,0,0
-2.22,-0.336,-1.851,compass,-17.611,-0.783,0.786,-0.893,0.671,2.87,6.409,1.3686531289537656,-10.961,58.306,5.243,22878.442,False,5.242722601908316,5.147313923663132,4.86,0.027,-0.164,-9.758,0.834,58.306,69.434,True,0,1,0,0
-2.199,-0.56,-1.862,compass,-17.415,-0.56,-2.61,-0.912,0.56,3.11,6.409,1.2785120287921703,-11.034,58.233,5.243,22878.542,False,5.236495225508767,5.146048785819029,4.86,0.027,-0.164,-9.684,0.87,58.233,69.434,True,0,1,0,0
-2.16,-0.671,-1.871,compass,-18.431,-0.56,-6.231,-0.942,0.783,3.11,6.728,1.3246619084443516,-11.116,58.151,5.019,22878.642,False,4.987330824908039,4.925235675463743,4.86,-0.012,-0.203,-9.723,0.87,58.151,69.62,True,0,1,0,0
-2.115,-1.007,-1.878,compass,-17.375,-0.783,-10.207,-0.99,0.448,3.11,6.728,1.3135108466902468,-11.199,58.068,5.019,22878.742,False,4.935902834375253,4.923835108335806,4.85,-0.012,-0.164,-9.762,0.87,58.068,69.62,True,0,1,0,0
-2.054,-0.895,-1.883,compass,-18.98,-1.343,-13.514,-1.039,0.895,3.77,7.126,1.3935855720203496,-11.269,57.998,5.155,22878.842,False,5.0072923146641815,5.056096973436068,4.85,-0.051,-0.164,-9.719,1.003,57.998,69.933,True,0,1,0,0
-1.985,-1.007,-1.886,compass,-19.147,-1.343,-16.918,-1.101,0.895,3.77,7.126,1.4479767482269692,-11.311,57.956,5.155,22878.942,False,4.926213520525403,5.055348846650205,4.85,-0.09,-0.242,-9.797,1.003,57.956,69.933,True,0,1,0,0
-1.912,-0.783,-1.887,compass,-19.56,-1.231,-19.427,-1.157,1.119,3.98,7.385,1.5906943503471214,-11.329,57.938,5.117,22879.042,False,4.819453513635893,5.016919056296979,4.85,-0.129,-0.277,-9.879,1.008,57.938,70.084,True,0,1,0,0
-1.83,-0.56,-1.885,compass,-17.871,-0.448,-21.51,-1.211,0.783,3.98,7.385,1.7158137674555676,-11.274,57.993,5.117,22879.142,False,4.756624333631607,5.017871281289183,4.85,-0.129,-0.242,-9.957,1.008,57.993,70.084,True,0,1,0,0
-1.741,-0.448,-1.881,compass,-17.204,-0.783,-22.965,-1.253,0.671,4.02,7.524,1.8468716915207724,-11.235,58.032,5.14,22879.242,False,4.73059433819727,5.041427508852834,4.85,-0.129,-0.277,-9.996,0.927,58.032,70.184,True,0,1,0,0
-1.648,0.0,-1.874,compass,-17.534,-0.671,-23.922,-1.288,0.895,4.02,7.524,2.007746521223992,-11.212,58.055,5.14,22879.342,False,4.697494761398079,5.041830498983514,4.85,-0.129,-0.277,-10.066,0.927,58.055,70.184,True,0,1,0,0
-1.478,0.112,-1.862,compass,-18.739,-0.895,-24.225,-1.312,1.231,4.02,7.425,2.149468770407338,-11.15,58.117,5.058,22879.442,False,4.613895710028436,4.962811977933721,4.85,-0.129,-0.277,-10.066,0.927,58.117,71.58,True,0,1,0,0
-1.415,0.112,-1.849,compass,-16.123,-0.783,-24.341,-1.315,0.56,3.96,7.425,2.2350670332636806,-11.135,58.132,5.058,22879.542,False,4.609877204199441,4.963059017070388,4.85,-0.129,-0.316,-10.062,0.814,58.132,71.58,True,0,1,0,0
-1.352,0.224,-1.834,compass,-15.589,-0.783,-24.616,-1.302,0.448,3.96,7.265,2.2560351860250654,-11.142,58.125,5.155,22879.642,False,4.687733574919325,5.058306992344273,4.8,-0.09,-0.355,-10.062,0.814,58.125,71.052,True,0,1,0,0
-1.304,0.224,-1.818,compass,-14.684,-0.448,-24.511,-1.289,0.224,3.96,7.265,2.2634373960885643,-11.162,58.105,5.155,22879.742,False,4.690921245509768,5.057965335346406,4.8,-0.051,-0.355,-10.066,0.814,58.105,71.052,True,0,1,0,0
-1.257,0.112,-1.801,compass,-16.197,-0.0,-24.607,-1.275,0.56,4.19,7.166,2.2382795986193083,-11.184,58.083,5.19,22879.842,False,4.718498040319102,5.0919032683708565,4.8,-0.012,-0.355,-9.992,0.809,58.083,70.873,True,0,1,0,0
-1.228,-0.112,-1.784,compass,-14.592,-0.56,-24.516,-1.265,0.112,4.19,7.166,2.177307790597685,-11.247,58.02,5.19,22879.942,False,4.720192975375017,5.090795796256812,4.8,-0.012,-0.434,-9.957,0.809,58.02,70.873,True,0,1,0,0
-1.21,0.0,-1.767,compass,-17.472,-0.783,-25.207,-1.233,0.112,5.01,7.026,2.1319793713533737,-11.36,57.907,5.128,22880.042,False,4.634747243338768,5.027808413184902,4.8,-0.012,-0.434,-9.996,1.14,57.907,69.853,True,0,1,0,0
-1.221,0.112,-1.75,compass,-15.436,-1.231,-25.542,-1.208,-0.336,5.01,7.026,2.092697185696567,-11.488,57.779,5.128,22880.142,False,4.619121657713278,5.025542787408653,4.8,0.027,-0.434,-9.914,1.14,57.779,69.853,True,0,1,0,0
-1.242,-0.336,-1.735,compass,-13.439,-1.455,-26.12,-1.202,-0.895,6.06,6.927,1.9736534895444076,-11.622,57.645,5.122,22880.243,False,4.588825199053067,5.017426621195804,4.8,-0.012,-0.469,-9.879,1.549,57.645,69.358,True,0,1,0,0
-1.328,-0.224,-1.723,compass,-12.81,-1.007,-25.744,-1.166,-1.007,6.06,6.927,1.886173446551594,-11.923,57.344,5.122,22880.343,False,4.596691456794953,5.011923498330853,4.8,-0.051,-0.434,-9.875,1.549,57.344,69.358,True,0,1,0,0
-1.364,-0.336,-1.712,compass,-11.943,-0.783,-25.149,-1.143,-1.231,6.33,6.987,1.7955132043874305,-12.066,57.201,5.192,22880.443,False,4.682476125118773,5.07770270197269,4.8,-0.051,-0.355,-9.797,1.524,57.201,68.986,True,0,1,0,0
-1.426,-0.224,-1.704,compass,-15.343,-0.783,-24.635,-1.139,-0.448,6.33,6.987,1.759940805171973,-12.178,57.089,5.192,22880.543,False,4.702924445959799,5.075576853217165,4.8,-0.051,-0.316,-9.84,1.524,57.089,68.986,True,0,1,0,0
-1.491,-0.336,-1.697,compass,-13.024,-1.231,-24.024,-1.141,-1.007,6.37,7.086,1.7421270649270297,-12.315,56.952,5.111,22880.643,False,4.6514809217947715,4.993176802549076,4.8,-0.051,-0.316,-9.84,1.392,56.952,68.615,True,0,1,0,0
-1.585,-0.224,-1.694,compass,-12.909,-1.231,-23.171,-1.152,-1.007,6.37,7.086,1.7398910299053891,-12.439,56.828,5.111,22880.743,False,4.682602894978676,4.990811835940221,4.8,-0.051,-0.316,-9.84,1.392,56.828,68.615,True,0,1,0,0
-1.669,-0.336,-1.693,compass,-11.127,-1.343,-22.022,-1.16,-1.455,6.37,7.225,1.7380123350894732,-12.597,56.67,5.134,22880.843,False,4.743437608694972,5.010516012453217,4.8,-0.012,-0.242,-9.84,1.392,56.67,68.391,True,0,1,0,0
-1.754,-0.336,-1.695,compass,-14.083,-1.343,-21.123,-1.167,-0.783,6.54,7.225,1.7540165342754892,-12.765,56.502,5.134,22880.943,False,4.772789341017046,5.007214255009004,4.8,-0.051,-0.277,-9.875,1.309,56.502,68.391,True,0,1,0,0
-1.84,-0.336,-1.699,compass,-13.663,-1.119,-20.371,-1.165,-0.895,6.54,7.365,1.7757884488670719,-12.986,56.281,5.216,22881.043,False,4.871481481566047,5.082366716448215,4.8,-0.051,-0.203,-9.875,1.309,56.281,68.3,True,0,1,0,0
-1.999,-0.336,-1.708,compass,-12.702,-1.119,-19.401,-1.179,-1.119,6.54,7.365,1.7857794600923569,-13.381,55.886,5.216,22881.143,False,4.896584271093486,5.0741660166922165,4.8,-0.051,-0.164,-9.875,1.309,55.886,68.3,True,0,1,0,0
-2.071,-0.224,-1.719,compass,-15.435,-1.567,-18.824,-1.194,-0.448,6.99,7.365,1.8010068578060445,-13.53,55.737,5.33,22881.244,False,5.023969835741575,5.1825198025229104,4.8,-0.129,-0.164,-9.879,1.328,55.737,68.492,True,0,1,0,0
-2.126,-0.112,-1.731,compass,-15.771,-1.567,-18.621,-1.195,-0.336,6.99,7.365,1.829796202795101,-13.673,55.594,5.33,22881.344,False,5.031541759190665,5.179389680387178,4.8,-0.129,-0.125,-9.918,1.328,55.594,68.492,True,0,1,0,0
-2.163,0.112,-1.744,compass,-16.424,-1.119,-18.735,-1.19,-0.112,6.99,7.405,1.9219512434652584,-13.791,55.476,5.208,22881.444,False,4.914097611921292,5.057837046809014,4.8,-0.129,-0.047,-9.875,1.328,55.476,68.277,True,0,1,0,0
-2.207,0.224,-1.758,compass,-14.496,-1.119,-18.736,-1.182,-0.56,7.35,7.405,1.9921373763236827,-13.9,55.367,5.208,22881.544,False,4.915500283704443,5.055473206935426,4.76,-0.129,-0.047,-9.875,1.317,55.367,68.277,True,0,1,0,0
-2.221,0.448,-1.772,compass,-15.597,-1.231,-18.308,-1.149,-0.224,7.35,7.405,2.0659023651007216,-14.012,55.255,5.28,22881.644,False,4.997340219547507,5.122801576634642,4.76,-0.09,-0.086,-9.918,1.317,55.255,69.279,True,0,1,0,0
-2.245,0.783,-1.786,compass,-17.795,-1.119,-18.304,-1.12,0.448,7.35,7.405,2.1854750393832303,-14.127,55.14,5.28,22881.744,False,4.998182348616927,5.12022471804361,4.76,-0.09,-0.047,-9.875,1.317,55.14,69.279,True,0,1,0,0
-2.25,0.783,-1.8,compass,-19.074,-1.119,-19.514,-1.068,0.783,7.91,7.305,2.291943339354389,-14.255,55.012,5.208,22881.844,False,4.893848560114818,5.047623328662637,4.76,-0.051,-0.086,-9.836,1.372,55.012,67.466,True,0,1,0,0
-2.235,0.895,-1.826,compass,-19.388,-1.343,-21.828,-0.947,0.895,8.67,7.166,2.400125371814014,-14.561,54.706,5.334,22882.044,False,4.934079982169524,5.163009054603197,4.76,-0.012,-0.086,-9.84,1.615,54.706,68.406,True,0,1,0,0
-2.235,0.895,-1.826,compass,-19.388,-1.343,-21.828,-0.947,0.895,8.67,7.166,2.400125371814014,-14.561,54.706,5.334,22882.044,False,4.934079982169524,5.163009054603197,4.76,-0.012,-0.086,-9.84,1.615,54.706,68.406,True,0,1,0,0
-2.12,0.336,-1.845,compass,-27.219,-0.671,-25.099,-0.766,1.007,9.31,7.206,2.3615743576234003,-15.033,54.234,5.428,22882.244,False,4.889921782175453,5.2418963987873735,4.76,-0.012,-0.203,-9.762,1.774,54.234,68.716,True,0,1,0,0
-2.12,0.336,-1.845,compass,-27.219,-0.671,-25.099,-0.766,1.007,9.31,7.206,2.3615743576234003,-15.033,54.234,5.428,22882.244,False,4.889921782175453,5.2418963987873735,4.76,-0.012,-0.203,-9.762,1.774,54.234,68.716,True,0,1,0,0
-1.982,0.112,-1.856,compass,-26.784,-1.231,-30.457,-0.724,0.783,9.31,7.285,2.33909929593913,-15.275,53.992,5.249,22882.444,False,4.499000452853911,5.063369894672854,4.82,-0.012,-0.242,-9.723,1.774,53.992,68.685,True,0,1,0,0
-1.982,0.112,-1.856,compass,-26.784,-1.231,-30.457,-0.724,0.783,9.31,7.285,2.33909929593913,-15.275,53.992,5.249,22882.444,False,4.499000452853911,5.063369894672854,4.82,-0.012,-0.242,-9.723,1.774,53.992,68.685,True,0,1,0,0
-1.819,-0.112,-1.856,compass,-36.059,-1.119,-36.666,-0.726,1.119,8.98,7.464,2.4392437661111144,-15.465,53.802,5.336,22882.645,False,4.254577444431229,5.1430754719431135,4.82,-0.051,-0.277,-9.758,1.487,53.802,68.951,True,0,1,0,0
-1.819,-0.112,-1.856,compass,-36.059,-1.119,-36.666,-0.726,1.119,8.98,7.464,2.4392437661111144,-15.465,53.802,5.336,22882.645,False,4.254577444431229,5.1430754719431135,4.82,-0.051,-0.277,-9.758,1.487,53.802,68.951,True,0,1,0,0
-1.666,-0.112,-1.847,compass,-34.155,-1.231,-44.093,-0.746,0.56,9.21,7.624,2.5509812705387884,-15.686,53.581,5.393,22882.845,False,3.8445188825854486,5.1918214832379785,4.82,-0.09,-0.355,-9.875,1.415,53.581,69.305,True,0,1,0,0
-1.666,-0.112,-1.847,compass,-34.155,-1.231,-44.093,-0.746,0.56,9.21,7.624,2.5509812705387884,-15.686,53.581,5.393,22882.845,False,3.8445188825854486,5.1918214832379785,4.82,-0.09,-0.355,-9.875,1.415,53.581,69.305,True,0,1,0,0
-1.475,0.336,-1.829,compass,-32.053,-2.014,-49.206,-0.735,0.224,9.87,7.723,2.764301251967332,-16.054,53.213,5.34,22883.045,False,3.451457913236912,5.131902474550513,4.82,-0.09,-0.395,-9.996,1.602,53.213,69.257,True,0,1,0,0
-1.475,0.336,-1.829,compass,-32.053,-2.014,-49.206,-0.735,0.224,9.87,7.723,2.764301251967332,-16.054,53.213,5.34,22883.045,False,3.451457913236912,5.131902474550513,4.82,-0.09,-0.395,-9.996,1.602,53.213,69.257,True,0,1,0,0
-1.375,0.56,-1.803,compass,-29.714,-1.679,-52.451,-0.705,-0.336,9.87,7.723,2.919873133380345,-16.211,53.056,5.307,22883.245,False,3.202484627463879,5.09609753766175,4.82,-0.09,-0.395,-10.023,1.602,53.056,68.602,True,0,1,0,0
-1.375,0.56,-1.803,compass,-29.714,-1.679,-52.451,-0.705,-0.336,9.87,7.723,2.919873133380345,-16.211,53.056,5.307,22883.245,False,3.202484627463879,5.09609753766175,4.83,-0.09,-0.395,-10.023,1.602,53.056,68.602,True,0,1,0,0
-1.328,0.56,-1.775,compass,-30.466,-1.455,-54.668,-0.64,-0.112,10.62,7.683,3.033412975401343,-16.374,52.893,5.346,22883.445,False,3.0629102293493697,5.129185881170811,4.83,-0.051,-0.355,-10.023,1.692,52.893,67.793,True,0,1,0,0
-1.328,0.56,-1.775,compass,-30.466,-1.455,-54.668,-0.64,-0.112,10.62,7.683,3.033412975401343,-16.374,52.893,5.346,22883.445,False,3.0629102293493697,5.129185881170811,4.83,-0.051,-0.355,-10.023,1.692,52.893,67.793,True,0,1,0,0
-1.275,0.336,-1.746,compass,-30.137,-1.679,-56.545,-0.609,-0.336,10.58,7.643,3.0748340494459874,-16.508,52.759,5.309,22883.645,False,2.901744634544469,5.090217303213365,4.83,0.027,-0.355,-9.996,1.503,52.759,67.428,True,0,1,0,0
-1.275,0.336,-1.746,compass,-30.137,-1.679,-56.545,-0.609,-0.336,10.58,7.643,3.0748340494459874,-16.508,52.759,5.309,22883.645,False,2.901744634544469,5.090217303213365,4.83,0.027,-0.355,-9.996,1.503,52.759,67.428,True,0,1,0,0
-1.241,-0.224,-1.717,compass,-34.417,-2.126,-58.465,-0.599,0.56,10.62,7.584,3.0761375704305918,-16.718,52.549,5.257,22883.845,False,2.722414468505019,5.034388921802349,4.83,0.027,-0.395,-9.875,1.373,52.549,66.82,True,0,1,0,0
-1.241,-0.224,-1.717,compass,-34.417,-2.126,-58.465,-0.599,0.56,10.62,7.584,3.0761375704305918,-16.718,52.549,5.257,22883.845,False,2.722414468505019,5.034388921802349,4.83,0.027,-0.395,-9.875,1.373,52.549,66.82,True,0,1,0,0
-1.187,-0.56,-1.686,compass,-23.057,-2.238,-60.243,-0.673,-0.224,10.66,7.643,2.9327674318686805,-17.139,52.128,5.231,22884.045,False,2.557418482764996,4.998989091184948,4.83,0.027,-0.395,-9.758,1.255,52.128,66.736,True,0,1,0,0
-1.187,-0.56,-1.686,compass,-23.057,-2.238,-60.243,-0.673,-0.224,10.66,7.643,2.9327674318686805,-17.139,52.128,5.231,22884.045,False,2.557418482764996,4.998989091184948,4.83,0.027,-0.395,-9.758,1.255,52.128,66.736,True,0,1,0,0
-1.126,-0.895,-1.654,compass,-25.374,-2.238,-59.108,-0.798,0.224,10.71,7.683,2.779558739219389,-17.471,51.796,5.299,22884.245,False,2.678775321033307,5.054889026255933,4.83,-0.051,-0.469,-9.719,1.146,51.796,66.555,True,0,1,0,0
-1.082,-0.895,-1.637,compass,-25.374,-2.462,-58.383,-0.863,0.224,10.71,7.683,2.697425978540718,-17.641,51.626,5.299,22884.345,False,2.735070343839712,5.050124395000937,4.81,-0.051,-0.395,-9.719,1.146,51.626,66.555,True,0,1,0,0
-1.04,-0.671,-1.619,compass,-23.237,-2.798,-56.767,-0.934,-0.224,10.6,7.783,2.6560692311438725,-17.806,51.461,5.224,22884.446,False,2.820335069582572,4.973305044059349,4.81,-0.09,-0.434,-9.723,0.977,51.461,66.435,True,0,1,0,0
-0.994,-0.783,-1.6,compass,-25.562,-2.35,-55.182,-0.999,0.336,10.6,7.783,2.6336029720108804,-17.977,51.29,5.224,22884.546,False,2.940030545554734,4.968518312802669,4.81,-0.129,-0.434,-9.797,0.977,51.29,66.435,True,0,1,0,0
-0.958,-0.336,-1.581,compass,-23.948,-2.35,-53.427,-1.051,0.112,10.6,7.823,2.6584529549582445,-18.166,51.101,5.222,22884.646,False,3.0680095662097995,4.961319672180889,4.81,-0.129,-0.395,-9.879,0.977,51.101,65.79,True,0,1,0,0
-0.926,-0.224,-1.561,compass,-22.936,-2.238,-51.624,-1.095,-0.112,10.64,7.823,2.6710806686365043,-18.337,50.93,5.222,22884.746,False,3.1991731103916434,4.956456797912772,4.81,-0.09,-0.395,-9.879,0.893,50.93,65.79,True,0,1,0,0
-0.851,0.0,-1.54,compass,-23.418,-2.462,-49.878,-1.145,0.112,10.64,7.604,2.6706519597745584,-18.711,50.556,5.177,22884.846,False,3.2836901068605284,4.9032636919250745,4.81,-0.129,-0.434,-9.918,0.893,50.556,65.701,True,0,1,0,0
-0.825,0.112,-1.519,compass,-23.238,-2.686,-48.163,-1.153,0.112,10.52,7.604,2.677161735237151,-18.896,50.371,5.177,22884.946,False,3.403398221599776,4.897868033224633,4.81,-0.09,-0.395,-9.996,0.744,50.371,65.701,True,0,1,0,0
-0.797,0.112,-1.497,compass,-24.962,-2.35,-47.148,-1.139,0.56,10.52,7.285,2.6369892440422236,-19.091,50.176,5.171,22885.046,False,3.468759992423906,4.886647241376555,4.81,-0.051,-0.434,-9.992,0.744,50.176,65.69,True,0,1,0,0
-0.787,0.224,-1.476,compass,-22.195,-2.686,-46.08,-1.115,-0.112,10.52,7.285,2.5800429062904464,-19.322,49.945,5.171,22885.146,False,3.5382156353989482,4.879781332724846,4.81,-0.051,-0.508,-10.027,0.744,49.945,65.69,True,0,1,0,0
-0.765,0.336,-1.454,compass,-22.436,-2.574,-44.996,-1.081,0.0,10.54,7.086,2.532095622865703,-19.575,49.692,5.052,22885.246,False,3.523995543932806,4.760442146671069,4.8,-0.012,-0.508,-10.066,0.676,49.692,65.302,True,0,1,0,0
-0.74,0.224,-1.433,compass,-21.269,-2.686,-43.88,-1.04,-0.336,10.54,7.086,2.461994918667223,-19.853,49.414,5.052,22885.346,False,3.5910451775860373,4.752172400707108,4.8,-0.051,-0.508,-10.027,0.676,49.414,65.302,True,0,1,0,0
-0.712,0.112,-1.411,compass,-26.097,-2.574,-44.84,-1.008,0.783,10.54,6.569,2.305959790736675,-20.144,49.123,5.257,22885.446,False,3.670626304845469,4.935032075341796,4.8,-0.012,-0.508,-9.996,0.676,49.123,64.99,True,0,1,0,0
-0.693,0.0,-1.39,compass,-23.484,-3.133,-46.044,-0.979,0.112,10.46,6.569,2.138880252116686,-20.441,48.826,5.257,22885.546,False,3.588012428619073,4.925574218802473,4.8,-0.012,-0.508,-9.957,0.582,48.826,64.99,True,0,1,0,0
-0.671,-0.336,-1.368,compass,-21.545,-2.798,-49.131,-0.975,-0.448,10.46,6.27,1.9244580906405209,-20.736,48.531,5.126,22885.646,False,3.2902666125739133,4.794266533270754,4.8,-0.012,-0.508,-9.879,0.582,48.531,63.958,True,0,1,0,0
-0.639,-0.56,-1.346,compass,-24.661,-2.686,-51.39,-1.014,0.112,10.46,6.27,1.7552020528861254,-21.288,47.979,5.126,22885.746,False,3.1168402943291373,4.776540220835984,4.8,-0.012,-0.469,-9.879,0.582,47.979,63.958,True,0,1,0,0
-0.632,-0.895,-1.325,compass,-23.783,-2.574,-59.049,-1.065,-0.224,10.48,6.19,1.5547428701498522,-21.549,47.718,5.362,22885.846,False,2.6676947863422735,4.98678836157982,4.8,-0.012,-0.434,-9.797,0.53,47.718,63.295,True,0,1,0,0
-0.61,-1.007,-1.303,compass,-25.699,-2.462,-64.942,-1.114,0.112,10.48,6.19,1.4043795958964114,-21.811,47.456,5.362,22885.946,False,2.1796052100617094,4.9777506592450145,4.8,-0.09,-0.395,-9.762,0.53,47.456,63.295,True,0,1,0,0
-0.599,-1.119,-1.282,compass,-23.699,-2.798,-68.182,-1.174,-0.336,10.48,6.31,1.2873491442626839,-22.079,47.188,5.239,22886.046,False,1.8581860048725254,4.854891242220582,4.8,-0.09,-0.395,-9.797,0.53,47.188,63.272,True,0,1,0,0
-0.601,-0.56,-1.262,compass,-25.684,-2.91,-66.986,-1.227,0.336,10.41,6.31,1.2627599162795253,-22.346,46.921,5.239,22886.146,False,1.9617360918392912,4.845641761239601,4.85,-0.164,-0.434,-9.836,0.454,46.921,63.272,True,0,1,0,0
-0.595,-0.336,-1.242,compass,-23.627,-3.021,-64.278,-1.262,0.0,10.41,6.628,1.3324841851932747,-22.601,46.666,5.163,22886.247,False,2.159581955307506,4.766754236802237,4.85,-0.164,-0.469,-9.836,0.454,46.666,61.939,True,0,1,0,0
-0.588,-0.448,-1.222,compass,-26.281,-2.462,-62.101,-1.297,0.56,10.48,6.628,1.4035680246140452,-22.837,46.43,5.163,22886.347,False,2.3389919361508147,4.758538203901326,4.85,-0.164,-0.395,-9.875,0.443,46.43,61.939,True,0,1,0,0
-0.579,0.0,-1.203,compass,-22.996,-2.014,-59.068,-1.326,0.0,10.48,6.768,1.5304339076273001,-23.057,46.21,5.025,22886.447,False,2.5133865743808306,4.623797463735379,4.85,-0.129,-0.434,-9.957,0.443,46.21,61.272,True,0,1,0,0
-0.567,-0.112,-1.184,compass,-24.612,-1.902,-56.513,-1.366,0.336,10.46,6.768,1.6295607867481903,-23.462,45.805,5.025,22886.547,False,2.696440745555015,4.609759288900803,4.85,-0.129,-0.395,-9.957,0.39,45.805,61.272,True,0,1,0,0
-0.559,0.112,-1.165,compass,-17.335,-2.014,-53.791,-1.364,0.336,10.46,6.668,1.6693679655715978,-23.673,45.594,5.136,22886.647,False,2.963276887543997,4.703861436196816,4.85,-0.09,-0.395,-9.957,0.39,45.594,61.048,True,0,1,0,0
-0.546,0.336,-1.147,compass,-18.471,-2.126,-50.453,-1.349,0.671,10.46,6.668,1.726221181533662,-23.87,45.397,5.136,22886.747,False,3.206720967173797,4.696728435937414,4.85,-0.09,-0.395,-9.957,0.39,45.397,61.048,True,0,1,0,0
-0.544,0.224,-1.128,compass,-16.207,-2.35,-47.264,-1.322,0.112,10.35,6.648,1.7694582679940547,-24.089,45.178,4.955,22886.847,False,3.3063047797498077,4.523703108594302,4.85,-0.09,-0.508,-9.957,0.313,45.178,59.906,True,0,1,0,0
-0.546,-0.224,-1.111,compass,-16.29,-1.679,-44.348,-1.308,0.0,10.35,6.648,1.7422982696718594,-24.309,44.958,4.955,22886.947,False,3.4911828740355118,4.515932175021446,4.85,-0.051,-0.469,-9.953,0.313,44.958,59.906,True,0,1,0,0
-0.559,0.0,-1.094,compass,-15.485,-1.679,-41.167,-1.282,-0.112,10.35,6.549,1.6472152216302778,-24.536,44.731,5.255,22887.047,False,3.9040033903648292,4.780125110995678,4.85,-0.012,-0.434,-9.879,0.313,44.731,60.718,True,0,1,0,0
-0.559,-0.112,-1.078,compass,-16.658,-1.567,-38.033,-1.261,0.112,10.25,6.549,1.564751613312624,-24.756,44.511,5.255,22887.147,False,4.091345016875582,4.771746068320676,4.85,-0.051,-0.508,-9.836,0.249,44.511,60.718,True,0,1,0,0
-0.572,-0.224,-1.063,compass,-14.722,-2.014,-35.338,-1.234,-0.336,10.25,6.529,1.5100416890631325,-25.018,44.249,5.066,22887.247,False,4.088480517827948,4.590725170896936,4.85,-0.051,-0.547,-9.84,0.249,44.249,59.609,True,0,1,0,0
-0.59,-0.224,-1.049,compass,-14.192,-2.014,-32.271,-1.221,-0.448,9.23,6.529,1.4613827857856878,-25.259,44.008,5.066,22887.348,False,4.242675270090616,4.581671629913693,4.85,-0.09,-0.547,-9.801,-0.274,44.008,59.609,True,0,1,0,0
-0.607,-0.112,-1.036,compass,-19.675,-1.902,-30.571,-1.182,-0.112,9.23,6.529,1.4422679380775545,-25.66,43.607,5.091,22887.448,False,4.338744399892181,4.589236931113944,4.85,-0.129,-0.547,-9.801,-0.274,43.607,59.101,True,0,1,0,0
-0.619,-0.112,-1.023,compass,-17.618,-1.455,-29.285,-1.174,-0.56,6.77,6.529,1.4101725232891626,-25.779,43.488,5.091,22887.548,False,4.402903087288048,4.584642740251655,4.85,-0.164,-0.547,-9.797,-1.546,43.488,59.101,True,0,1,0,0
-0.629,0.224,-1.011,compass,-16.636,-1.343,-28.643,-1.161,-0.671,6.77,6.549,1.3983541215740474,-25.869,43.398,5.216,22887.648,False,4.544860784898036,4.69308942910115,4.85,-0.164,-0.469,-9.801,-1.546,43.398,58.321,True,0,1,0,0
-0.649,0.336,-1.001,compass,-15.47,-0.895,-27.636,-1.151,-0.895,6.77,6.549,1.3928681611054359,-25.938,43.329,5.216,22887.748,False,4.593809758386995,4.6903722254682565,4.85,-0.129,-0.469,-9.797,-1.546,43.329,58.321,True,0,1,0,0
-0.659,0.336,-0.99,compass,-18.98,-0.783,-27.464,-1.139,-0.112,3.55,6.569,1.4450990861408306,-25.981,43.286,5.12,22887.848,False,4.521581141194133,4.603000525344754,4.85,-0.164,-0.469,-9.836,-2.464,43.286,57.612,True,0,1,0,0
-0.693,0.448,-0.981,compass,-17.835,-1.119,-27.362,-1.109,-0.336,3.55,6.569,1.4902277318921855,-26.04,43.227,5.12,22887.948,False,4.528756563239587,4.600704918779527,4.85,-0.129,-0.395,-9.879,-2.464,43.227,57.612,True,0,1,0,0
-0.722,0.56,-0.974,compass,-17.572,-1.007,-28.259,-1.089,-0.336,2.05,6.27,1.46162854458876,-26.077,43.19,5.19,22888.048,False,4.555285999602255,4.662121535521638,4.93,-0.129,-0.355,-9.875,-2.967,43.19,57.042,True,0,1,0,0
-0.772,0.56,-0.968,compass,-15.508,-0.671,-28.621,-1.061,-0.783,2.05,6.27,1.42175316478997,-26.122,43.145,5.19,22888.148,False,4.541638469548114,4.660312706870587,4.93,-0.129,-0.395,-9.918,-2.967,43.145,57.042,True,0,1,0,0
-0.825,0.783,-0.963,compass,-13.363,-0.56,-28.557,-1.023,-0.336,2.05,5.991,1.3897803623112983,-26.18,43.087,5.117,22888.248,False,4.4809535073124565,4.591696596333392,4.93,-0.051,-0.277,-9.914,-2.967,43.087,56.324,True,0,1,0,0
-0.885,0.671,-0.961,compass,-13.491,-0.448,-27.905,-0.983,-0.336,1.82,5.991,1.348979787679159,-26.241,43.026,5.117,22888.348,False,4.509629252676133,4.5893055015329,4.93,-0.012,-0.316,-9.914,-2.747,43.026,56.324,True,0,1,0,0
-1.04,0.448,-0.963,compass,-11.458,-0.783,-26.813,-0.896,-0.783,1.82,5.872,1.2438002753799056,-26.441,42.826,5.148,22888.448,False,4.578767443991309,4.609230528298678,4.93,-0.012,-0.277,-9.918,-2.747,42.826,56.153,True,0,1,0,0
-1.106,0.336,-0.968,compass,-13.848,-1.343,-25.549,-0.853,-0.336,1.82,5.872,1.1595448959160413,-26.546,42.721,5.148,22888.548,False,4.629613918288254,4.605030905649601,4.93,0.027,-0.242,-9.914,-2.747,42.721,56.153,True,0,1,0,0
-1.162,0.112,-0.973,compass,-14.157,-1.231,-24.646,-0.822,-0.336,2.05,5.952,1.0699667551523802,-26.648,42.619,5.218,22888.648,False,4.728044791847387,4.66345262250905,4.93,0.027,-0.242,-9.875,-2.396,42.619,56.055,True,0,1,0,0
-1.245,-0.112,-0.982,compass,-14.449,-0.783,-24.001,-0.802,-0.336,2.05,5.952,0.9740394197260194,-26.775,42.492,5.218,22888.748,False,4.751942227614455,4.658248308793305,4.93,-0.051,-0.316,-9.84,-2.396,42.492,56.055,True,0,1,0,0
-1.314,-0.224,-0.992,compass,-14.618,-0.671,-23.489,-0.804,-0.336,2.05,6.031,0.9284162711004911,-26.843,42.424,5.107,22888.848,False,4.670890476452039,4.556589952415445,4.93,-0.051,-0.316,-9.84,-2.396,42.424,55.83,True,0,1,0,0
-1.37,-0.224,-1.003,compass,-15.191,-0.671,-23.22,-0.811,-0.224,1.12,6.031,0.8965001133916931,-26.909,42.358,5.107,22888.948,False,4.681511914578862,4.553944115976864,4.88,-0.09,-0.277,-9.797,-2.466,42.358,55.83,True,0,1,0,0
-1.391,-0.448,-1.015,compass,-17.205,-0.448,-23.101,-0.847,0.112,1.12,6.19,0.9191499818350741,-26.994,42.273,4.986,22889.049,False,4.575394579458767,4.443127395146405,4.88,-0.129,-0.316,-9.801,-2.466,42.273,55.982,True,0,1,0,0
-1.411,-0.448,-1.026,compass,-17.205,-0.448,-23.547,-0.899,0.112,-1.24,6.19,0.9382275445460033,-27.023,42.244,4.986,22889.149,False,4.561525811948379,4.441975455463034,4.88,-0.09,-0.316,-9.836,-3.403,42.244,55.982,True,0,1,0,0
-1.405,-0.224,-1.038,compass,-18.98,-0.224,-24.627,-0.961,0.56,-1.24,6.29,1.0289988816676652,-27.008,42.259,4.953,22889.249,False,4.495408879306819,4.4131055835058,4.88,-0.09,-0.242,-9.84,-3.403,42.259,55.364,True,0,1,0,0
-1.333,-0.336,-1.047,compass,-19.162,-0.224,-26.266,-1.065,0.56,-1.24,6.29,1.0914177910190888,-26.936,42.331,4.953,22889.349,False,4.437968471996185,4.415952124995205,4.88,-0.09,-0.316,-9.836,-3.403,42.331,55.364,True,0,1,0,0
-1.298,-0.224,-1.054,compass,-19.437,-0.112,-28.456,-1.11,0.671,-3.0,6.409,1.1537644982911994,-26.893,42.374,5.122,22889.449,False,4.5016043829978765,4.568468832789479,4.88,-0.09,-0.242,-9.879,-3.648,42.374,54.966,True,0,1,0,0
-1.26,-0.224,-1.06,compass,-18.405,-0.224,-30.517,-1.148,0.448,-3.0,6.409,1.1962887395613533,-26.834,42.433,5.122,22889.549,False,4.41330847897208,4.5708329185542205,4.88,-0.051,-0.277,-9.914,-3.648,42.433,54.966,True,0,1,0,0
-1.221,-0.112,-1.065,compass,-17.187,0.224,-31.615,-1.164,0.224,-3.0,6.469,1.29101472736837,-26.782,42.485,4.924,22889.649,False,4.195540017104988,4.395925967298447,4.88,-0.09,-0.316,-9.836,-3.648,42.485,54.258,True,0,1,0,0
-1.186,0.0,-1.069,compass,-19.053,-0.224,-32.448,-1.171,0.671,-3.69,6.469,1.3955503094193933,-26.745,42.522,4.924,22889.749,False,4.158441815506531,4.397357028064532,4.88,-0.09,-0.277,-9.918,-3.513,42.522,54.258,True,0,1,0,0
-1.139,0.112,-1.071,compass,-17.828,-0.112,-32.583,-1.166,0.448,-3.69,6.668,1.5090007560970409,-26.752,42.515,4.979,22889.849,False,4.197180538398252,4.44568392771447,4.88,-0.09,-0.355,-9.914,-3.513,42.515,54.654,True,0,1,0,0
-1.108,0.224,-1.072,compass,-19.586,-0.0,-32.736,-1.164,0.895,-3.75,6.668,1.6288095780053966,-26.753,42.514,4.979,22889.949,False,4.189510498135997,4.445666038636004,4.88,-0.09,-0.355,-9.914,-3.192,42.514,54.654,True,0,1,0,0
-1.077,0.224,-1.072,compass,-17.18,-0.0,-32.578,-1.161,0.336,-3.75,6.708,1.7108037514142542,-26.747,42.52,4.959,22890.049,False,4.180374447206228,4.428543104285332,4.88,-0.09,-0.395,-9.918,-3.192,42.52,54.954,True,0,1,0,0
-1.052,0.0,-1.072,compass,-15.5,-0.112,-32.323,-1.155,-0.112,-3.75,6.708,1.7317428478212278,-26.753,42.514,4.959,22890.149,False,4.191624894913974,4.428277456369787,4.88,-0.051,-0.434,-9.914,-3.192,42.514,54.954,True,0,1,0,0
-0.987,0.112,-1.069,compass,-27.103,-0.448,-33.548,-1.143,0.56,-3.81,6.608,1.8033696623944595,-26.767,42.5,4.887,22890.249,False,4.0733323738591,4.363517070991919,4.88,-0.012,-0.434,-9.879,-2.892,42.5,54.495,True,0,1,0,0
-0.969,-0.112,-1.066,compass,-25.702,-0.336,-35.926,-1.135,0.112,-3.81,6.608,1.8269025788449178,-26.767,42.5,4.887,22890.349,False,3.957728901108398,4.363511743222409,4.88,-0.012,-0.395,-9.918,-2.892,42.5,54.495,True,0,1,0,0
-0.954,-0.224,-1.063,compass,-26.433,-0.56,-39.691,-1.133,0.224,-3.98,6.509,1.82989297267254,-26.777,42.49,4.965,22890.45,False,3.8202873402828526,4.432577160373181,4.88,-0.051,-0.434,-9.914,-2.685,42.49,53.659,True,0,1,0,0
-0.934,-0.224,-1.059,compass,-24.965,-0.0,-43.325,-1.141,-0.112,-3.98,6.509,1.8256381487547293,-26.777,42.49,4.965,22890.55,False,3.6116848506862307,4.432559062142782,4.88,-0.129,-0.395,-9.879,-2.685,42.49,53.659,True,0,1,0,0
-0.923,-0.224,-1.055,compass,-24.965,-0.0,-46.414,-1.152,-0.112,-4.0,6.409,1.814770931424894,-26.775,42.492,4.907,22890.65,False,3.3827814789405033,4.380575328939043,4.88,-0.129,-0.395,-9.918,-2.427,42.492,54.023,True,0,1,0,0
-0.919,-0.224,-1.051,compass,-26.455,0.336,-48.967,-1.162,0.224,-4.0,6.409,1.8304469777699581,-26.762,42.505,4.907,22890.75,False,3.221783258337336,4.381068772559673,4.88,-0.129,-0.316,-9.914,-2.427,42.505,54.023,True,0,1,0,0
-0.918,-0.112,-1.047,compass,-23.725,0.336,-50.912,-1.178,-0.336,-4.02,6.409,1.8470358364658244,-26.747,42.52,4.817,22890.85,False,3.0385312655387042,4.301800377496846,4.89,-0.051,-0.355,-9.918,-2.195,42.52,53.671,True,0,1,0,0
-0.926,0.0,-1.043,compass,-25.974,0.224,-52.07,-1.197,0.224,-4.02,6.409,1.8997098839607764,-26.754,42.513,4.817,22890.95,False,2.9617724268815318,4.301543873140404,4.89,-0.012,-0.316,-9.914,-2.195,42.513,53.671,True,0,1,0,0
-0.933,-0.224,-1.04,compass,-26.992,0.448,-55.186,-1.216,0.336,-4.02,6.25,1.9000965629490896,-26.776,42.491,4.955,22891.05,False,2.828289851508117,4.423921975345006,4.89,-0.012,-0.277,-9.879,-2.195,42.491,52.757,True,0,1,0,0
-0.962,-0.112,-1.037,compass,-25.741,0.336,-57.671,-1.232,0.112,-4.06,6.25,1.9013480065440076,-26.898,42.369,4.955,22891.15,False,2.642409945211656,4.419163041239455,4.89,-0.051,-0.316,-9.879,-1.988,42.369,52.757,True,0,1,0,0
-0.987,-0.448,-1.036,compass,-27.485,0.671,-60.144,-1.236,0.336,-4.06,6.31,1.8703384273803567,-26.964,42.303,5.039,22891.25,False,2.49842378738477,4.491084242191369,4.89,-0.09,-0.355,-9.914,-1.988,42.303,54.082,True,0,1,0,0
-1.005,-0.224,-1.035,compass,-25.977,0.112,-61.843,-1.244,0.112,-4.02,6.31,1.8554631748455848,-27.001,42.266,5.039,22891.35,False,2.367545540872472,4.489587739961147,4.89,-0.09,-0.355,-9.875,-1.77,42.266,54.082,True,0,1,0,0
-1.025,-0.336,-1.035,compass,-25.199,0.112,-62.699,-1.258,-0.112,-4.02,6.449,1.857827417086151,-27.001,42.266,4.981,22891.45,False,2.2764691502712444,4.43762798541074,4.89,-0.09,-0.395,-9.879,-1.77,42.266,53.887,True,0,1,0,0
-1.05,-0.224,-1.035,compass,-27.917,0.56,-63.314,-1.303,0.448,-4.02,6.589,1.8816828157639869,-26.979,42.288,4.87,22891.55,False,2.2318462223136,4.438493399246289,4.89,-0.051,-0.355,-9.879,-1.593,42.288,53.818,True,0,1,0,0
-1.05,-0.224,-1.035,compass,-24.474,0.56,-62.764,-1.303,-0.224,-4.02,6.589,1.9271142419632723,-26.936,42.331,4.87,22891.65,False,2.2275187027505696,4.341438087927954,4.89,-0.051,-0.355,-9.879,-1.593,42.331,53.818,True,0,1,0,0
-1.081,0.112,-1.038,compass,-23.339,0.336,-61.155,-1.306,-0.336,-4.02,6.608,2.0118402061861076,-26.913,42.354,4.971,22891.75,False,2.399371527605733,4.342297744850796,4.81,-0.051,-0.316,-9.918,-1.593,42.37,54.166,True,0,1,0,0
-1.081,0.112,-1.038,compass,-23.339,0.336,-61.155,-1.306,-0.336,-4.04,6.608,2.0118402061861076,-26.897,42.37,4.971,22891.85,False,2.399371527605733,4.4330581628847865,4.81,-0.051,-0.316,-9.918,-1.44,42.37,54.166,True,0,1,0,0
-1.092,0.0,-1.039,compass,-24.036,0.671,-60.538,-1.295,-0.224,-4.04,6.429,2.0224274255087513,-26.868,42.399,4.763,22891.95,False,2.4475511956956035,4.434196108127139,4.81,-0.051,-0.355,-9.879,-1.44,42.399,53.376,True,0,1,0,0
