imu.roll,imu.pitchrate,imu.heel,ap.mode,ap.wind_angle,imu.headingrate,ap.true_wind_angle,imu.pitch,imu.rollrate,rudder.angle,wind.speed,ap.true_wind_speed,ap.heading_error,ap.heading,gps.speed,timestamp,ap.enabled,ap.vmg,ap.cmg,sow.speed,imu.accel_X,imu.accel_Y,imu.accel_Z,rudder.speed,imu.heading,gps.track,perf.quality_flag,perf.boat_config.Main,perf.boat_config.jib,perf.boat_config.spi,perf.boat_config.weight
-0.232,0.112,-0.342,compass,-173.917,1.231,-135.587,-1.015,0.0,12.22,4.379,3.149446904634268,-60.0,267.477,2.024,23407.008,False,-1.9568968671964428,-1.3549434297669325,0.0,-0.051,-0.547,-9.879,-0.331,267.477,88.403,True,0,1,0,0
-0.247,0.0,-0.339,compass,-175.586,1.231,-141.351,-1.013,-0.224,12.22,4.379,3.018113912571005,-60.0,267.561,1.878,23407.109,False,-1.8088565359798487,-1.2552669405352335,0.0,-0.051,-0.547,-9.879,-0.298,267.561,88.683,True,0,1,0,0
-0.248,0.112,-0.336,compass,-178.939,1.343,-146.449,-1.015,-0.671,12.22,4.22,2.860701406409539,-60.0,267.64,1.878,23407.209,False,-1.8085501623668738,-1.2533377756305197,0.0,-0.051,-0.547,-9.879,-0.298,267.64,88.683,True,0,1,0,0
-0.243,-0.112,-0.333,compass,-177.336,1.567,-150.116,-1.012,-0.448,12.22,4.22,2.753055694412189,-60.0,267.739,1.971,23407.309,False,-1.8951034276101741,-1.3130790968937245,0.0,-0.012,-0.547,-9.875,-0.298,267.739,92.939,True,0,1,0,0
-0.258,0.112,-0.331,compass,-175.033,1.343,-152.727,-1.01,-0.783,14.27,3.981,2.581059397971455,-60.0,267.834,1.971,23407.409,False,-1.8900936514080837,-1.3106559944848972,0.0,-0.051,-0.508,-9.875,0.415,267.834,92.939,True,0,1,0,0
-0.258,0.0,-0.329,compass,-173.347,1.567,-155.604,-1.013,-0.56,14.27,3.981,2.4501908058691124,-60.0,267.928,1.985,23407.509,False,-1.9073443972425057,-1.3172695286516178,0.0,-0.051,-0.508,-9.836,0.415,267.928,89.135,True,0,1,0,0
-0.273,-0.112,-0.327,compass,-171.866,1.567,-157.597,-1.01,-0.336,14.27,3.782,2.3219178930625306,-60.0,268.022,1.985,23407.609,False,-1.9081779671552257,-1.3148273097955305,0.0,-0.051,-0.508,-9.875,0.415,268.022,89.135,True,0,1,0,0
-0.284,0.112,-0.326,compass,-168.823,1.567,-159.302,-1.016,0.0,17.19,3.782,2.2110247545864663,-60.0,268.244,1.93,23407.709,False,-1.8569376747566932,-1.2731392625097857,0.0,-0.051,-0.508,-9.875,1.343,268.244,86.88,True,0,1,0,0
-0.294,0.112,-0.325,compass,-170.724,1.455,-160.382,-1.019,-0.224,17.19,3.663,2.0941410317227493,-60.0,268.348,1.93,23407.809,False,-1.8563243952658717,-1.2705023767244235,0.0,-0.051,-0.547,-9.879,1.343,268.348,86.88,True,0,1,0,0
-0.304,0.112,-0.324,compass,-170.724,1.79,-160.679,-1.022,-0.224,17.19,3.663,2.004963880838058,-60.0,268.477,1.94,23407.909,False,-1.8598449092147677,-1.2736158741049666,0.0,-0.051,-0.508,-9.836,1.343,268.477,88.689,True,0,1,0,0
-0.3,-0.112,-0.324,compass,-168.253,1.902,-160.722,-1.03,0.112,18.33,3.603,1.9570173436538125,-60.0,268.606,1.94,23408.009,False,-1.8532750680307402,-1.2703343631868373,0.0,-0.051,-0.508,-9.875,1.589,268.606,88.689,True,0,1,0,0
-0.295,-0.112,-0.323,compass,-172.007,1.79,-160.834,-1.038,-0.336,18.33,3.603,1.914773629543919,-60.0,268.729,1.919,23408.109,False,-1.8284317846754374,-1.2532049220835586,0.0,-0.051,-0.508,-9.875,1.589,268.729,88.954,True,0,1,0,0
-0.291,0.0,-0.322,compass,169.963,1.455,-140.082,-1.046,0.112,18.66,3.563,2.3417718082746446,-60.0,268.847,1.919,23408.209,False,-1.4625186002941195,-1.2501984443695733,0.0,-0.051,-0.508,-9.875,1.595,268.847,88.954,True,0,1,0,0
-0.286,-0.224,-0.321,compass,168.436,1.79,-114.467,-1.045,-0.112,18.66,3.563,3.0150928823278695,-60.0,268.976,2.041,23408.309,False,-0.48901423045614,-1.3265197044107504,0.0,-0.051,-0.508,-9.875,1.595,268.976,85.923,True,0,1,0,0
-0.291,0.0,-0.32,compass,166.171,1.567,-88.067,-1.043,-0.336,17.7,3.583,3.5969361372800157,-60.0,269.105,2.041,23408.409,False,0.2716935943880665,-1.3230302691188294,0.0,-0.051,-0.469,-9.875,0.956,269.105,85.923,True,0,1,0,0
-0.292,0.0,-0.319,compass,170.92,2.014,-62.453,-1.046,0.224,17.7,3.583,3.946213151799979,-60.0,269.228,1.956,23408.509,False,0.6500221180742134,-1.264372390545828,0.0,-0.051,-0.508,-9.875,0.956,269.228,88.117,True,0,1,0,0
-0.298,0.112,-0.318,compass,171.747,1.567,-38.273,-1.038,0.336,17.42,3.583,4.079214287065663,-60.0,269.486,1.956,23408.609,False,0.8044161954063223,-1.2576532531249123,0.0,-0.051,-0.508,-9.875,0.721,269.486,88.117,True,0,1,0,0
-0.298,0.0,-0.318,compass,168.051,1.79,-15.933,-1.041,-0.112,17.42,3.583,4.083730011801026,-60.0,269.629,2.004,23408.709,False,0.837596031012364,-1.2850625390615338,0.0,-0.051,-0.508,-9.875,0.721,269.629,87.59,True,0,1,0,0
-0.293,0.224,-0.317,compass,171.601,1.679,4.256,-1.04,0.336,17.38,3.583,3.934692753140465,-60.0,269.773,2.004,23408.809,False,0.7593520938450167,-1.281207681952067,0.0,-0.051,-0.508,-9.875,0.629,269.773,87.59,True,0,1,0,0
-0.289,0.0,-0.316,compass,168.051,1.79,23.207,-1.038,-0.112,17.38,3.583,3.7532444328278984,-60.0,269.911,1.923,23408.909,False,0.5673937053261454,-1.2254376893331862,0.0,-0.051,-0.508,-9.914,0.629,269.911,87.379,True,0,1,0,0
-0.274,-0.112,-0.315,compass,167.243,1.79,39.998,-1.037,-0.224,17.42,3.424,3.5246234932683764,-60.0,270.059,1.923,23409.009,False,0.3724870094189093,-1.2216009844800442,0.0,-0.051,-0.508,-9.875,0.586,270.059,87.379,True,0,1,0,0
-0.27,0.112,-0.314,compass,169.822,1.79,54.254,-1.036,0.112,17.42,3.424,3.263618589264761,-60.0,270.213,2.002,23409.109,False,0.1861612812429546,-1.2681014334051532,0.0,-0.051,-0.547,-9.879,0.586,270.213,86.288,True,0,1,0,0
-0.26,0.224,-0.312,compass,169.643,1.567,66.737,-1.04,0.112,17.34,3.384,2.9959435903112936,-60.0,270.356,2.002,23409.21,False,-0.020024483190864823,-1.2642240124313857,0.0,-0.051,-0.547,-9.879,0.487,270.356,86.288,True,0,1,0,0
-0.251,0.112,-0.31,compass,171.913,1.79,78.04,-1.033,0.336,17.34,3.384,2.7444504664435363,-60.0,270.49,2.053,23409.31,False,-0.24087865790785487,-1.292420604717105,0.0,-0.051,-0.586,-9.875,0.487,270.49,87.292,True,0,1,0,0
-0.241,0.112,-0.308,compass,179.391,2.014,88.011,-1.037,0.448,17.34,3.165,2.471477495615221,-60.0,270.613,2.053,23409.41,False,-0.4511212178773137,-1.2889816721080387,0.0,-0.051,-0.547,-9.879,0.487,270.613,87.292,True,0,1,0,0
-0.197,0.112,-0.305,compass,176.021,1.79,97.587,-1.019,0.112,17.19,3.165,2.224342691032658,-60.0,270.855,2.061,23409.51,False,-0.6786900020079626,-1.2870719552464682,0.0,-0.051,-0.547,-9.918,0.389,270.855,89.005,True,0,1,0,0
-0.183,0.224,-0.301,compass,179.654,1.79,105.433,-1.007,0.448,17.19,2.986,1.963228924108904,-60.0,270.974,2.061,23409.61,False,-0.8580752001222739,-1.2837321151673051,0.0,-0.051,-0.508,-9.875,0.389,270.974,89.005,True,0,1,0,0
-0.168,0.224,-0.297,compass,177.216,1.567,114.496,-1.005,0.224,17.19,2.986,1.735064469543454,-60.0,271.078,2.028,23409.71,False,-1.0664938069689807,-1.2602693686896036,0.0,-0.051,-0.547,-9.84,0.389,271.078,92.703,True,0,1,0,0
-0.163,0.112,-0.293,compass,-178.282,1.79,101.865,-1.003,0.56,16.21,3.065,2.124647628975185,-60.0,271.187,2.028,23409.81,False,-0.6129938613767677,-1.2572504051066618,0.0,-0.012,-0.508,-9.879,0.022,271.187,92.703,True,0,1,0,0
-0.154,0.112,-0.289,compass,177.076,1.567,95.591,-0.986,0.112,16.21,3.065,2.311650704630937,-60.0,271.286,1.927,23409.91,False,-0.3391519637198104,-1.1919488922813526,0.0,-0.051,-0.508,-9.875,0.022,271.286,89.897,True,0,1,0,0
-0.154,0.224,-0.285,compass,174.668,1.679,93.225,-0.969,-0.112,15.75,3.085,2.3517773089633627,-60.0,271.385,1.927,23410.01,False,-0.2298028775717956,-1.1893215953019183,0.0,-0.051,-0.547,-9.84,-0.209,271.385,89.897,True,0,1,0,0
-0.163,0.112,-0.281,compass,171.366,1.679,94.304,-0.951,-0.448,15.75,3.085,2.3126971091593074,-60.0,271.46,1.857,23410.11,False,-0.23238911039476012,-1.1442074347548985,0.0,-0.051,-0.508,-9.875,-0.209,271.46,91.459,True,0,1,0,0
-0.168,0.224,-0.278,compass,173.63,1.79,97.691,-0.948,-0.224,15.65,3.245,2.2392524451086233,-60.0,271.559,1.857,23410.21,False,-0.32304863328035144,-1.1416776180387056,0.0,-0.051,-0.547,-9.879,-0.238,271.559,91.459,True,0,1,0,0
-0.184,-0.112,-0.272,compass,175.037,2.014,109.568,-0.96,-0.112,14.54,3.284,2.0179852327034222,-60.0,271.831,1.913,23410.41,False,-0.6911975567203329,-1.169170500778483,0.0,-0.051,-0.547,-9.879,-0.766,271.831,96.14,True,0,1,0,0
-0.184,-0.112,-0.272,compass,175.037,2.014,109.568,-0.96,-0.112,14.54,3.284,2.0179852327034222,-60.0,271.831,1.913,23410.41,False,-0.6911975567203329,-1.169170500778483,0.0,-0.051,-0.547,-9.879,-0.766,271.831,96.14,True,0,1,0,0
-0.204,-0.112,-0.268,compass,178.275,2.014,122.982,-0.975,0.224,14.54,3.105,1.8364991754748103,-60.0,272.019,1.839,23410.61,False,-1.0309175352064615,-1.1192403490460578,0.0,-0.051,-0.508,-9.875,-0.766,272.019,94.017,True,0,1,0,0
-0.204,-0.112,-0.268,compass,178.275,2.014,122.982,-0.975,0.224,14.54,3.105,1.8364991754748103,-60.0,272.019,1.839,23410.61,False,-1.0309175352064615,-1.1192403490460578,0.0,-0.051,-0.508,-9.875,-0.766,272.019,94.017,True,0,1,0,0
-0.245,-0.112,-0.266,compass,178.29,1.902,134.734,-0.997,0.224,11.43,3.085,1.6061547078083345,-60.0,272.138,1.923,23410.81,False,-1.3711564283066942,-1.1669509335773678,0.0,-0.051,-0.508,-9.914,-1.728,272.138,94.634,True,0,1,0,0
-0.245,-0.112,-0.266,compass,178.29,1.902,134.734,-0.997,0.224,11.43,3.085,1.6061547078083345,-60.0,272.138,1.923,23410.81,False,-1.3711564283066942,-1.1669509335773678,0.0,-0.051,-0.508,-9.914,-1.728,272.138,94.634,True,0,1,0,0
-0.285,-0.112,-0.267,compass,177.221,2.126,146.955,-1.031,0.112,11.0,2.986,1.430008156070134,-60.0,272.341,1.94,23411.01,False,-1.6373162726614496,-1.1721098707919193,0.0,-0.051,-0.508,-9.914,-1.698,272.341,97.273,True,0,1,0,0
-0.285,-0.112,-0.267,compass,177.221,2.126,146.955,-1.031,0.112,11.0,2.986,1.430008156070134,-60.0,272.341,1.94,23411.01,False,-1.6373162726614496,-1.1721098707919193,0.0,-0.051,-0.508,-9.914,-1.698,272.341,97.273,True,0,1,0,0
-0.296,-0.112,-0.268,compass,173.78,1.567,155.242,-1.065,-0.224,10.17,2.946,1.2474288674538179,-60.0,272.523,2.076,23411.211,False,-1.8927832866665626,-1.2490481051351747,0.0,-0.051,-0.469,-9.875,-1.945,272.523,97.612,True,0,1,0,0
-0.296,-0.112,-0.268,compass,173.78,1.567,155.242,-1.065,-0.224,10.17,2.946,1.2474288674538179,-60.0,272.523,2.076,23411.211,False,-1.8927832866665626,-1.2490481051351747,0.0,-0.051,-0.469,-9.875,-1.945,272.523,97.612,True,0,1,0,0
-0.287,0.336,-0.269,compass,174.439,1.567,158.298,-1.061,-0.112,9.02,2.866,1.050104880339965,-60.0,272.765,2.051,23411.411,False,-1.9116288657262848,-1.2269021165675063,0.0,-0.012,-0.469,-9.879,-2.306,272.765,95.638,True,0,1,0,0
-0.287,0.336,-0.269,compass,174.439,1.567,158.298,-1.061,-0.112,9.02,2.866,1.050104880339965,-60.0,272.765,2.051,23411.411,False,-1.9116288657262848,-1.2269021165675063,0.0,-0.012,-0.469,-9.879,-2.306,272.765,95.638,True,0,1,0,0
-0.297,0.112,-0.271,compass,178.412,1.679,165.412,-1.036,0.224,8.44,2.846,0.9704054269998055,-60.0,272.959,1.946,23411.611,False,-1.8867388471952635,-1.158822673211263,0.0,-0.051,-0.508,-9.875,-2.365,272.959,99.144,True,0,1,0,0
-0.297,0.112,-0.271,compass,178.412,1.679,165.412,-1.036,0.224,8.44,2.846,0.9704054269998055,-60.0,272.959,1.946,23411.611,False,-1.8867388471952635,-1.158822673211263,0.0,-0.051,-0.508,-9.875,-2.365,272.959,99.144,True,0,1,0,0
-0.291,0.112,-0.272,compass,-176.168,1.79,144.25,-1.007,0.448,8.44,2.926,1.4370047698933952,-60.0,273.183,1.806,23411.811,False,-1.4731764177719044,-1.0698076610577363,0.0,-0.051,-0.547,-9.879,-2.365,273.183,95.784,True,0,1,0,0
-0.291,0.112,-0.272,compass,-176.168,1.79,144.25,-1.007,0.448,8.44,2.926,1.4370047698933952,-60.0,273.183,1.806,23411.811,False,-1.4731764177719044,-1.0698076610577363,0.0,-0.051,-0.547,-9.879,-2.365,273.183,95.784,True,0,1,0,0
-0.286,0.224,-0.272,compass,-179.802,1.567,117.193,-0.995,0.112,8.61,3.065,2.0756619849142375,-60.0,273.282,1.818,23411.911,False,-0.8418043205672207,-1.0741816932667567,0.0,-0.051,-0.508,-9.875,-2.073,273.282,97.227,True,0,1,0,0
-0.266,0.224,-0.272,compass,-179.859,1.343,89.667,-0.979,0.112,8.61,3.065,2.6645880349874145,-60.0,273.386,1.818,23412.011,False,-0.0018378511002284227,-1.0715155920407058,0.0,-0.051,-0.508,-9.875,-2.073,273.386,97.227,True,0,1,0,0
-0.211,0.224,-0.269,compass,177.904,1.119,49.567,-0.943,-0.112,9.67,3.404,3.5513274178736367,-60.0,273.673,1.901,23412.211,False,1.222146939647618,-1.1130814795729125,0.0,-0.051,-0.508,-9.836,-1.35,273.673,95.397,True,0,1,0,0
-0.211,0.224,-0.269,compass,177.904,1.119,49.567,-0.943,-0.112,9.67,3.404,3.5513274178736367,-60.0,273.673,1.927,23412.211,False,1.222146939647618,-1.1130814795729125,0.0,-0.051,-0.508,-9.836,-1.35,273.673,92.213,True,0,1,0,0
-0.181,0.224,-0.264,compass,175.195,1.231,27.542,-0.92,-0.448,11.27,3.802,4.249648012585536,-60.0,273.901,1.927,23412.412,False,1.7015848962927722,-1.1216548444011343,0.0,-0.051,-0.508,-9.875,-0.669,273.901,92.213,True,0,1,0,0
-0.181,0.224,-0.264,compass,175.195,1.231,27.542,-0.92,-0.448,11.27,3.802,4.249648012585536,-60.0,273.901,1.874,23412.412,False,1.7015848962927722,-1.1216548444011343,0.0,-0.051,-0.508,-9.875,-0.669,273.901,93.924,True,0,1,0,0
-0.166,0.112,-0.258,compass,179.807,1.343,34.205,-0.922,0.112,11.27,4.299,4.588491947370667,-60.0,274.128,1.874,23412.612,False,1.542209582703578,-1.0850358580575898,0.0,-0.051,-0.547,-9.918,-0.669,274.128,93.924,True,0,1,0,0
-0.166,0.112,-0.258,compass,179.807,1.343,34.205,-0.922,0.112,11.27,4.299,4.588491947370667,-60.0,274.128,1.767,23412.612,False,1.542209582703578,-1.0850358580575898,0.0,-0.051,-0.547,-9.918,-0.669,274.128,96.867,True,0,1,0,0
-0.137,0.224,-0.251,compass,-178.632,1.343,19.181,-0.929,0.336,12.18,4.479,5.1342376047387885,-60.0,274.356,1.767,23412.812,False,1.6648038125077025,-1.0174094176434219,0.0,-0.051,-0.547,-9.918,-0.293,274.356,96.867,True,0,1,0,0
-0.137,0.224,-0.251,compass,-178.632,1.343,19.181,-0.929,0.336,12.18,4.479,5.1342376047387885,-60.0,274.356,1.927,23412.812,False,1.6648038125077025,-1.0174094176434219,0.0,-0.051,-0.547,-9.918,-0.293,274.356,102.011,True,0,1,0,0
-0.108,-0.112,-0.243,compass,177.488,1.455,22.081,-0.956,-0.224,14.14,4.499,5.4409980728528815,-60.0,274.582,1.927,23413.012,False,1.7800055124875742,-1.1029488951561515,0.0,-0.051,-0.547,-9.957,0.714,274.582,102.011,True,0,1,0,0
-0.108,-0.112,-0.243,compass,177.488,1.455,22.081,-0.956,-0.224,14.14,4.499,5.4409980728528815,-60.0,274.582,1.934,23413.012,False,1.7800055124875742,-1.1029488951561515,0.0,-0.051,-0.547,-9.957,0.714,274.582,101.005,True,0,1,0,0
-0.101,-0.112,-0.235,compass,176.727,1.567,19.706,-1.006,-0.336,15.83,4.499,5.749841802824445,-60.0,274.942,1.934,23413.212,False,1.8153784612872643,-1.0974136788310294,0.0,-0.012,-0.547,-9.914,1.206,274.942,101.005,True,0,1,0,0
-0.101,-0.112,-0.235,compass,176.727,1.567,19.706,-1.006,-0.336,15.83,4.499,5.749841802824445,-60.0,274.942,2.039,23413.212,False,1.8153784612872643,-1.0974136788310294,0.0,-0.012,-0.547,-9.914,1.206,274.942,100.229,True,0,1,0,0
-0.108,-0.112,-0.227,compass,173.649,1.455,35.728,-1.037,-0.783,15.83,4.459,5.464264652206037,-60.0,275.189,2.039,23413.412,False,1.6456753967535267,-1.1497267084841232,0.0,-0.051,-0.547,-9.879,1.206,275.189,100.229,True,0,1,0,0
-0.109,-0.224,-0.224,compass,177.508,1.79,47.533,-1.05,-0.224,15.83,4.459,5.17688885806031,-60.0,275.323,1.796,23413.412,False,1.2018757880309963,-1.1497267084841232,0.0,-0.051,-0.547,-9.84,1.206,275.323,97.861,True,0,1,0,0
-0.119,0.112,-0.22,compass,175.898,1.679,59.937,-1.053,-0.448,15.88,4.558,4.843521767839019,-60.0,275.446,1.796,23413.612,False,0.8872543588238827,-1.0060547579494223,0.0,-0.051,-0.547,-9.84,1.102,275.446,97.861,True,0,1,0,0
-0.12,0.0,-0.217,compass,179.0,1.567,72.441,-1.066,0.0,15.88,4.558,4.514830120782478,-60.0,275.57,1.878,23413.713,False,0.5522244475209914,-1.0484304380496214,0.0,-0.051,-0.508,-9.836,1.102,275.57,97.489,True,0,1,0,0
-0.124,0.224,-0.215,compass,177.406,1.567,84.563,-1.054,-0.224,15.77,4.558,4.1830902470816165,-60.0,275.689,1.878,23413.813,False,0.16323099782966796,-1.0451796466926508,0.0,-0.051,-0.508,-9.836,0.955,275.689,97.489,True,0,1,0,0
-0.129,0.112,-0.212,compass,-179.466,1.79,77.902,-1.043,0.224,15.77,4.558,4.439944240036297,-60.0,275.808,1.956,23413.913,False,0.39503449845056976,-1.0850821277602436,0.0,-0.051,-0.508,-9.836,0.955,275.808,95.781,True,0,1,0,0
-0.142,0.336,-0.21,compass,179.74,1.567,76.863,-1.014,0.112,15.92,4.638,4.479380675733749,-60.0,276.047,1.956,23414.013,False,0.4267471650407464,-1.078281420955712,0.0,-0.051,-0.547,-9.84,0.933,276.047,95.781,True,0,1,0,0
-0.152,0.336,-0.208,compass,179.74,1.902,80.425,-0.997,0.112,15.92,4.638,4.388501785652531,-60.0,276.172,1.734,23414.113,False,0.27311330505876996,-0.9529482300993695,0.0,-0.051,-0.586,-9.875,0.933,276.172,94.379,True,0,1,0,0
-0.161,0.224,-0.207,compass,166.922,1.455,85.85,-0.98,-0.112,15.92,4.598,4.252260615464115,-60.0,276.306,1.734,23414.213,False,0.11024545213179528,-0.9495516341770849,0.0,-0.051,-0.508,-9.875,0.933,276.306,94.379,True,0,1,0,0
-0.16,0.224,-0.205,compass,167.679,1.902,92.331,-0.963,0.0,16.71,4.598,4.058215433584097,-60.0,276.426,1.787,23414.313,False,-0.08781564419790513,-0.9751729731047581,0.0,-0.051,-0.586,-9.875,1.106,276.426,98.402,True,0,1,0,0
-0.165,0.112,-0.204,compass,164.084,1.567,99.181,-0.961,-0.56,16.71,4.518,3.8825632061058855,-60.0,276.549,1.787,23414.413,False,-0.2996918783650605,-0.9719339072124547,0.0,-0.012,-0.508,-9.918,1.106,276.549,98.402,True,0,1,0,0
-0.155,0.112,-0.203,compass,167.079,2.014,105.938,-0.955,-0.112,16.71,4.518,3.7037285731289273,-60.0,276.683,1.812,23414.513,False,-0.5119578811128626,-0.9821340148530633,0.0,-0.051,-0.508,-9.914,1.106,276.683,97.816,True,0,1,0,0
-0.155,0.112,-0.201,compass,164.739,1.79,112.269,-0.949,-0.448,18.01,4.399,3.530230589509517,-60.0,276.822,1.812,23414.613,False,-0.7006087015780142,-0.9784368018111729,0.0,-0.051,-0.547,-9.879,1.429,276.822,97.816,True,0,1,0,0
-0.16,-0.112,-0.2,compass,166.645,2.014,118.658,-0.958,-0.224,18.01,4.399,3.3986687376266214,-60.0,276.971,1.771,23414.713,False,-0.8625985786292871,-0.9525214444950411,0.0,-0.051,-0.547,-9.918,1.429,276.971,99.512,True,0,1,0,0
-0.171,-0.224,-0.199,compass,167.56,1.79,124.506,-0.971,-0.112,17.93,4.299,3.274283326080694,-60.0,277.109,1.771,23414.813,False,-1.0157002800463195,-0.9489046694149678,0.0,-0.051,-0.547,-9.918,1.246,277.109,99.512,True,0,1,0,0
-0.178,-0.224,-0.199,compass,169.88,1.902,129.761,-1.002,0.224,17.93,4.299,3.135574090994181,-60.0,277.381,1.89,23414.913,False,-1.2235468984680211,-1.0048635249073563,0.0,-0.09,-0.547,-9.914,1.246,277.381,100.325,True,0,1,0,0
-0.17,0.0,-0.198,compass,167.178,1.79,134.119,-1.026,-0.112,17.93,4.12,2.966295434494038,-60.0,277.514,1.89,23415.013,False,-1.3288061404453082,-1.001150028357153,0.0,-0.051,-0.547,-9.918,1.246,277.514,100.325,True,0,1,0,0
-0.171,0.0,-0.197,compass,170.502,1.79,138.125,-1.04,0.336,17.26,4.12,2.801898174826598,-60.0,277.648,1.961,23415.113,False,-1.4729708081033392,-1.0353682959214232,0.0,-0.051,-0.508,-9.914,0.9,277.648,101.022,True,0,1,0,0
-0.172,-0.112,-0.196,compass,169.021,1.79,141.647,-1.053,0.112,17.26,4.001,2.6624168287568586,-60.0,277.801,1.961,23415.213,False,-1.5497349306624748,-1.030915736069701,0.0,-0.051,-0.508,-9.875,0.9,277.801,101.022,True,0,1,0,0
-0.183,0.0,-0.196,compass,168.855,1.902,145.098,-1.067,0.112,16.48,4.001,2.610800847560545,-60.0,277.95,1.627,23415.313,False,-1.3432039231954054,-0.8515874899394702,0.0,-0.051,-0.469,-9.875,0.42,277.95,99.573,True,0,1,0,0
-0.198,0.112,-0.196,compass,166.045,1.343,147.68,-1.064,-0.224,16.48,3.881,2.5404639769947495,-60.0,278.094,1.627,23415.413,False,-1.3831153345795806,-0.8480894086385544,0.0,-0.09,-0.508,-9.879,0.42,278.094,99.573,True,0,1,0,0
-0.203,0.224,-0.196,compass,165.824,2.014,149.447,-1.063,-0.224,15.92,3.881,2.4315301449310525,-60.0,278.253,1.814,23415.513,False,-1.5705742568052443,-0.9410695533002834,0.0,-0.051,-0.508,-9.836,0.097,278.253,101.017,True,0,1,0,0
-0.212,0.112,-0.196,compass,165.127,1.79,150.75,-1.057,-0.336,15.92,3.822,2.3504811749011862,-60.0,278.417,1.814,23415.614,False,-1.5909379337063838,-0.936621581622462,0.0,-0.051,-0.547,-9.879,0.097,278.417,101.017,True,0,1,0,0
-0.217,0.336,-0.197,compass,166.478,1.679,151.55,-1.046,-0.112,15.92,3.822,2.1979473518497783,-60.0,278.576,2.061,23415.714,False,-1.8211891238853248,-1.0592145050727177,0.0,-0.051,-0.508,-9.836,0.097,278.576,103.538,True,0,1,0,0
-0.21,0.224,-0.197,compass,173.977,1.79,152.964,-1.02,-0.224,15.52,3.782,2.078251640009133,-60.0,278.909,2.061,23415.814,False,-1.846625522596453,-1.04892509442117,0.0,-0.051,-0.508,-9.836,-0.045,278.909,103.538,True,0,1,0,0
-0.204,0.224,-0.198,compass,177.768,1.902,155.563,-1.0,0.224,15.52,3.782,2.0123477086851547,-60.0,279.078,1.89,23415.914,False,-1.7293345957671613,-0.957046235333726,0.0,-0.051,-0.508,-9.875,-0.045,279.078,104.434,True,0,1,0,0
-0.193,0.224,-0.198,compass,175.869,1.79,158.168,-0.986,0.0,16.71,3.822,1.969892726412108,-60.0,279.252,1.89,23416.014,False,-1.7620169061893394,-0.9520940669785347,0.0,-0.012,-0.508,-9.879,0.553,279.252,104.434,True,0,1,0,0
-0.177,0.0,-0.197,compass,179.645,1.79,160.377,-0.977,0.448,16.71,3.822,1.9688318711532546,-60.0,279.426,1.862,23416.114,False,-1.7611712564568813,-0.9334969813353278,0.0,-0.012,-0.508,-9.84,0.553,279.426,101.281,True,0,1,0,0
-0.177,0.112,-0.196,compass,177.704,1.679,162.552,-0.972,0.224,16.71,4.001,1.9936003449696975,-60.0,279.599,1.862,23416.214,False,-1.7828153216899507,-0.9286009864907718,0.0,-0.012,-0.508,-9.879,0.553,279.599,101.281,True,0,1,0,0
-0.167,0.0,-0.195,compass,-178.775,2.014,142.11,-0.967,0.671,17.93,4.001,2.445432742002124,-60.0,279.783,1.87,23416.314,False,-1.48872099810836,-0.9272786547579213,0.0,-0.012,-0.547,-9.875,0.906,279.783,105.087,True,0,1,0,0
-0.161,-0.112,-0.194,compass,176.894,1.679,130.093,-0.958,0.112,17.93,4.1,2.705939686811758,-60.0,279.962,1.87,23416.414,False,-1.2203930950133344,-0.9221914675767993,0.0,-0.051,-0.547,-9.918,0.906,279.962,105.087,True,0,1,0,0
-0.15,-0.112,-0.193,compass,178.568,2.014,124.209,-0.954,0.336,17.93,4.1,2.823207674913239,-60.0,280.146,1.831,23416.514,False,-1.0465367790453513,-0.8979091723409773,0.0,-0.051,-0.547,-9.918,0.906,280.146,103.472,True,0,1,0,0
-0.141,-0.112,-0.192,compass,176.865,1.902,122.731,-0.959,0.112,18.83,4.24,2.876349970429888,-60.0,280.329,1.831,23416.614,False,-1.0074560887966344,-0.8927971108929644,0.0,-0.051,-0.547,-9.879,1.115,280.329,103.472,True,0,1,0,0
-0.103,-0.224,-0.189,compass,174.523,1.79,123.888,-0.982,-0.224,18.83,4.24,2.8816772174811343,-60.0,280.661,1.876,23416.714,False,-1.0666280544679745,-0.9050867180779958,0.0,-0.051,-0.547,-9.879,1.115,280.661,103.933,True,0,1,0,0
-0.08,-0.224,-0.186,compass,178.517,2.238,126.994,-1.004,0.336,18.77,4.22,2.843897150539145,-60.0,280.834,1.876,23416.814,False,-1.147818027619059,-0.9001250614449454,0.0,-0.051,-0.547,-9.918,0.973,280.834,103.933,True,0,1,0,0
-0.067,-0.112,-0.182,compass,176.869,2.126,131.607,-1.024,0.112,18.77,4.22,2.8256972536836593,-60.0,280.988,1.65,23416.914,False,-1.1107034446608377,-0.7880452828389748,0.0,-0.051,-0.547,-9.918,0.973,280.988,103.711,True,0,1,0,0
-0.049,0.0,-0.178,compass,177.633,2.014,136.57,-1.04,0.224,18.77,4.26,2.795201493878719,-60.0,281.141,1.65,23417.014,False,-1.2115270145039159,-0.7841605534941573,0.0,-0.051,-0.586,-9.875,0.973,281.141,103.711,True,0,1,0,0
-0.04,0.0,-0.174,compass,178.451,2.126,141.731,-1.045,0.336,17.17,4.26,2.6993279235140344,-60.0,281.29,1.925,23417.114,False,-1.523994669468314,-0.9099743444222633,0.0,-0.051,-0.586,-9.914,0.348,281.29,107.111,True,0,1,0,0
-0.031,-0.112,-0.17,compass,175.254,2.014,146.537,-1.06,-0.112,17.17,4.26,2.63786487659096,-60.0,281.429,1.925,23417.214,False,-1.6165460565272576,-0.9058782993437879,0.0,-0.051,-0.586,-9.914,0.348,281.429,107.111,True,0,1,0,0
-0.032,0.0,-0.165,compass,177.633,2.35,151.6,-1.063,0.224,17.17,4.26,2.598307891153917,-60.0,281.563,1.796,23417.314,False,-1.5885184576314653,-0.8417692426179246,0.0,-0.051,-0.547,-9.879,0.348,281.563,110.057,True,0,1,0,0
-0.037,0.0,-0.162,compass,172.727,1.902,155.724,-1.071,-0.448,14.83,4.22,2.565355483658097,-60.0,281.697,1.796,23417.415,False,-1.6444423531258294,-0.8380483897822723,0.0,-0.051,-0.547,-9.879,-0.474,281.697,110.057,True,0,1,0,0
-0.047,0.224,-0.158,compass,170.019,1.79,158.448,-1.067,-0.783,14.83,4.22,2.5023580402686836,-60.0,281.941,1.878,23417.515,False,-1.7539730664409072,-0.8690614364406187,0.0,-0.051,-0.508,-9.875,-0.474,281.941,108.092,True,0,1,0,0
-0.062,0.0,-0.155,compass,-175.608,2.014,138.907,-1.064,-0.224,12.97,4.319,2.913813507480854,-60.0,282.076,1.878,23417.615,False,-1.427870665994478,-0.8651451593931629,0.0,-0.051,-0.547,-9.84,-1.32,282.076,108.092,True,0,1,0,0
-0.081,0.112,-0.153,compass,-179.644,2.014,113.268,-1.055,-0.783,12.97,4.319,3.5573224592733466,-60.0,282.176,1.909,23417.715,False,-0.7705453222584752,-0.8765165562883447,0.0,-0.051,-0.547,-9.84,-1.32,282.176,107.181,True,0,1,0,0
-0.104,0.224,-0.152,compass,-174.653,2.126,86.259,-1.041,-0.112,12.97,4.319,4.114896644249013,-60.0,282.306,1.909,23417.815,False,0.10723625235678301,-0.8726756187359652,0.0,-0.051,-0.547,-9.879,-1.32,282.306,107.181,True,0,1,0,0
-0.133,0.112,-0.151,compass,-177.182,1.902,59.38,-1.032,-0.448,12.0,4.319,4.453220661393049,-60.0,282.441,1.75,23417.915,False,0.8776744211708974,-0.7961333562482904,0.0,-0.051,-0.547,-9.84,-1.511,282.441,107.877,True,0,1,0,0
-0.152,0.224,-0.151,compass,-176.378,1.902,33.866,-1.024,-0.336,12.0,4.2,4.555927505783091,-60.0,282.585,1.75,23418.015,False,1.443996278603749,-0.792195045366743,0.0,-0.051,-0.508,-9.836,-1.511,282.585,107.877,True,0,1,0,0
-0.181,0.224,-0.152,compass,-174.672,1.902,10.064,-1.014,-0.112,11.87,4.2,4.508069157689859,-60.0,282.73,1.736,23418.115,False,1.7064999569768093,-0.7821161704569726,0.0,-0.051,-0.508,-9.836,-1.425,282.73,107.462,True,0,1,0,0
-0.204,0.224,-0.154,compass,-174.675,1.79,-11.841,-1.001,-0.112,11.87,4.18,4.356431240439344,-60.0,282.885,1.736,23418.215,False,0.6547162557262666,-0.7779269816607943,0.0,-0.012,-0.508,-9.879,-1.425,282.885,107.462,True,0,1,0,0
-0.223,0.112,-0.156,compass,-172.238,1.79,-31.97,-0.993,0.224,11.83,4.18,4.169622177214615,-60.0,283.03,1.707,23418.316,False,-0.5688831930125846,-0.76100326131192,0.0,-0.012,-0.469,-9.879,-1.302,283.03,107.343,True,0,1,0,0
-0.247,0.112,-0.158,compass,177.11,1.79,-34.743,-0.988,-0.112,11.83,4.1,4.393640870657258,-60.0,283.165,1.707,23418.416,False,0.4216326165518374,-0.7574049834856442,0.0,-0.051,-0.508,-9.875,-1.302,283.165,107.343,True,0,1,0,0
-0.295,0.112,-0.162,compass,175.393,1.455,-28.717,-0.97,-0.336,11.83,4.1,4.715122705676585,-60.0,283.45,1.808,23418.516,False,0.9671102392835674,-0.794186318544526,0.0,-0.051,-0.469,-9.875,-1.302,283.45,107.968,True,0,1,0,0
-0.301,0.0,-0.167,compass,176.281,1.79,-17.781,-0.978,-0.224,11.43,4.041,4.910984071337605,-60.0,283.6,1.808,23418.616,False,1.1688762271439481,-0.7899430551040278,0.0,-0.051,-0.508,-9.914,-1.309,283.6,107.968,True,0,1,0,0
-0.307,-0.224,-0.171,compass,176.389,1.567,-3.695,-0.986,-0.224,11.43,4.041,4.932999491078372,-60.0,283.738,1.627,23418.716,False,1.065980605534033,-0.7074060865391262,0.0,-0.051,-0.508,-9.875,-1.309,283.738,107.923,True,0,1,0,0
-0.307,0.0,-0.175,compass,178.0,1.679,11.623,-0.99,0.0,11.43,3.921,4.7647706977715245,-60.0,283.883,1.627,23418.816,False,0.9815328153627385,-0.703687520597919,0.0,-0.051,-0.508,-9.875,-1.309,283.883,107.923,True,0,1,0,0
-0.308,0.0,-0.179,compass,178.0,1.455,27.156,-1.003,0.0,9.27,3.921,4.526531628259879,-60.0,284.027,1.742,23418.916,False,0.8849105720363892,-0.7493436503019996,0.0,-0.051,-0.469,-9.875,-1.896,284.027,106.376,True,0,1,0,0
-0.299,-0.112,-0.182,compass,178.032,1.79,42.494,-1.008,0.0,9.27,3.742,4.216541266627668,-60.0,284.181,1.742,23419.016,False,0.6575816359742338,-0.7451213848642217,0.0,-0.051,-0.469,-9.914,-1.896,284.181,106.376,True,0,1,0,0
-0.289,-0.112,-0.186,compass,179.863,1.567,58.11,-1.013,0.224,7.95,3.742,3.9085858241201126,-60.0,284.326,1.617,23419.116,False,0.3368302048137546,-0.688192295237054,0.0,-0.051,-0.469,-9.875,-2.37,284.326,106.183,True,0,1,0,0
-0.29,0.112,-0.189,compass,178.987,1.567,72.236,-1.017,0.112,7.95,3.463,3.5374301041825436,-60.0,284.47,1.617,23419.216,False,0.0606959195074369,-0.6845085549724358,0.0,-0.051,-0.469,-9.875,-2.37,284.47,106.183,True,0,1,0,0
-0.281,0.112,-0.192,compass,177.965,1.455,84.809,-1.022,0.0,8.01,3.463,3.1831673842658854,-60.0,284.62,1.802,23419.316,False,-0.22289282454010548,-0.7584059398682358,0.0,-0.051,-0.547,-9.918,-2.103,284.62,106.966,True,0,1,0,0
-0.275,0.224,-0.194,compass,-171.624,1.455,77.983,-1.015,0.224,8.01,3.324,3.3331472113669443,-60.0,284.904,1.802,23419.416,False,0.0692616637399263,-0.7502884602938884,0.0,-0.051,-0.508,-9.875,-2.103,284.904,106.966,True,0,1,0,0
-0.238,0.112,-0.196,compass,-174.952,1.455,64.163,-1.002,-0.112,7.95,3.344,3.709334376275028,-60.0,285.044,1.917,23419.516,False,0.5946118057250074,-0.7937897810967881,0.0,-0.051,-0.547,-9.879,-1.923,285.044,106.838,True,0,1,0,0
-0.238,0.112,-0.197,compass,-171.792,1.679,47.374,-1.002,0.224,7.95,3.344,4.0294790509046035,-60.0,285.174,1.917,23419.616,False,1.1392633725935906,-0.7898257969775181,0.0,-0.051,-0.547,-9.879,-1.923,285.174,106.838,True,0,1,0,0
-0.196,0.336,-0.198,compass,-174.715,1.567,29.344,-0.995,-0.112,7.95,3.503,4.162962233267138,-60.0,285.314,1.753,23419.717,False,1.449285525495309,-0.7186396262439119,0.0,-0.051,-0.586,-9.914,-1.923,285.448,106.422,True,0,1,0,0
-0.196,0.336,-0.198,compass,-174.715,1.567,11.071,-0.995,-0.112,7.93,3.503,4.142248530170663,-60.0,285.448,1.753,23419.817,False,1.693674229165083,-0.7148934758645251,0.0,-0.051,-0.586,-9.914,-1.737,285.448,106.422,True,0,1,0,0
-0.166,0.224,-0.196,compass,-172.779,1.343,-23.566,-0.996,0.112,7.93,3.543,3.8370428252859172,-60.0,285.727,1.816,23420.017,False,0.9570668178436398,-0.7321628822208455,0.0,-0.051,-0.547,-9.918,-1.563,285.727,106.863,True,0,1,0,0
-0.166,0.224,-0.196,compass,-172.779,1.343,-23.566,-0.996,0.112,7.93,3.543,3.8370428252859172,-60.0,285.727,1.816,23420.017,False,0.9570668178436398,-0.7321628822208455,0.0,-0.051,-0.547,-9.918,-1.563,285.727,106.863,True,0,1,0,0
-0.131,0.112,-0.192,compass,-174.907,1.343,-54.675,-0.994,-0.112,7.93,3.483,3.370378901853779,-60.0,286.022,1.818,23420.217,False,-1.3119480961117527,-0.7243798042847465,0.0,-0.012,-0.508,-9.879,-1.563,286.022,108.117,True,0,1,0,0
-0.131,0.112,-0.192,compass,-174.907,1.343,-54.675,-0.994,-0.112,7.93,3.483,3.370378901853779,-60.0,286.022,1.818,23420.217,False,-1.3119480961117527,-0.7243798042847465,0.0,-0.012,-0.508,-9.879,-1.563,286.022,108.117,True,0,1,0,0
-0.114,0.0,-0.188,compass,-177.277,0.895,-82.398,-0.983,-0.336,7.93,3.185,2.8510052905044603,-60.0,286.442,1.711,23420.417,False,-1.704103672443422,-0.670253792566436,0.0,-0.012,-0.547,-9.875,-1.407,286.442,106.989,True,0,1,0,0
-0.114,0.0,-0.188,compass,-177.277,0.895,-82.398,-0.983,-0.336,7.93,3.185,2.8510052905044603,-60.0,286.442,1.711,23420.417,False,-1.704103672443422,-0.670253792566436,0.0,-0.012,-0.547,-9.875,-1.407,286.442,106.989,True,0,1,0,0
-0.117,-0.112,-0.183,compass,-170.778,1.231,-106.192,-0.975,0.336,7.95,3.026,2.461852816011168,-60.0,286.722,1.485,23420.617,False,-1.4552077990313361,-0.5752142666148319,0.0,-0.012,-0.508,-9.879,-1.26,286.722,107.257,True,0,1,0,0
-0.117,-0.112,-0.183,compass,-170.778,1.231,-106.192,-0.975,0.336,7.95,3.026,2.461852816011168,-60.0,286.722,1.485,23420.617,False,-1.4552077990313361,-0.5752142666148319,0.0,-0.012,-0.508,-9.879,-1.26,286.722,107.257,True,0,1,0,0
-0.137,-0.112,-0.18,compass,-171.801,1.119,-122.764,-0.978,0.224,7.95,2.906,1.9952868890389235,-60.0,286.957,1.87,23420.817,False,-1.7628284458957375,-0.717201274350984,0.0,-0.051,-0.508,-9.875,-1.26,286.957,103.46,True,0,1,0,0
-0.137,-0.112,-0.18,compass,-171.801,1.119,-122.764,-0.978,0.224,7.95,2.906,1.9952868890389235,-60.0,286.957,1.87,23420.817,False,-1.7628284458957375,-0.717201274350984,0.0,-0.051,-0.508,-9.875,-1.26,286.957,103.46,True,0,1,0,0
-0.173,0.0,-0.179,compass,-171.581,1.231,-136.09,-0.983,0.224,7.93,2.846,1.7546052714390619,-60.0,287.152,1.553,23421.017,False,-1.4492942886047846,-0.590797198313875,0.0,-0.09,-0.508,-9.84,-1.14,287.152,106.767,True,0,1,0,0
-0.173,0.0,-0.179,compass,-171.581,1.231,-136.09,-0.983,0.224,7.93,2.846,1.7546052714390619,-60.0,287.152,1.553,23421.017,False,-1.4492942886047846,-0.590797198313875,0.0,-0.09,-0.508,-9.84,-1.14,287.152,106.767,True,0,1,0,0
-0.225,0.224,-0.181,compass,-161.75,1.007,-142.703,-1.001,-0.56,8.82,3.026,1.5566024239615195,-60.0,287.378,1.689,23421.217,False,-1.5484181989324015,-0.6363996228251676,0.0,-0.051,-0.508,-9.875,-0.732,287.378,107.648,True,0,1,0,0
-0.225,0.224,-0.181,compass,-161.75,1.007,-142.703,-1.001,-0.56,8.82,3.026,1.5566024239615195,-60.0,287.378,1.689,23421.217,False,-1.5484181989324015,-0.6363996228251676,0.0,-0.051,-0.508,-9.875,-0.732,287.378,107.648,True,0,1,0,0
-0.245,0.0,-0.184,compass,-163.55,1.119,-144.638,-1.002,-0.671,8.82,3.065,1.5028220808745134,-60.0,287.523,1.666,23421.417,False,-1.483003653066877,-0.62368127993843,0.0,-0.051,-0.547,-9.879,-0.732,287.523,107.281,True,0,1,0,0
-0.245,0.0,-0.184,compass,-163.55,1.119,-144.638,-1.002,-0.671,8.82,3.065,1.5028220808745134,-60.0,287.523,1.666,23421.417,False,-1.483003653066877,-0.62368127993843,0.0,-0.051,-0.547,-9.879,-0.732,287.523,107.281,True,0,1,0,0
-0.253,0.0,-0.188,compass,-163.685,1.119,-145.497,-1.02,-0.671,11.79,3.006,1.497500055891081,-60.0,287.698,1.596,23421.617,False,-1.3877255774255162,-0.5929709275317495,0.0,-0.051,-0.508,-9.875,0.345,287.698,107.412,True,0,1,0,0
-0.253,0.0,-0.188,compass,-163.685,1.119,-145.497,-1.02,-0.671,11.79,3.006,1.497500055891081,-60.0,287.698,1.596,23421.617,False,-1.3877255774255162,-0.5929709275317495,0.0,-0.051,-0.508,-9.875,0.345,287.698,107.412,True,0,1,0,0
-0.257,0.0,-0.192,compass,-160.252,1.119,-143.536,-1.019,-0.336,15.75,3.026,1.4813736051724875,-60.0,287.883,1.656,23421.818,False,-1.3794166190177224,-0.6103988186139017,0.0,-0.051,-0.547,-9.918,1.625,287.883,108.895,True,0,1,0,0
-0.257,0.0,-0.192,compass,-160.252,1.119,-143.536,-1.019,-0.336,15.75,3.026,1.4813736051724875,-60.0,287.883,1.656,23421.818,False,-1.3794166190177224,-0.6103988186139017,0.0,-0.051,-0.547,-9.918,1.625,287.883,108.895,True,0,1,0,0
-0.268,0.112,-0.196,compass,-159.513,1.455,-141.262,-1.023,0.112,18.33,3.006,1.4851064268139598,-60.0,288.073,1.717,23422.018,False,-1.368492247913928,-0.6273021518907573,0.0,-0.051,-0.547,-9.918,2.728,288.073,108.894,True,0,1,0,0
-0.268,0.112,-0.196,compass,-159.513,1.455,-141.262,-1.023,0.112,18.33,3.006,1.4851064268139598,-60.0,288.073,1.717,23422.018,False,-1.368492247913928,-0.6273021518907573,0.0,-0.051,-0.547,-9.918,2.728,288.073,108.894,True,0,1,0,0
-0.269,0.224,-0.2,compass,-160.213,1.343,-139.116,-1.005,0.0,18.75,2.986,1.4978938770418913,-60.0,288.365,1.67,23422.218,False,-1.2772914164089713,-0.6023324722620977,0.0,-0.051,-0.547,-9.879,2.67,288.365,110.204,True,0,1,0,0
-0.269,0.224,-0.2,compass,-160.213,1.343,-139.116,-1.005,0.0,18.75,2.986,1.4978938770418913,-60.0,288.365,1.67,23422.218,False,-1.2772914164089713,-0.6023324722620977,0.0,-0.051,-0.547,-9.879,2.67,288.365,110.204,True,0,1,0,0
-0.261,0.224,-0.204,compass,-163.613,1.343,-137.36,-0.986,-0.336,18.75,3.085,1.4923837766509922,-60.0,288.565,1.715,23422.418,False,-1.268083859883163,-0.612861987893337,0.0,-0.051,-0.508,-9.875,2.67,288.565,111.378,True,0,1,0,0
-0.261,0.224,-0.204,compass,-163.613,1.343,-137.36,-0.986,-0.336,18.75,3.085,1.4923837766509922,-60.0,288.565,1.715,23422.418,False,-1.268083859883163,-0.612861987893337,0.0,-0.051,-0.508,-9.875,2.67,288.565,111.378,True,0,1,0,0
-0.248,0.336,-0.207,compass,-162.11,0.895,-136.208,-0.974,-0.224,21.63,3.085,1.4480783672033382,-60.0,288.771,1.808,23422.618,False,-1.306426143176314,-0.6401429199901315,0.0,-0.051,-0.508,-9.836,3.359,288.771,110.414,True,0,1,0,0
-0.248,0.336,-0.207,compass,-162.11,0.895,-136.208,-0.974,-0.224,21.63,3.085,1.4480783672033382,-60.0,288.771,1.808,23422.618,False,-1.306426143176314,-0.6401429199901315,0.0,-0.051,-0.508,-9.836,3.359,288.771,110.414,True,0,1,0,0
-0.23,0.224,-0.208,compass,-158.195,1.231,-136.925,-0.958,0.224,22.97,3.225,1.5285970290781161,-60.0,289.002,1.701,23422.818,False,-1.2400352315770498,-0.5958628885293535,0.0,-0.051,-0.508,-9.875,3.696,289.002,112.084,True,0,1,0,0
-0.23,0.224,-0.208,compass,-158.195,1.231,-136.925,-0.958,0.224,22.97,3.225,1.5285970290781161,-60.0,289.002,1.701,23422.818,False,-1.2400352315770498,-0.5958628885293535,0.0,-0.051,-0.508,-9.875,3.696,289.002,112.084,True,0,1,0,0
-0.187,0.112,-0.208,compass,-157.774,1.455,-137.203,-0.944,0.336,23.33,3.404,1.6474841717787854,-60.0,289.348,1.773,23423.018,False,-1.2941098249543954,-0.6110379710832684,0.0,-0.051,-0.508,-9.875,3.445,289.348,111.728,True,0,1,0,0
-0.187,0.112,-0.208,compass,-157.774,1.455,-137.203,-0.944,0.336,23.33,3.404,1.6474841717787854,-60.0,289.348,1.773,23423.018,False,-1.2941098249543954,-0.6110379710832684,0.0,-0.051,-0.508,-9.875,3.445,289.348,111.728,True,0,1,0,0
-0.158,-0.112,-0.206,compass,-156.824,1.455,-138.05,-0.956,0.56,23.33,3.503,1.8840808719007156,-60.0,289.603,1.674,23423.218,False,-1.23751597124191,-0.5698563748299181,0.0,-0.051,-0.508,-9.875,3.445,289.603,114.487,True,0,1,0,0
-0.158,-0.112,-0.206,compass,-156.824,1.455,-138.05,-0.956,0.56,23.33,3.503,1.8840808719007156,-60.0,289.603,1.674,23423.218,False,-1.23751597124191,-0.5698563748299181,0.0,-0.051,-0.508,-9.875,3.445,289.603,114.487,True,0,1,0,0
-0.126,-0.112,-0.201,compass,-162.16,1.455,-139.336,-0.973,-0.112,25.57,3.782,2.0639876409075923,-60.0,289.864,1.658,23423.418,False,-1.2500991372843329,-0.5574536979235812,0.0,-0.051,-0.547,-9.918,3.854,289.864,113.94,True,0,1,0,0
-0.114,-0.336,-0.199,compass,-163.55,1.79,-140.906,-0.995,-0.224,25.57,3.782,2.150137224600832,-60.0,290.009,1.641,23423.519,False,-1.2655604674345349,-0.5476635819514093,0.0,-0.051,-0.586,-9.914,3.854,290.009,111.042,True,0,1,0,0
-0.102,-0.112,-0.196,compass,-163.001,1.79,-142.288,-1.015,-0.224,26.16,3.842,2.202591359320215,-60.0,290.144,1.641,23423.619,False,-1.2901937546419198,-0.5440148520914909,0.0,-0.051,-0.586,-9.914,3.662,290.144,111.042,True,0,1,0,0
-0.081,-0.112,-0.192,compass,-162.143,1.902,-142.415,-1.038,-0.112,26.16,3.842,2.236645732870351,-60.0,290.294,1.8,23423.719,False,-1.417617000627074,-0.5924097186562091,0.0,-0.051,-0.547,-9.918,3.662,290.294,115.623,True,0,1,0,0
-0.081,-0.112,-0.192,compass,-162.143,1.902,-142.415,-1.038,-0.112,26.16,3.802,2.236645732870351,-60.0,290.294,1.8,23423.719,False,-1.417617000627074,-0.5924097186562091,0.0,-0.051,-0.547,-9.918,3.662,290.294,115.623,True,0,1,0,0
-0.038,-0.224,-0.188,compass,-161.582,1.902,-142.647,-1.085,0.0,26.16,3.802,2.2690699077859335,-60.0,290.593,1.792,23423.819,False,-1.4195585568315463,-0.5835307765995609,0.0,-0.051,-0.547,-9.918,3.662,290.593,113.029,True,0,1,0,0
-0.025,-0.224,-0.178,compass,-161.594,1.902,-143.548,-1.127,0.0,28.37,3.722,2.2810603337865647,-60.0,290.93,1.792,23424.019,False,-1.4305487055462665,-0.571048420681966,0.0,-0.051,-0.586,-9.914,4.024,290.93,113.029,True,0,1,0,0
-0.022,-0.112,-0.174,compass,-157.889,2.462,-144.22,-1.137,0.448,28.37,3.722,2.3142218374633643,-60.0,291.116,1.614,23424.119,False,-1.298880298263541,-0.5091010033751966,0.0,-0.051,-0.547,-9.879,4.024,291.116,112.804,True,0,1,0,0
-0.019,-0.112,-0.169,compass,-160.417,2.014,-144.514,-1.148,0.112,28.41,3.603,2.3002619616675664,-60.0,291.292,1.614,23424.219,False,-1.3037193298293106,-0.5043891404274755,0.0,-0.051,-0.586,-9.914,3.634,291.292,112.804,True,0,1,0,0
-0.014,0.0,-0.164,compass,-159.197,2.126,-144.89,-1.149,0.224,28.41,3.603,2.2948847144565607,-60.0,291.472,1.538,23424.32,False,-1.2482924069766552,-0.47608717737061057,0.0,-0.051,-0.547,-9.879,3.634,291.472,112.592,True,0,1,0,0
-0.018,0.112,-0.16,compass,-165.439,1.902,-145.34,-1.148,-0.56,28.35,3.603,2.246363704738629,-60.0,291.634,1.538,23424.42,False,-1.2554676554964337,-0.4719718995781088,0.0,-0.09,-0.586,-9.879,3.24,291.634,112.592,True,0,1,0,0
-0.027,-0.112,-0.156,compass,-163.133,2.686,-145.027,-1.141,-0.224,28.35,3.603,2.230812621041431,-60.0,291.795,1.689,23424.52,False,-1.3740579823543808,-0.5139813369152235,0.0,-0.051,-0.547,-9.879,3.24,291.795,116.746,True,0,1,0,0
-0.033,0.224,-0.152,compass,-167.216,1.902,-144.694,-1.124,-0.783,28.35,3.583,2.155756290479645,-60.0,291.957,1.689,23424.62,False,-1.3684155186381546,-0.5094392855105283,0.0,-0.051,-0.547,-9.879,3.24,291.957,116.746,True,0,1,0,0
-0.04,0.336,-0.149,compass,-166.982,1.902,-144.632,-1.107,-0.783,27.29,3.583,2.068854005545238,-60.0,292.118,1.732,23424.72,False,-1.4020454060790744,-0.5176754337993605,0.0,-0.09,-0.547,-9.836,2.557,292.118,115.7,True,0,1,0,0
-0.058,0.336,-0.146,compass,-174.679,2.35,-145.98,-1.051,-0.112,27.29,3.682,2.033697345856974,-60.0,292.403,1.732,23424.82,False,-1.4239859539562063,-0.5094432509402006,0.0,-0.051,-0.547,-9.879,2.557,292.403,115.7,True,0,1,0,0
-0.076,0.336,-0.144,compass,-176.667,2.014,-147.639,-1.016,-0.336,24.79,3.682,1.9814938350794313,-60.0,292.54,1.812,23424.92,False,-1.5195089083782507,-0.528741460827654,0.0,-0.051,-0.547,-9.879,1.039,292.54,115.911,True,0,1,0,0
-0.094,0.448,-0.143,compass,-174.572,2.014,-149.562,-0.981,-0.112,24.79,3.762,1.9419460392688772,-60.0,292.677,1.812,23425.02,False,-1.5523110783295189,-0.5245947214977674,0.0,-0.051,-0.547,-9.879,1.039,292.677,115.911,True,0,1,0,0
-0.108,0.336,-0.142,compass,-171.772,2.126,-151.449,-0.951,0.224,24.79,3.762,1.9463899004314065,-60.0,292.805,1.728,23425.12,False,-1.5097330291697795,-0.49671966576410737,0.0,-0.051,-0.547,-9.84,1.039,292.805,116.874,True,0,1,0,0
-0.128,0.448,-0.141,compass,-174.565,1.902,-153.265,-0.925,-0.112,21.73,3.802,1.9377280540137813,-60.0,292.941,1.728,23425.22,False,-1.535887774022537,-0.49276620836295165,0.0,-0.012,-0.508,-9.879,-0.082,292.941,116.874,True,0,1,0,0
-0.147,0.336,-0.141,compass,-173.699,2.126,-154.711,-0.9,0.0,21.73,3.802,1.9476531832664958,-60.0,293.068,1.73,23425.32,False,-1.5574387281813322,-0.48964079570384633,0.0,-0.012,-0.508,-9.879,-0.082,293.068,118.522,True,0,1,0,0
-0.163,0.448,-0.142,compass,-177.462,1.902,-156.307,-0.879,-0.448,21.73,3.842,1.9431019404211112,-60.0,293.186,1.73,23425.42,False,-1.5781329250130836,-0.48624568060533385,0.0,-0.012,-0.508,-9.879,-0.082,293.186,118.522,True,0,1,0,0
-0.18,0.112,-0.143,compass,-174.821,2.238,-158.047,-0.869,-0.112,21.31,3.842,1.9925442938889455,-60.0,293.306,1.672,23425.52,False,-1.5452356312700863,-0.4664714243205705,0.0,-0.051,-0.508,-9.875,-0.214,293.306,118.671,True,0,1,0,0
-0.208,0.224,-0.145,compass,-174.757,1.902,-159.378,-0.856,-0.112,21.31,3.742,1.9954603184857904,-60.0,293.414,1.672,23425.62,False,-1.5598930639928048,-0.4634596493957432,0.0,-0.051,-0.508,-9.875,-0.214,293.414,118.671,True,0,1,0,0
-0.249,0.112,-0.148,compass,-176.734,1.902,-160.419,-0.863,-0.336,21.33,3.742,1.9946637961195999,-60.0,293.626,1.744,23425.72,False,-1.6374710766261609,-0.47720057558430873,0.0,-0.051,-0.508,-9.914,-0.183,293.626,119.741,True,0,1,0,0
-0.257,0.112,-0.151,compass,-174.872,2.014,-161.164,-0.879,-0.112,21.33,3.623,1.9696056148159253,-60.0,293.732,1.744,23425.82,False,-1.6454596544011633,-0.4740836689648329,0.0,-0.051,-0.508,-9.914,-0.183,293.732,119.741,True,0,1,0,0
-0.271,-0.224,-0.155,compass,-175.121,1.902,-162.275,-0.9,-0.112,21.33,3.623,1.9973137900887488,-60.0,293.858,1.693,23425.92,False,-1.6084273771505326,-0.45676351719483427,0.0,-0.012,-0.508,-9.918,-0.183,293.858,118.908,True,0,1,0,0
-0.267,-0.224,-0.158,compass,-174.206,1.79,-162.938,-0.934,0.0,23.54,3.424,1.9768551848613485,-60.0,293.974,1.693,23426.021,False,-1.614592228802937,-0.4534750322386532,0.0,-0.051,-0.508,-9.914,0.578,293.974,118.908,True,0,1,0,0
-0.272,-0.112,-0.162,compass,-172.126,1.902,-163.074,-0.956,0.224,23.54,3.424,1.9563949438886192,-60.0,294.099,1.682,23426.121,False,-1.604712207542859,-0.44679833986750855,0.0,-0.051,-0.508,-9.914,0.578,294.099,119.82,True,0,1,0,0
-0.263,-0.112,-0.165,compass,-171.11,1.902,-162.912,-0.987,0.336,26.19,3.384,1.934992291879749,-60.0,294.24,1.682,23426.221,False,-1.603208585223807,-0.4428147607261084,0.0,-0.051,-0.508,-9.875,1.844,294.24,119.82,True,0,1,0,0
-0.263,-0.448,-0.168,compass,-173.449,2.462,-162.75,-1.017,0.112,26.19,3.384,1.9261376324895338,-60.0,294.402,1.812,23426.321,False,-1.7256155132963418,-0.47215890946598127,0.0,-0.051,-0.547,-9.918,1.844,294.402,119.515,True,0,1,0,0
-0.251,-0.224,-0.17,compass,-153.021,2.014,-160.569,-1.054,0.112,27.14,3.344,1.9005877221392473,-60.0,294.552,1.812,23426.421,False,-1.703263323825085,-0.4675717605426844,0.0,-0.051,-0.508,-9.914,2.132,294.552,119.515,True,0,1,0,0
-0.236,-0.112,-0.172,compass,-156.283,2.126,-158.294,-1.082,-0.336,27.14,3.344,1.8936606505124067,-60.0,294.734,1.608,23426.521,False,-1.4880876031238357,-0.4099724703725144,0.0,-0.051,-0.508,-9.914,2.132,294.734,119.448,True,0,1,0,0
-0.215,-0.448,-0.173,compass,-153.901,2.238,-156.047,-1.127,0.112,27.14,3.344,1.9532303945337006,-60.0,295.107,1.608,23426.621,False,-1.4610632649844906,-0.3998422871489235,0.0,-0.09,-0.547,-9.875,1.919,295.107,119.448,True,0,1,0,0
-0.208,-0.224,-0.174,compass,-154.832,2.35,-153.292,-1.143,-0.112,27.14,3.344,1.9561386216896606,-60.0,295.289,1.672,23426.721,False,-1.4842618906608267,-0.410654180406738,0.0,-0.051,-0.508,-9.875,1.919,295.289,118.187,True,0,1,0,0
-0.204,-0.224,-0.175,compass,-153.904,2.126,-150.734,-1.17,0.0,27.14,3.404,1.9825297123553154,-60.0,295.486,1.672,23426.821,False,-1.4484204497131545,-0.40507269505140764,0.0,-0.051,-0.547,-9.879,1.919,295.486,118.187,True,0,1,0,0
-0.198,0.0,-0.176,compass,-152.101,2.462,-146.943,-1.171,0.112,28.31,3.404,1.990580718445943,-60.0,295.674,1.806,23426.921,False,-1.5016841652047503,-0.43181352444528825,0.0,-0.051,-0.547,-9.84,2.119,295.674,121.645,True,0,1,0,0
-0.199,-0.112,-0.177,compass,-154.393,2.238,-143.569,-1.177,-0.112,28.31,3.344,1.9883398349072008,-60.0,295.882,1.806,23427.021,False,-1.4398343783111225,-0.42545892103138094,0.0,-0.051,-0.547,-9.879,2.119,295.882,121.645,True,0,1,0,0
-0.192,0.112,-0.177,compass,-149.781,2.238,-140.231,-1.168,0.336,28.31,3.344,2.008740972110356,-60.0,296.08,1.802,23427.121,False,-1.3709417885547819,-0.41848489732355504,0.0,-0.051,-0.508,-9.836,2.119,296.08,123.713,True,0,1,0,0
-0.184,0.112,-0.177,compass,-151.577,2.014,-137.073,-1.16,0.112,28.99,3.304,2.0096362004846484,-60.0,296.274,1.802,23427.221,False,-1.3044904718812604,-0.41253490537902326,0.0,-0.051,-0.508,-9.875,2.135,296.274,123.713,True,0,1,0,0
-0.175,0.112,-0.177,compass,-148.851,2.686,-135.184,-1.143,0.448,28.99,3.304,2.036173143617983,-60.0,296.476,1.697,23427.321,False,-1.1891353196256187,-0.38267658944895144,0.0,-0.051,-0.508,-9.875,2.135,296.476,121.969,True,0,1,0,0
-0.172,0.224,-0.177,compass,-151.121,2.462,-133.454,-1.113,0.112,28.16,3.404,2.049707305560821,-60.0,296.691,1.697,23427.421,False,-1.1517711643194462,-0.37648920304002365,0.0,-0.051,-0.508,-9.836,1.512,296.691,121.969,True,0,1,0,0
-0.172,0.224,-0.177,compass,-155.904,2.014,-132.336,-1.094,-0.448,28.16,3.404,2.0392864136081066,-60.0,296.895,1.621,23427.521,False,-1.0768302304670325,-0.3540256707757829,0.0,-0.051,-0.508,-9.875,1.512,296.895,122.262,True,0,1,0,0
-0.173,0.112,-0.177,compass,-152.54,2.35,-131.967,-1.039,0.0,28.16,3.463,2.0744467347141105,-60.0,297.314,1.621,23427.621,False,-1.065396432295333,-0.34244521781571036,0.0,-0.051,-0.508,-9.875,1.512,297.314,122.262,True,0,1,0,0
-0.178,0.224,-0.177,compass,-154.88,2.238,-131.262,-1.022,-0.336,26.33,3.463,2.060205745682773,-60.0,297.513,1.682,23427.722,False,-1.0902030569259267,-0.3494771774830693,0.0,-0.051,-0.547,-9.879,0.747,297.513,121.477,True,0,1,0,0
-0.172,0.224,-0.177,compass,-151.206,2.238,-131.063,-0.999,0.112,26.33,3.563,2.093091327668542,-60.0,297.717,1.682,23427.822,False,-1.0863413765148535,-0.343604274360111,0.0,-0.051,-0.508,-9.875,0.747,297.717,121.477,True,0,1,0,0
-0.177,0.336,-0.177,compass,-150.717,2.126,-131.318,-0.982,0.112,24.77,3.563,2.108886342405462,-60.0,297.906,1.592,23427.922,False,-1.034670018842691,-0.32019150011306535,0.0,-0.051,-0.547,-9.918,-0.108,297.906,118.805,True,0,1,0,0
-0.173,0.336,-0.177,compass,-152.526,2.014,-131.535,-0.968,-0.112,24.77,3.623,2.1208100873299385,-60.0,298.101,1.592,23428.022,False,-1.0396993506659955,-0.31489020738733453,0.0,-0.051,-0.547,-9.918,-0.108,298.101,118.805,True,0,1,0,0
-0.178,0.336,-0.177,compass,-151.634,2.462,-132.464,-0.952,0.0,23.82,3.623,2.136477289728247,-60.0,298.305,1.499,23428.122,False,-0.9972057052848284,-0.2911896329297853,0.0,-0.051,-0.586,-9.914,-0.571,298.305,115.428,True,0,1,0,0
-0.18,0.336,-0.177,compass,-162.112,2.126,-133.88,-0.941,0.0,23.82,3.603,2.1333165447065277,-60.0,298.494,1.499,23428.222,False,-1.0249185598969257,-0.2863462935318685,0.0,-0.051,-0.547,-9.918,-0.571,298.494,115.428,True,0,1,0,0
-0.184,0.224,-0.177,compass,-166.3,2.014,-134.34,-0.94,-0.448,23.82,3.603,2.1256591811847936,-60.0,298.683,1.649,23428.322,False,-1.1372036762004145,-0.3096196181426822,0.0,-0.051,-0.508,-9.914,-0.571,298.683,123.13,True,0,1,0,0
-0.197,0.112,-0.178,compass,-163.661,2.014,-135.404,-0.941,-0.112,23.48,3.583,2.1290889263250667,-60.0,299.056,1.649,23428.422,False,-1.1564743853248376,-0.2990624532780984,0.0,-0.051,-0.547,-9.879,-0.626,299.056,123.13,True,0,1,0,0
-0.21,0.112,-0.179,compass,-166.557,1.902,-135.865,-0.953,-0.448,23.48,3.583,2.096643719555902,-60.0,299.225,1.806,23428.522,False,-1.2784876727047554,-0.32238579645151105,0.0,-0.051,-0.508,-9.914,-0.626,299.225,124.718,True,0,1,0,0
-0.228,0.0,-0.18,compass,-164.867,2.238,-136.856,-0.968,-0.224,23.48,3.603,2.087648266592204,-60.0,299.394,1.806,23428.622,False,-1.3013118869092133,-0.3171400201846036,0.0,-0.051,-0.547,-9.879,-0.626,299.394,124.718,True,0,1,0,0
-0.247,-0.112,-0.182,compass,-166.049,2.238,-138.66,-0.983,-0.336,24.94,3.603,2.1110913372205258,-60.0,299.573,1.652,23428.722,False,-1.2266481697186973,-0.2850970018550167,0.0,-0.051,-0.547,-9.879,-0.076,299.573,125.182,True,0,1,0,0
-0.246,-0.112,-0.184,compass,-164.208,2.238,-140.218,-1.003,-0.112,24.94,3.563,2.1251432302616284,-60.0,299.761,1.652,23428.822,False,-1.2565536871247784,-0.2797601058482506,0.0,-0.051,-0.547,-9.879,-0.076,299.761,125.182,True,0,1,0,0
-0.252,-0.112,-0.186,compass,-162.367,2.238,-140.982,-1.027,0.112,26.95,3.563,2.1348768883416422,-60.0,299.923,1.738,23428.922,False,-1.337113325618966,-0.28937829490546085,0.0,-0.051,-0.508,-9.875,0.947,299.923,126.558,True,0,1,0,0
-0.261,0.112,-0.188,compass,-162.712,2.014,-141.335,-1.044,0.0,26.95,3.563,2.1138360654497097,-60.0,300.098,1.738,23429.022,False,-1.3441995524603663,-0.28414382987818515,0.0,-0.051,-0.469,-9.875,0.947,300.098,126.558,True,0,1,0,0
-0.261,-0.224,-0.19,compass,-160.874,2.462,-143.173,-1.064,0.336,26.95,3.563,2.1858073094349315,-60.0,300.276,1.454,23429.122,False,-1.1537881888442374,-0.2332758651784503,0.0,-0.051,-0.469,-9.875,0.947,300.276,124.033,True,0,1,0,0
-0.276,-0.112,-0.193,compass,-162.375,2.462,-144.567,-1.085,0.112,27.65,3.603,2.2293207001600948,-60.0,300.445,1.454,23429.222,False,-1.1751869513082382,-0.2290431786640165,0.0,-0.051,-0.469,-9.836,1.082,300.445,124.033,True,0,1,0,0
-0.289,-0.112,-0.196,compass,-164.195,2.014,-145.161,-1.096,-0.112,27.65,3.603,2.236257661964101,-60.0,300.599,1.584,23429.322,False,-1.2904245852338476,-0.24536591998725302,0.0,-0.051,-0.469,-9.875,1.082,300.599,125.666,True,0,1,0,0
-0.305,0.112,-0.199,compass,-165.644,2.238,-145.484,-1.105,-0.336,27.65,3.503,2.185564942962731,-60.0,300.922,1.584,23429.423,False,-1.2937560761747864,-0.23654226780078166,0.0,-0.051,-0.508,-9.875,1.082,300.922,125.666,True,0,1,0,0
-0.315,0.0,-0.203,compass,-166.875,2.126,-146.559,-1.106,-0.448,28.31,3.503,2.137051080867715,-60.0,301.088,1.602,23429.523,False,-1.3256921561101689,-0.23456738776539499,0.0,-0.051,-0.508,-9.875,1.192,301.088,122.189,True,0,1,0,0
-0.304,0.112,-0.206,compass,-162.706,2.462,-147.285,-1.104,0.0,28.31,3.483,2.0964761804178673,-60.0,301.266,1.602,23429.623,False,-1.3372278155091752,-0.2296261367940859,0.0,-0.051,-0.508,-9.875,1.192,301.266,122.189,True,0,1,0,0
-0.305,0.112,-0.209,compass,-161.741,2.462,-146.497,-1.092,0.112,28.31,3.483,2.0554103948492983,-60.0,301.42,1.767,23429.723,False,-1.4621895913972174,-0.2486148278301171,0.0,-0.051,-0.508,-9.914,1.192,301.42,126.111,True,0,1,0,0
-0.297,0.0,-0.211,compass,-163.003,2.238,-145.963,-1.083,0.0,28.56,3.483,2.0311834167226577,-60.0,301.586,1.767,23429.823,False,-1.4531565602403254,-0.2435485651443151,0.0,-0.051,-0.508,-9.914,1.155,301.586,126.111,True,0,1,0,0
-0.292,0.224,-0.214,compass,-159.493,2.462,-146.164,-1.069,0.336,28.56,3.483,2.028511367623591,-60.0,301.756,1.579,23429.923,False,-1.3013715009139204,-0.21293291408392026,0.0,-0.051,-0.508,-9.875,1.155,301.756,124.292,True,0,1,0,0
-0.278,0.224,-0.216,compass,-163.393,2.462,-146.216,-1.057,-0.112,28.56,3.444,2.0002503809466115,-60.0,301.94,1.579,23430.023,False,-1.3021037710279901,-0.2078840700293998,0.0,-0.051,-0.508,-9.875,1.155,301.94,124.292,True,0,1,0,0
-0.27,0.224,-0.217,compass,-163.393,2.238,-145.226,-1.033,-0.112,28.39,3.444,1.9578230206378975,-60.0,302.107,1.75,23430.123,False,-1.4261145568333484,-0.2253780775328893,0.0,-0.051,-0.508,-9.914,0.983,302.107,126.761,True,0,1,0,0
-0.244,0.112,-0.218,compass,-160.747,2.574,-144.567,-1.004,0.224,28.39,3.424,1.9444330550192788,-60.0,302.483,1.75,23430.223,False,-1.411564678155503,-0.21398276410197217,0.0,-0.051,-0.586,-9.914,0.983,302.483,126.761,True,0,1,0,0
-0.233,0.224,-0.219,compass,-165.443,2.238,-144.264,-0.986,-0.336,29.26,3.424,1.9115880921970652,-60.0,302.674,1.684,23430.324,False,-1.3533520945764028,-0.20032070812997307,0.0,-0.051,-0.508,-9.875,1.325,302.674,126.947,True,0,1,0,0
-0.218,0.224,-0.219,compass,-163.388,2.686,-144.296,-0.975,-0.112,29.26,3.483,1.903950718117806,-60.0,302.881,1.684,23430.424,False,-1.3540268020857742,-0.19429013137708379,0.0,-0.051,-0.547,-9.879,1.325,302.881,126.947,True,0,1,0,0
-0.204,0.224,-0.218,compass,-166.419,2.014,-144.712,-0.964,-0.448,29.26,3.483,1.9040433242338213,-60.0,303.081,1.596,23430.524,False,-1.290664681787159,-0.17864464403744348,0.0,-0.012,-0.469,-9.879,1.325,303.081,128.145,True,0,1,0,0
-0.183,0.336,-0.217,compass,-159.176,2.462,-144.902,-0.95,0.336,30.15,3.523,1.9299192514313022,-60.0,303.279,1.596,23430.624,False,-1.2939437616296563,-0.17318519438317848,0.0,-0.051,-0.508,-9.875,1.496,303.279,128.145,True,0,1,0,0
-0.18,0.224,-0.216,compass,-165.371,2.238,-143.777,-0.946,-0.336,30.15,3.523,1.9090477174263476,-60.0,303.476,1.829,23430.724,False,-1.4619043515595584,-0.19223815761894847,0.0,-0.051,-0.547,-9.879,1.496,303.476,130.526,True,0,1,0,0
-0.172,-0.112,-0.215,compass,-162.36,2.462,-143.44,-0.954,0.112,30.15,3.523,1.942325310997568,-60.0,303.67,1.829,23430.824,False,-1.4555821629619414,-0.18607946235525166,0.0,-0.051,-0.508,-9.875,1.496,303.67,130.526,True,0,1,0,0
-0.166,0.112,-0.213,compass,-161.755,2.35,-143.846,-0.956,0.112,30.73,3.523,1.9873009283918557,-60.0,303.882,1.577,23430.924,False,-1.2610861372645898,-0.1545508850258365,0.0,-0.012,-0.547,-9.914,1.539,303.882,130.991,True,0,1,0,0
-0.154,-0.112,-0.211,compass,-159.64,2.686,-144.238,-0.971,0.448,30.73,3.523,2.0611764248487083,-60.0,304.088,1.577,23431.024,False,-1.2675163910537293,-0.14890772832158752,0.0,-0.051,-0.508,-9.875,1.539,304.088,130.991,True,0,1,0,0
-0.148,0.112,-0.209,compass,-160.811,2.462,-143.187,-0.995,0.224,30.77,3.523,2.055900100154242,-60.0,304.538,1.796,23431.124,False,-1.4206398636574118,-0.15560785019940812,0.0,-0.051,-0.547,-9.879,1.405,304.538,131.981,True,0,1,0,0
-0.142,-0.112,-0.207,compass,-160.454,2.686,-142.466,-1.014,0.224,30.77,3.483,2.067805821564899,-60.0,304.776,1.796,23431.224,False,-1.4070250228274026,-0.14819534672403356,0.0,-0.051,-0.508,-9.875,1.405,304.776,131.981,True,0,1,0,0
-0.136,0.0,-0.205,compass,-162.958,2.238,-141.368,-1.033,-0.112,30.77,3.304,2.0683723141699524,-60.0,305.025,1.796,23431.324,False,-1.3854286915811098,-0.14039294842026498,0.0,-0.051,-0.508,-9.875,1.405,305.025,135.293,True,0,1,0,0
-0.127,-0.224,-0.203,compass,-161.666,2.686,-140.459,-1.058,0.112,31.37,3.304,2.0623567729333234,-60.0,305.278,1.796,23431.424,False,-1.3671304343731545,-0.1324935859349622,0.0,-0.051,-0.508,-9.875,1.466,305.278,135.293,True,0,1,0,0
-0.125,0.0,-0.201,compass,-165.057,2.462,-140.724,-1.071,-0.336,31.37,3.185,2.033388281622617,-60.0,305.537,1.604,23431.524,False,-1.2253678245462982,-0.11105733807086411,0.0,-0.051,-0.508,-9.836,1.466,305.537,133.445,True,0,1,0,0
-0.126,0.0,-0.196,compass,-163.048,2.462,-140.58,-1.1,-0.112,31.2,3.185,1.9509894381750297,-60.0,306.037,1.633,23431.724,False,-1.2451100608380774,-0.09886025011073765,0.0,-0.051,-0.547,-9.879,1.263,306.037,131.783,True,0,1,0,0
-0.126,0.0,-0.196,compass,-163.048,2.462,-140.58,-1.1,-0.112,31.2,3.185,1.9509894381750297,-60.0,306.037,1.633,23431.724,False,-1.2451100608380774,-0.09886025011073765,0.0,-0.051,-0.547,-9.879,1.263,306.037,131.783,True,0,1,0,0
-0.116,0.112,-0.191,compass,-160.609,2.574,-140.593,-1.106,0.112,31.77,3.185,1.883120804027919,-60.0,306.509,1.652,23431.925,False,-1.2606172468074979,-0.08644173324443993,0.0,-0.051,-0.508,-9.875,1.42,306.509,130.482,True,0,1,0,0
-0.116,0.112,-0.191,compass,-160.609,2.574,-140.593,-1.106,0.112,31.77,3.185,1.883120804027919,-60.0,306.509,1.652,23431.925,False,-1.2606172468074979,-0.08644173324443993,0.0,-0.051,-0.508,-9.875,1.42,306.509,130.482,True,0,1,0,0
-0.087,0.112,-0.185,compass,-159.618,2.126,-140.046,-1.108,0.224,31.77,3.245,1.8774331560941557,-60.0,307.157,1.74,23432.125,False,-1.3148039700912804,-0.07138658258521884,0.0,-0.051,-0.508,-9.875,1.278,307.157,132.161,True,0,1,0,0
-0.087,0.112,-0.185,compass,-159.618,2.126,-140.046,-1.108,0.224,31.77,3.523,1.8774331560941557,-60.0,307.157,1.74,23432.125,False,-1.3148039700912804,-0.07138658258521884,0.0,-0.051,-0.508,-9.875,1.278,307.157,132.161,True,0,1,0,0
-0.097,0.224,-0.18,compass,-163.329,2.238,-139.921,-1.086,-0.224,31.77,3.523,1.931664490914273,-60.0,307.595,1.687,23432.325,False,-1.2740988359462835,-0.0563180593408686,0.0,-0.051,-0.547,-9.879,1.278,307.595,134.304,True,0,1,0,0
-0.097,0.224,-0.18,compass,-163.329,2.238,-139.921,-1.086,-0.224,31.77,3.722,1.931664490914273,-60.0,307.595,1.687,23432.325,False,-1.2740988359462835,-0.0563180593408686,0.0,-0.051,-0.547,-9.879,1.278,307.595,134.304,True,0,1,0,0
-0.102,0.336,-0.175,compass,-165.853,2.35,-141.413,-1.06,-0.56,29.67,3.722,1.9839683029856918,-60.0,308.04,1.629,23432.525,False,-1.2581817586572428,-0.04172236314361433,0.0,-0.051,-0.547,-9.918,0.45,308.04,132.792,True,0,1,0,0
-0.102,0.336,-0.175,compass,-165.853,2.35,-141.413,-1.06,-0.56,29.67,3.901,1.9839683029856918,-60.0,308.04,1.629,23432.525,False,-1.2581817586572428,-0.04172236314361433,0.0,-0.051,-0.547,-9.918,0.45,308.04,132.792,True,0,1,0,0
-0.106,0.224,-0.171,compass,-164.087,2.686,-143.043,-1.034,-0.336,24.24,3.901,2.1080083572455903,-60.0,308.476,1.742,23432.725,False,-1.3767669998568652,-0.031366940771453765,0.0,-0.051,-0.547,-9.918,-1.406,308.476,136.157,True,0,1,0,0
-0.106,0.224,-0.171,compass,-164.087,2.686,-143.043,-1.034,-0.336,24.24,4.021,2.1080083572455903,-60.0,308.476,1.742,23432.725,False,-1.3767669998568652,-0.031366940771453765,0.0,-0.051,-0.547,-9.918,-1.406,308.476,136.157,True,0,1,0,0
-0.128,0.112,-0.168,compass,-164.268,2.574,-144.402,-1.002,-0.336,20.99,4.021,2.2525882633780316,-60.0,308.928,1.639,23432.925,False,-1.3189071250828888,-0.01659005127455343,0.0,-0.051,-0.547,-9.918,-2.88,308.928,134.972,True,0,1,0,0
-0.128,0.112,-0.168,compass,-164.268,2.574,-144.402,-1.002,-0.336,20.99,3.981,2.2525882633780316,-60.0,308.928,1.639,23432.925,False,-1.3189071250828888,-0.01659005127455343,0.0,-0.051,-0.547,-9.918,-2.88,308.928,134.972,True,0,1,0,0
-0.185,0.224,-0.168,compass,-155.884,2.462,-144.481,-0.985,-0.224,20.99,3.981,2.3666743245220654,-60.0,309.624,1.51,23433.125,False,-1.2146009070950985,0.0030620823165747276,0.0,-0.051,-0.508,-9.914,-2.88,309.624,135.1,True,0,1,0,0
