imu.roll,imu.pitchrate,imu.heel,ap.mode,ap.wind_angle,imu.headingrate,ap.true_wind_angle,imu.pitch,imu.rollrate,rudder.angle,wind.speed,ap.true_wind_speed,ap.heading_error,ap.heading,gps.speed,timestamp,ap.enabled,ap.vmg,ap.cmg,sow.speed,imu.accel_X,imu.accel_Y,imu.accel_Z,rudder.speed,imu.heading,gps.track,perf.quality_flag,perf.boat_config.Main,perf.boat_config.jib,perf.boat_config.spi,perf.boat_config.weight
-1.234,0.112,-1.28,compass,-39.142,-0.112,-39.974,-0.945,0.112,-10.26,3.603,3.5879246256851047,-54.155,345.353,0.039,23847.412,False,0.02979952891781841,0.02276781702564532,0.45,-0.051,-0.355,-9.918,-0.023,345.353,169.078,True,0,1,0,0
-1.234,0.112,-1.28,compass,-39.142,-0.112,-39.974,-0.945,0.112,-10.26,3.603,3.5879246256851047,-54.155,345.353,0.039,23847.412,False,0.02979952891781841,0.02276781702564532,0.45,-0.051,-0.355,-9.918,-0.023,345.353,169.078,True,0,1,0,0
-1.198,0.112,-1.275,compass,-38.402,-0.0,-39.722,-0.954,0.0,-10.2,3.603,3.626487499785811,-54.17,345.338,0.023,23847.613,False,0.017942155560671403,0.01365588391632539,0.45,-0.051,-0.355,-9.879,-0.001,345.338,169.078,True,0,1,0,0
-1.198,0.112,-1.275,compass,-38.402,-0.0,-39.722,-0.954,0.0,-10.2,3.603,3.626487499785811,-54.17,345.338,0.023,23847.613,False,0.017942155560671403,0.01365588391632539,0.45,-0.051,-0.355,-9.879,-0.001,345.338,169.078,True,0,1,0,0
-1.198,0.112,-1.27,compass,-37.647,-0.0,-39.479,-0.954,-0.112,-10.2,3.603,3.6318392311943946,-54.184,345.324,0.017,23847.813,False,0.013502238485370122,0.010238478415135036,0.45,-0.051,-0.355,-9.879,-0.001,345.324,169.078,True,0,1,0,0
-1.198,0.112,-1.27,compass,-37.647,-0.0,-39.479,-0.954,-0.112,-10.2,3.603,3.6318392311943946,-54.184,345.324,0.017,23847.813,False,0.013502238485370122,0.010238478415135036,0.45,-0.051,-0.355,-9.879,-0.001,345.324,169.078,True,0,1,0,0
-1.191,-0.112,-1.266,compass,-42.234,0.112,-39.178,-0.953,-0.224,-10.24,3.663,3.6551888296739934,-54.177,345.331,0.113,23848.013,False,0.08739989212980465,0.0659922366337854,0.45,-0.051,-0.355,-9.879,-0.014,345.331,169.078,True,0,1,0,0
-1.191,-0.112,-1.266,compass,-42.234,0.112,-39.178,-0.953,-0.224,-10.24,3.663,3.6551888296739934,-54.177,345.331,0.113,23848.013,False,0.08739989212980465,0.0659922366337854,0.45,-0.051,-0.355,-9.879,-0.014,345.331,169.078,True,0,1,0,0
-1.205,-0.112,-1.262,compass,-42.954,0.336,-39.647,-0.956,-0.112,-10.22,3.663,3.6469720338699316,-54.142,345.366,0.047,23848.213,False,0.03593747531088713,0.02733013767134632,0.45,-0.012,-0.355,-9.875,-0.003,345.366,169.078,True,0,1,0,0
-1.205,-0.112,-1.262,compass,-42.954,0.336,-39.647,-0.956,-0.112,-10.22,3.663,3.6469720338699316,-54.142,345.366,0.047,23848.213,False,0.03593747531088713,0.02733013767134632,0.45,-0.012,-0.355,-9.875,-0.003,345.366,169.078,True,0,1,0,0
-1.227,0.224,-1.259,compass,-41.128,-0.0,-39.914,-0.946,-0.112,-10.24,3.842,3.7180956234394693,-54.049,345.459,0.091,23848.413,False,0.07016492521770192,0.0536409665983958,0.45,-0.051,-0.355,-9.918,-0.009,345.459,169.078,True,0,1,0,0
-1.227,0.224,-1.259,compass,-41.128,-0.0,-39.914,-0.946,-0.112,-10.24,3.842,3.7180956234394693,-54.049,345.459,0.091,23848.413,False,0.07016492521770192,0.0536409665983958,0.45,-0.051,-0.355,-9.918,-0.009,345.459,169.078,True,0,1,0,0
-1.249,0.0,-1.259,compass,-41.634,-0.0,-40.117,-0.943,-0.224,-10.2,3.802,3.7525494004762487,-53.964,345.544,0.056,23848.613,False,0.04318216632590593,0.033165604168919775,0.45,-0.051,-0.355,-9.918,0.012,345.544,169.078,True,0,1,0,0
-1.249,0.0,-1.259,compass,-41.634,-0.0,-40.117,-0.943,-0.224,-10.2,3.802,3.7525494004762487,-53.964,345.544,0.082,23848.613,False,0.04318216632590593,0.033165604168919775,0.45,-0.051,-0.355,-9.918,0.012,345.544,169.078,True,0,1,0,0
-1.269,-0.112,-1.259,compass,-42.956,0.112,-40.301,-0.954,-0.112,-10.26,3.722,3.732335547746919,-53.887,345.621,0.082,23848.813,False,0.0623808271437075,0.048122002685897676,0.45,-0.051,-0.316,-9.879,-0.019,345.621,169.078,True,0,1,0,0
-1.269,-0.112,-1.259,compass,-42.956,0.112,-40.301,-0.954,-0.112,-10.26,3.722,3.732335547746919,-53.887,345.621,0.021,23848.813,False,0.0623808271437075,0.048122002685897676,0.45,-0.051,-0.316,-9.879,-0.019,345.621,169.078,True,0,1,0,0
-1.303,0.112,-1.261,compass,-40.967,0.224,-40.73,-0.967,-0.224,-10.24,3.702,3.7011368419642325,-53.823,345.685,0.021,23849.013,False,0.01623308690028637,0.012622557984201933,0.45,-0.051,-0.316,-9.879,-0.007,345.685,169.078,True,0,1,0,0
-1.303,0.112,-1.261,compass,-40.967,0.224,-40.73,-0.967,-0.224,-10.24,3.702,3.7011368419642325,-53.823,345.685,0.043,23849.013,False,0.01623308690028637,0.012622557984201933,0.45,-0.051,-0.316,-9.879,-0.007,345.685,169.078,True,0,1,0,0
-1.33,-0.112,-1.265,compass,-42.203,0.224,-40.968,-0.977,-0.224,-10.24,3.523,3.6406652912325717,-53.816,345.692,0.043,23849.213,False,0.03233025121052975,0.025249432024359645,0.45,-0.051,-0.316,-9.879,-0.007,345.692,169.078,True,0,1,0,0
-1.33,-0.112,-1.265,compass,-42.203,0.224,-40.968,-0.977,-0.224,-10.24,3.523,3.6406652912325717,-53.816,345.692,0.035,23849.213,False,0.03233025121052975,0.025249432024359645,0.45,-0.051,-0.316,-9.879,-0.007,345.692,169.078,True,0,1,0,0
-1.349,-0.112,-1.27,compass,-43.686,-0.0,-41.334,-1.001,0.0,-10.24,3.523,3.5812049095919885,-53.808,345.7,0.035,23849.413,False,0.026295843019803554,0.020662423520412553,0.45,-0.051,-0.316,-9.879,-0.006,345.7,169.078,True,0,1,0,0
-1.348,0.112,-1.272,compass,-43.051,-0.0,-41.583,-1.008,0.112,-10.24,3.523,3.589148565323332,-53.801,345.707,0.01,23849.514,False,0.007275845088555613,0.005740495062737986,0.45,-0.051,-0.316,-9.879,-0.006,345.707,169.078,True,0,1,0,0
-1.348,-0.112,-1.274,compass,-55.385,0.224,-42.394,-1.008,0.112,-10.24,3.503,3.5752158863218337,-53.781,345.727,0.01,23849.614,False,0.007184469089565015,0.005743344543812597,0.45,-0.051,-0.316,-9.879,-0.006,345.727,169.078,True,0,1,0,0
-1.349,0.112,-1.276,compass,-53.789,-0.0,-43.364,-1.001,0.112,-10.2,3.503,3.5844263791168607,-53.774,345.734,0.039,23849.714,False,0.028287910903923647,0.02297724485544673,0.45,-0.051,-0.316,-9.879,0.015,345.734,169.078,True,0,1,0,0
-1.342,0.0,-1.278,compass,-53.408,-0.0,-44.412,-1.0,-0.112,-10.2,3.483,3.557655363488476,-53.781,345.727,0.039,23849.814,False,0.027787682570629114,0.022973397055204122,0.45,-0.051,-0.316,-9.879,0.015,345.727,169.078,True,0,1,0,0
-1.336,0.112,-1.28,compass,-52.603,0.112,-45.424,-0.992,-0.112,-10.2,3.483,3.5447165303937966,-53.794,345.714,0.039,23849.914,False,0.027294785620004883,0.02296581809928424,0.45,-0.051,-0.316,-9.879,0.014,345.714,169.078,True,0,1,0,0
-1.317,0.112,-1.281,compass,-54.356,0.224,-46.451,-0.968,0.224,-10.2,3.483,3.5667207838232757,-53.823,345.685,0.039,23849.914,False,0.026781411838413705,0.022950201051588973,0.45,-0.051,-0.316,-9.879,0.014,345.685,169.078,True,0,1,0,0
-1.31,0.112,-1.282,compass,-53.787,-0.0,-47.387,-0.967,0.112,-10.24,3.483,3.5741469609267353,-53.83,345.678,0.047,23850.114,False,0.0315791999824693,0.027535622763770435,0.45,-0.051,-0.316,-9.879,-0.007,345.678,169.078,True,0,1,0,0
-1.304,0.112,-1.283,compass,-53.786,-0.0,-48.238,-0.959,0.112,-10.24,3.463,3.5754878621288695,-53.837,345.671,0.047,23850.214,False,0.031064529274294924,0.02753108718111445,0.45,-0.051,-0.316,-9.879,-0.007,345.671,169.078,True,0,1,0,0
-1.291,0.0,-1.283,compass,-55.152,-0.0,-49.154,-0.951,0.224,-10.24,3.463,3.5744723205484763,-53.83,345.678,0.012,23850.315,False,0.007627311552826335,0.006883904576133102,0.45,-0.051,-0.316,-9.879,-0.007,345.678,169.078,True,0,1,0,0
-1.277,0.0,-1.283,compass,-54.613,-0.0,-49.967,-0.956,0.112,-10.26,3.304,3.5277122198018223,-53.816,345.692,0.012,23850.415,False,0.007503283383549289,0.00688613570001842,0.45,-0.051,-0.355,-9.879,-0.013,345.692,169.078,True,0,1,0,0
-1.263,-0.112,-1.282,compass,-56.053,-0.0,-50.622,-0.955,0.224,-10.26,3.304,3.5009385541487132,-53.81,345.698,0.056,23850.515,False,0.03577374644629633,0.033288362662703776,0.45,-0.051,-0.355,-9.879,-0.013,345.698,169.078,True,0,1,0,0
-1.247,-0.112,-1.281,compass,-56.065,-0.0,-51.246,-0.967,0.224,-10.26,3.284,3.475586081973207,-53.795,345.713,0.056,23850.615,False,0.035304179151028126,0.03329973112074774,0.45,-0.051,-0.355,-9.918,-0.012,345.713,169.078,True,0,1,0,0
-1.232,-0.224,-1.28,compass,-56.354,0.336,-51.837,-0.972,0.112,-10.26,3.284,3.436923167052912,-53.796,345.712,0.054,23850.715,False,0.0336437721281593,0.03215123131273574,0.45,-0.051,-0.355,-9.918,-0.012,345.712,169.078,True,0,1,0,0
-1.224,-0.112,-1.278,compass,-56.065,0.112,-52.369,-0.985,0.224,-10.26,3.284,3.42524351549361,-53.789,345.719,0.054,23850.815,False,0.0332465678392103,0.03215628211688475,0.45,-0.051,-0.355,-9.879,-0.012,345.719,169.078,True,0,1,0,0
-1.203,0.0,-1.276,compass,-54.616,-0.112,-52.621,-0.983,0.112,-10.2,3.284,3.4198212303912925,-53.789,345.719,0.105,23850.915,False,0.06374713159418277,0.06201529848200439,0.45,-0.09,-0.355,-9.914,0.009,345.719,169.078,True,0,1,0,0
-1.195,0.112,-1.273,compass,-53.772,0.336,-52.765,-0.989,0.112,-10.2,3.264,3.4191021363602956,-53.783,345.725,0.105,23851.015,False,0.06354055370767424,0.0620252295218519,0.45,-0.051,-0.355,-9.918,0.009,345.725,169.078,True,0,1,0,0
-1.166,0.112,-1.27,compass,-53.772,0.112,-52.886,-0.993,0.112,-10.2,3.264,3.416108193986822,-53.755,345.753,0.087,23851.115,False,0.05282621076065735,0.051721277707866435,0.45,-0.051,-0.355,-9.918,0.008,345.753,169.078,True,0,1,0,0
-1.16,0.112,-1.267,compass,-57.112,0.224,-53.103,-0.992,0.0,-10.2,3.284,3.406497127780832,-53.735,345.773,0.087,23851.215,False,0.052572119108364776,0.05174680103706001,0.45,-0.051,-0.355,-9.918,0.008,345.773,169.078,True,0,1,0,0
-1.161,0.336,-1.264,compass,-55.96,0.112,-53.19,-0.986,0.112,-10.2,3.284,3.431611347675487,-53.713,345.795,0.136,23851.315,False,0.0816283335708919,0.08053680346961517,0.45,-0.012,-0.355,-9.875,0.008,345.795,169.078,True,0,1,0,0
-1.156,0.224,-1.26,compass,-55.61,0.112,-53.253,-0.964,-0.112,-10.22,3.225,3.408456317828121,-53.712,345.796,0.136,23851.415,False,0.08148869696621093,0.08053741462557329,0.45,-0.012,-0.355,-9.914,0.001,345.796,169.078,True,0,1,0,0
-1.158,0.112,-1.257,compass,-56.506,-0.0,-53.533,-0.95,-0.112,-10.22,3.225,3.3744612169392383,-53.705,345.803,0.076,23851.515,False,0.045100146747915924,0.04487853509990824,0.45,-0.012,-0.355,-9.875,0.001,345.803,169.078,True,0,1,0,0
-1.167,0.112,-1.255,compass,-53.106,-0.0,-53.629,-0.937,0.0,-10.22,3.105,3.3337451595559746,-53.705,345.803,0.076,23851.615,False,0.04498998732303676,0.0448789132370183,0.45,-0.012,-0.355,-9.875,0.001,345.803,169.078,True,0,1,0,0
-1.175,0.112,-1.252,compass,-52.43,-0.112,-53.66,-0.924,-0.112,-10.2,3.105,3.2876540407626678,-53.711,345.797,0.049,23851.715,False,0.028810671552865152,0.028764030802509145,0.45,-0.012,-0.355,-9.875,0.007,345.797,169.078,True,0,1,0,0
-1.199,-0.112,-1.251,compass,-53.558,0.224,-53.629,-0.906,-0.224,-10.2,3.006,3.203093025751739,-53.711,345.797,0.049,23851.815,False,0.028829433872175677,0.028764474751855812,0.45,-0.012,-0.395,-9.879,0.007,345.797,169.078,True,0,1,0,0
-1.214,0.0,-1.25,compass,-52.596,-0.112,-53.458,-0.894,-0.224,-10.15,3.006,3.1482445086373745,-53.703,345.805,0.07,23851.915,False,0.041685605308385595,0.04142809762320008,0.45,-0.012,-0.355,-9.875,0.032,345.805,169.078,True,0,1,0,0
-1.23,0.112,-1.249,compass,-51.558,-0.112,-53.206,-0.882,-0.224,-10.15,2.886,3.087520936704022,-53.689,345.819,0.07,23852.015,False,0.0419396862009121,0.04144217865902432,0.45,-0.051,-0.355,-9.918,0.032,345.819,169.078,True,0,1,0,0
-1.243,-0.112,-1.249,compass,-53.54,-0.112,-53.024,-0.891,-0.224,-10.26,2.886,3.023335137613774,-53.667,345.841,0.066,23852.116,False,0.03978845226423799,0.03916002064872893,0.45,-0.051,-0.355,-9.879,-0.027,345.841,169.078,True,0,1,0,0
-1.25,-0.112,-1.249,compass,-53.526,-0.112,-52.88,-0.892,-0.224,-10.26,2.807,2.955748078070516,-53.646,345.862,0.066,23852.216,False,0.039928517860418795,0.039179442847422113,0.45,-0.051,-0.355,-9.879,-0.027,345.862,169.078,True,0,1,0,0
-1.262,-0.112,-1.249,compass,-54.286,0.224,-52.873,-0.908,-0.112,-10.26,2.807,2.9112821725690425,-53.618,345.89,0.049,23852.316,False,0.02937248149612419,0.028827900348871692,0.45,-0.051,-0.316,-9.879,-0.027,345.89,169.078,True,0,1,0,0
-1.273,-0.224,-1.25,compass,-70.48,-0.112,-53.673,-0.938,-0.224,-10.17,2.866,2.873531928031505,-53.584,345.924,0.049,23852.416,False,0.02883908881861767,0.028851358004906853,0.45,-0.051,-0.316,-9.879,0.006,345.924,169.078,True,0,1,0,0
-1.292,-0.336,-1.251,compass,-71.699,0.112,-54.863,-0.955,-0.224,-10.17,2.866,2.843074616540719,-53.562,345.946,0.08,23852.516,False,0.04595453628377829,0.047340496609490273,0.45,-0.051,-0.316,-9.879,0.006,345.946,169.078,True,0,1,0,0
-1.312,-0.224,-1.253,compass,-70.491,0.224,-56.267,-0.965,-0.224,-10.2,2.846,2.8187047260675664,-53.548,345.96,0.08,23852.616,False,0.04433891696965324,0.047356181360540324,0.45,-0.051,-0.316,-9.879,-0.009,345.96,169.078,True,0,1,0,0
-1.318,0.112,-1.255,compass,-67.404,-0.112,-57.84,-0.973,-0.112,-10.2,2.846,2.819402846353834,-53.548,345.96,0.017,23852.716,False,0.009326499610348479,0.010395250000578478,0.45,-0.051,-0.316,-9.879,-0.009,345.96,169.078,True,0,1,0,0
-1.331,-0.112,-1.257,compass,-69.72,0.224,-59.355,-0.981,-0.112,-10.2,2.866,2.814484279829488,-53.548,345.96,0.017,23852.816,False,0.008928870848797925,0.01039526262907172,0.45,-0.051,-0.316,-9.918,-0.009,345.96,169.078,True,0,1,0,0
-1.35,-0.112,-1.26,compass,-70.552,0.112,-60.502,-0.998,0.112,-10.15,2.866,2.8439040338852584,-53.548,345.96,0.097,23852.916,False,0.047908365318348134,0.05775148490578408,0.45,-0.051,-0.316,-9.918,0.008,345.96,169.078,True,0,1,0,0
-1.35,0.224,-1.263,compass,-66.399,0.112,-61.412,-0.998,-0.112,-10.15,2.986,2.882959879352305,-53.541,345.967,0.097,23853.016,False,0.04655593988647886,0.05776095588466581,0.45,-0.051,-0.316,-9.879,0.008,345.967,169.078,True,0,1,0,0
-1.351,0.112,-1.265,compass,-67.479,0.448,-62.409,-0.991,-0.112,-10.15,2.986,2.901749449351299,-53.519,345.989,0.035,23853.116,False,0.016228814399590726,0.020804651582638382,0.45,-0.051,-0.316,-9.879,0.008,345.989,169.078,True,0,1,0,0
-1.352,0.112,-1.268,compass,-68.374,-0.0,-63.284,-0.985,0.112,-10.22,3.105,2.9673855337216923,-53.505,346.003,0.035,23853.216,False,0.01575457533314208,0.020811528565480807,0.45,-0.051,-0.316,-9.879,-0.016,346.003,169.078,True,0,1,0,0
-1.346,0.112,-1.27,compass,-67.097,0.112,-63.902,-0.977,-0.224,-10.22,3.105,2.9832204177789463,-53.491,346.017,0.052,23853.316,False,0.02312623823960084,0.031227541469247354,0.45,-0.051,-0.316,-9.879,-0.016,346.017,169.078,True,0,1,0,0
-1.34,-0.112,-1.272,compass,-70.81,0.112,-64.578,-0.969,0.224,-10.17,3.085,3.0313412775894863,-53.491,346.017,0.052,23853.416,False,0.022560936537866345,0.03122756777197658,0.45,-0.051,-0.316,-9.918,0.01,346.017,169.078,True,0,1,0,0
-1.334,0.0,-1.274,compass,-69.399,0.448,-65.157,-0.955,0.112,-10.17,3.085,3.061356743507577,-53.491,346.017,0.058,23853.516,False,0.02452677617260418,0.03469742918757001,0.45,-0.012,-0.316,-9.914,0.01,346.017,169.078,True,0,1,0,0
-1.328,0.0,-1.276,compass,-69.728,0.224,-65.702,-0.947,0.224,-10.26,3.324,3.149752034003374,-53.505,346.003,0.058,23853.616,False,0.024006867661620482,0.03468610138129928,0.45,-0.051,-0.316,-9.918,-0.036,346.003,169.078,True,0,1,0,0
-1.315,0.224,-1.277,compass,-67.469,0.112,-66.058,-0.938,0.112,-10.26,3.324,3.2166177674062304,-53.505,346.003,0.064,23853.716,False,0.026042279352223988,0.03815466887034323,0.45,-0.012,-0.316,-9.875,-0.036,346.003,169.078,True,0,1,0,0
-1.305,0.112,-1.278,compass,-68.414,0.112,-66.339,-0.908,0.112,-10.22,3.324,3.263754654738418,-53.511,345.997,0.064,23853.816,False,0.02574639050768291,0.03814872021278076,0.45,-0.012,-0.316,-9.875,-0.013,345.997,169.078,True,0,1,0,0
-1.298,0.0,-1.278,compass,-69.371,-0.112,-66.72,-0.907,0.112,-10.22,3.324,3.2925611773167294,-53.519,345.989,0.031,23853.916,False,0.012291002752399329,0.01849328306311869,0.45,-0.051,-0.355,-9.879,-0.013,345.989,169.078,True,0,1,0,0
-1.283,-0.112,-1.279,compass,-83.1,0.112,-67.723,-0.913,0.112,-10.22,3.523,3.357495965869227,-53.512,345.996,0.031,23854.016,False,0.011791795607313567,0.018496183936277458,0.45,-0.051,-0.316,-9.879,-0.011,345.996,169.078,True,0,1,0,0
-1.275,-0.112,-1.279,compass,-83.215,-0.112,-69.15,-0.919,0.224,-10.22,3.523,3.4191768879807944,-53.498,346.01,0.004,23854.116,False,0.0013846078109893477,0.00231276873244367,0.45,-0.051,-0.316,-9.879,-0.011,346.01,169.078,True,0,1,0,0
-1.268,-0.112,-1.278,compass,-83.106,0.112,-70.689,-0.918,0.112,-10.2,3.503,3.4496209717883946,-53.484,346.024,0.004,23854.217,False,0.0012870059250860314,0.0023135213024742937,0.45,-0.051,-0.355,-9.879,-0.0,346.024,169.078,True,0,1,0,0
-1.26,-0.224,-1.278,compass,-84.08,-0.0,-72.112,-0.932,0.112,-10.2,3.503,3.474598945335049,-53.478,346.03,0.051,23854.317,False,0.01554272614775239,0.03008045592602863,0.45,-0.051,-0.355,-9.879,-0.0,346.03,169.078,True,0,1,0,0
-1.244,-0.112,-1.277,compass,-83.034,0.224,-73.455,-0.944,0.0,-10.2,3.344,3.447081048604651,-53.464,346.044,0.051,23854.417,False,0.014415567941134076,0.03008999272592363,0.45,-0.051,-0.355,-9.879,-0.0,346.044,169.078,True,0,1,0,0
-1.236,-0.112,-1.275,compass,-83.158,0.224,-74.711,-0.957,0.112,-10.22,3.344,3.4385989792277765,-53.443,346.065,0.049,23854.517,False,0.012845655758635275,0.028947219709737744,0.45,-0.051,-0.355,-9.879,-0.007,346.065,169.078,True,0,1,0,0
-1.22,-0.224,-1.274,compass,-84.162,0.112,-75.882,-0.97,0.0,-10.22,3.205,3.386421402947433,-53.423,346.085,0.049,23854.617,False,0.011891586837324143,0.028961110210630463,0.45,-0.051,-0.355,-9.879,-0.007,346.085,169.078,True,0,1,0,0
-1.204,0.112,-1.272,compass,-80.928,0.112,-76.607,-0.99,0.0,-10.22,3.205,3.3534672688175315,-53.374,346.134,0.099,23854.717,False,0.023088187399369485,0.0591485512040052,0.45,-0.051,-0.355,-9.879,-0.007,346.134,169.078,True,0,1,0,0
-1.197,0.112,-1.269,compass,-81.067,0.336,-77.176,-0.99,0.112,-10.2,3.105,3.3190470246175794,-53.346,346.162,0.099,23854.817,False,0.0221387112433184,0.05918698446172322,0.45,-0.051,-0.355,-9.918,0.0,346.162,169.078,True,0,1,0,0
-1.196,0.112,-1.267,compass,-80.713,0.112,-77.765,-0.997,-0.112,-10.2,3.105,3.2636451472417467,-53.304,346.204,0.056,23854.917,False,0.01203821083639315,0.03368877666120873,0.44,-0.051,-0.355,-9.918,0.0,346.204,169.078,True,0,1,0,0
-1.197,0.112,-1.265,compass,-80.696,-0.112,-78.212,-0.991,-0.112,-10.2,3.065,3.211673671311714,-53.261,346.247,0.056,23855.017,False,0.011619783882202113,0.03372239916288122,0.44,-0.051,-0.355,-9.918,0.0,346.247,169.078,True,0,1,0,0
-1.19,0.112,-1.263,compass,-80.879,-0.0,-78.537,-0.991,0.0,-10.24,3.065,3.184692178057737,-53.226,346.282,0.064,23855.117,False,0.012870835953777757,0.038404826782291825,0.44,-0.051,-0.316,-9.918,-0.013,346.282,169.078,True,0,1,0,0
-1.198,-0.112,-1.261,compass,-82.963,0.224,-78.891,-0.985,-0.112,-10.24,3.145,3.1640547501415273,-53.191,346.317,0.064,23855.217,False,0.012485390220619523,0.038436903057954865,0.44,-0.051,-0.355,-9.918,-0.013,346.317,169.078,True,0,1,0,0
-1.199,0.224,-1.259,compass,-79.822,-0.0,-79.058,-0.979,0.0,-10.26,3.145,3.167818050820753,-53.17,346.338,0.076,23855.317,False,0.014527502577251728,0.04544763677637257,0.44,-0.051,-0.355,-9.918,-0.022,346.338,169.078,True,0,1,0,0
-1.215,0.224,-1.258,compass,-80.06,-0.0,-79.156,-0.967,0.112,-10.26,3.225,3.201459552767913,-53.155,346.353,0.076,23855.417,False,0.014385598861390642,0.0454636906890441,0.44,-0.051,-0.355,-9.879,-0.022,346.353,169.078,True,0,1,0,0
-1.223,0.112,-1.257,compass,-80.762,0.112,-79.205,-0.954,-0.112,-10.24,3.225,3.1993325090251643,-53.14,346.368,0.08,23855.517,False,0.015043411137500523,0.04781100889356931,0.44,-0.051,-0.355,-9.879,-0.01,346.368,169.078,True,0,1,0,0
-1.231,0.224,-1.256,compass,-79.753,-0.112,-79.204,-0.948,-0.112,-10.24,3.324,3.2218771460842826,-53.14,346.368,0.08,23855.617,False,0.01501948977113628,0.04781125038298433,0.44,-0.012,-0.355,-9.875,-0.01,346.368,169.078,True,0,1,0,0
-1.231,-0.224,-1.255,compass,-83.973,0.112,-79.372,-0.948,-0.112,-10.24,3.324,3.231577454125645,-53.133,346.375,0.078,23855.718,False,0.014417100406566283,0.04665266204609942,0.44,-0.012,-0.355,-9.875,-0.01,346.375,169.078,True,0,1,0,0
-1.254,-0.224,-1.255,compass,-83.882,0.112,-79.87,-0.93,-0.224,-10.2,3.284,3.2180279814749877,-53.119,346.389,0.029,23855.918,False,0.005151963440826564,0.017500665404863745,0.45,-0.012,-0.355,-9.875,0.005,346.389,169.078,True,0,1,0,0
-1.254,-0.224,-1.255,compass,-83.882,0.112,-79.87,-0.93,-0.224,-10.2,3.284,3.2180279814749877,-53.119,346.389,0.029,23855.918,False,0.005151963440826564,0.017500665404863745,0.45,-0.012,-0.355,-9.875,0.005,346.389,169.078,True,0,1,0,0
-1.269,-0.224,-1.256,compass,-83.998,-0.0,-80.421,-0.924,-0.112,-10.22,3.284,3.2098323534764455,-53.132,346.376,0.076,23856.118,False,0.01264090175763362,0.045487345584664225,0.45,-0.012,-0.355,-9.875,-0.003,346.376,169.078,True,0,1,0,0
-1.269,-0.224,-1.256,compass,-83.998,-0.0,-80.421,-0.924,-0.112,-10.22,3.364,3.2098323534764455,-53.132,346.376,0.076,23856.118,False,0.01264090175763362,0.045487345584664225,0.45,-0.012,-0.355,-9.875,-0.003,346.376,169.078,True,0,1,0,0
-1.282,0.112,-1.257,compass,-80.644,-0.112,-80.455,-0.932,-0.224,-10.2,3.364,3.2325450157393343,-53.182,346.326,0.103,23856.318,False,0.01704324320309182,0.06174505136771079,0.45,-0.051,-0.316,-9.879,0.008,346.326,169.078,True,0,1,0,0
-1.282,0.112,-1.257,compass,-80.644,-0.112,-80.455,-0.932,-0.224,-10.2,3.105,3.2325450157393343,-53.182,346.326,0.103,23856.318,False,0.01704324320309182,0.06174505136771079,0.45,-0.051,-0.316,-9.879,0.008,346.326,169.078,True,0,1,0,0
-1.306,-0.224,-1.259,compass,-75.903,-0.0,-79.551,-0.962,-0.112,-10.2,3.105,3.139789890083774,-53.28,346.228,0.045,23856.518,False,0.008045534016493354,0.02673363516074522,0.45,-0.051,-0.316,-9.879,0.008,346.228,169.078,True,0,1,0,0
-1.306,-0.224,-1.259,compass,-75.903,-0.0,-79.551,-0.962,-0.112,-10.2,2.906,3.139789890083774,-53.28,346.228,0.045,23856.518,False,0.008045534016493354,0.02673363516074522,0.45,-0.051,-0.316,-9.879,0.008,346.228,169.078,True,0,1,0,0
-1.327,0.112,-1.263,compass,-72.127,-0.0,-78.153,-0.964,-0.224,-10.24,2.906,3.015110196741039,-53.315,346.193,0.047,23856.719,False,0.009519242310981975,0.0278729265873155,0.44,-0.051,-0.316,-9.879,-0.007,346.193,169.078,True,0,1,0,0
-1.327,0.112,-1.263,compass,-72.127,-0.0,-78.153,-0.964,-0.224,-10.24,2.767,3.015110196741039,-53.315,346.193,0.047,23856.719,False,0.009519242310981975,0.0278729265873155,0.44,-0.051,-0.316,-9.879,-0.007,346.193,169.078,True,0,1,0,0
-1.334,0.112,-1.267,compass,-72.423,0.224,-76.674,-0.964,-0.112,-10.15,2.767,2.906759052561316,-53.322,346.186,0.029,23856.919,False,0.006696543589777659,0.017417781307060218,0.44,-0.051,-0.277,-9.875,0.024,346.186,169.078,True,0,1,0,0
-1.334,0.112,-1.267,compass,-72.423,0.224,-76.674,-0.964,-0.112,-10.15,2.647,2.906759052561316,-53.322,346.186,0.029,23856.919,False,0.006696543589777659,0.017417781307060218,0.44,-0.051,-0.277,-9.875,0.024,346.186,169.078,True,0,1,0,0
-1.319,0.112,-1.27,compass,-73.126,0.112,-75.526,-0.97,0.112,-10.15,2.647,2.8370300086036138,-53.315,346.193,0.047,23857.119,False,0.011641583592050175,0.027872787587700232,0.44,-0.012,-0.316,-9.875,0.024,346.193,169.078,True,0,1,0,0
-1.319,0.112,-1.27,compass,-73.126,0.112,-75.526,-0.97,0.112,-10.15,2.787,2.8370300086036138,-53.315,346.193,0.047,23857.119,False,0.011641583592050175,0.027872787587700232,0.44,-0.012,-0.316,-9.875,0.024,346.193,169.078,True,0,1,0,0
-1.32,-0.224,-1.273,compass,-76.721,0.112,-75.022,-0.962,0.112,-10.28,2.787,2.8457431740923576,-53.329,346.179,0.029,23857.319,False,0.007524467150310162,0.017414875853691704,0.44,-0.012,-0.316,-9.875,-0.022,346.179,169.078,True,0,1,0,0
-1.32,-0.224,-1.273,compass,-76.721,0.112,-75.022,-0.962,0.112,-10.28,2.767,2.8457431740923576,-53.329,346.179,0.029,23857.319,False,0.007524467150310162,0.017414875853691704,0.44,-0.012,-0.316,-9.875,-0.022,346.179,169.078,True,0,1,0,0
-1.286,-0.112,-1.274,compass,-75.837,0.112,-75.024,-0.952,0.224,-10.2,2.767,2.8558475591442156,-53.287,346.221,0.029,23857.519,False,0.007542403286926786,0.017432092071010298,0.44,-0.012,-0.316,-9.914,0.007,346.221,169.078,True,0,1,0,0
-1.286,-0.112,-1.274,compass,-75.837,0.112,-75.024,-0.952,0.224,-10.2,2.727,2.8558475591442156,-53.287,346.221,0.029,23857.519,False,0.007542403286926786,0.017432092071010298,0.44,-0.012,-0.316,-9.914,0.007,346.221,169.078,True,0,1,0,0
-1.259,-0.224,-1.274,compass,-76.779,-0.0,-74.96,-0.943,0.112,-10.2,2.727,2.8338381458812236,-53.239,346.269,0.084,23857.719,False,0.02175208112757311,0.0500285651239416,0.44,-0.012,-0.355,-9.875,0.007,346.269,169.078,True,0,1,0,0
-1.259,-0.224,-1.274,compass,-76.779,-0.0,-74.96,-0.943,0.112,-10.2,2.548,2.8338381458812236,-53.239,346.269,0.084,23857.719,False,0.02175208112757311,0.0500285651239416,0.44,-0.012,-0.355,-9.875,0.007,346.269,169.078,True,0,1,0,0
-1.239,0.0,-1.272,compass,-74.002,-0.112,-74.9,-0.94,0.0,-10.22,2.548,2.7442153646017498,-53.232,346.276,0.043,23857.919,False,0.011162898324549057,0.025600007813202905,0.44,-0.051,-0.355,-9.879,-0.001,346.276,169.078,True,0,1,0,0
-1.239,0.0,-1.272,compass,-74.002,-0.112,-74.9,-0.94,0.0,-10.22,2.389,2.7442153646017498,-53.232,346.276,0.043,23857.919,False,0.011162898324549057,0.025600007813202905,0.44,-0.051,-0.355,-9.879,-0.001,346.276,169.078,True,0,1,0,0
-1.204,0.0,-1.268,compass,-74.001,0.112,-74.925,-0.936,0.0,-10.2,2.389,2.6264067198229832,-53.232,346.276,0.023,23858.119,False,0.006074891489988005,0.013963501181662851,0.44,-0.051,-0.355,-9.879,0.009,346.276,169.078,True,0,1,0,0
-1.189,-0.112,-1.266,compass,-75.411,-0.224,-74.927,-0.941,0.0,-10.24,2.389,2.5722496073963415,-53.253,346.255,0.023,23858.219,False,0.006065791557003514,0.01395660791135587,0.44,-0.051,-0.355,-9.879,-0.012,346.255,169.078,True,0,1,0,0
-1.175,-0.112,-1.263,compass,-75.772,-0.224,-74.966,-0.939,0.112,-10.24,2.389,2.5426751111599417,-53.289,346.219,0.019,23858.319,False,0.0050332317229051,0.011620792091098191,0.44,-0.051,-0.355,-9.918,-0.012,346.219,169.078,True,0,1,0,0
-1.175,0.112,-1.261,compass,-76.836,-0.112,-75.053,-0.939,0.112,-10.24,2.229,2.491096296330662,-53.289,346.219,0.019,23858.419,False,0.0050067502157230895,0.011620792091098191,0.44,-0.051,-0.355,-9.879,-0.012,346.219,169.078,True,0,1,0,0
-1.176,-0.112,-1.258,compass,-79.814,-0.0,-75.169,-0.932,0.112,-10.2,2.229,2.44713256872842,-53.282,346.226,0.047,23858.519,False,0.011933190865724606,0.02789452024129727,0.44,-0.051,-0.355,-9.879,0.003,346.226,169.078,True,0,1,0,0
-1.183,0.112,-1.256,compass,-75.9,0.112,-75.182,-0.933,-0.112,-10.2,2.01,2.3441820161761817,-53.282,346.226,0.047,23858.619,False,0.011925030477541041,0.02789457558573211,0.44,-0.051,-0.355,-9.879,0.003,346.226,169.078,True,0,1,0,0
-1.189,-0.112,-1.254,compass,-79.384,0.224,-75.325,-0.94,-0.112,-10.2,2.01,2.2580440477131414,-53.282,346.226,0.047,23858.72,False,0.011813476568737347,0.027894544293840334,0.44,-0.051,-0.355,-9.918,0.003,346.226,169.078,True,0,1,0,0
-1.196,0.112,-1.252,compass,63.437,-0.112,-66.578,-0.941,-0.224,-10.17,0.0,1.799490004058295,-53.274,346.234,0.047,23858.82,False,0.018546212131385652,0.02789967965393868,0.44,-0.051,-0.355,-9.879,0.012,346.234,169.078,True,0,1,0,0
-1.204,0.112,-1.251,compass,-0.0,-0.112,-59.654,-0.935,0.0,-10.17,0.0,1.4175013564139813,-53.274,346.234,0.002,23858.92,False,0.0009821630299930845,0.0011624925671331302,0.44,-0.051,-0.355,-9.879,0.012,346.234,169.078,True,0,1,0,0
-1.21,0.112,-1.249,compass,-45.003,0.224,-54.739,-0.943,0.112,-10.17,0.0,1.1250379497206642,-53.274,346.234,0.002,23859.02,False,0.0011222977709295378,0.0011624913064397161,0.44,-0.051,-0.355,-9.918,0.011,346.234,169.078,True,0,1,0,0
-1.224,-0.112,-1.249,compass,116.563,0.112,-43.513,-0.945,-0.224,-10.17,0.0,0.9199125760798417,-53.281,346.227,0.056,23859.12,False,-0.030441670595284468,0.03370690779400768,0.44,-0.051,-0.355,-9.879,0.011,346.227,169.078,True,0,1,0,0
-1.237,-0.112,-1.248,compass,116.563,0.112,-30.618,-0.953,-0.224,-10.17,0.0,0.7590461247484439,-53.267,346.241,0.056,23859.22,False,-0.05576120371653389,0.03371789125633735,0.44,-0.051,-0.355,-9.918,0.011,346.241,169.078,True,0,1,0,0
-1.243,0.112,-1.248,compass,45.003,0.224,-20.474,-0.961,-0.112,-10.2,0.0,0.6223854489932849,-53.267,346.241,0.056,23859.32,False,-0.04903626411744906,0.03371785724369487,0.44,-0.051,-0.355,-9.879,0.0,346.241,169.078,True,0,1,0,0
-1.243,-0.112,-1.248,compass,134.997,0.224,-9.34,-0.961,-0.112,-10.2,0.0,0.513569108472331,-53.26,346.248,0.056,23859.42,False,-0.03151879107577583,0.03372333184216539,0.44,-0.051,-0.316,-9.918,0.0,346.248,169.078,True,0,1,0,0
-1.249,0.0,-1.248,compass,-0.0,-0.0,-7.908,-0.969,0.0,-10.2,0.0,0.40491011751926537,-53.26,346.248,0.019,23859.52,False,-0.002067130398988993,0.011628723621201442,0.44,-0.051,-0.316,-9.879,0.0,346.248,169.078,True,0,1,0,0
-1.256,-0.112,-1.248,compass,134.997,0.224,4.901,-0.97,-0.112,-10.2,0.0,0.33701483320242204,-53.26,346.248,0.019,23859.62,False,0.0013422054244466761,0.011628747442169766,0.44,-0.051,-0.355,-9.879,0.0,346.248,169.078,True,0,1,0,0
-1.263,0.112,-1.249,compass,45.003,0.112,12.52,-0.971,-0.112,-10.2,0.0,0.2872158721968735,-53.253,346.255,0.039,23859.72,False,0.00952225701060662,0.023261317901430822,0.44,-0.051,-0.316,-9.879,0.0,346.255,169.078,True,0,1,0,0
-1.264,0.112,-1.249,compass,63.437,0.112,19.922,-0.964,-0.224,-10.22,0.0,0.2588354131993278,-53.26,346.248,0.039,23859.82,False,0.013743478866724468,0.023257612485260214,0.44,-0.012,-0.316,-9.875,-0.007,346.248,169.078,True,0,1,0,0
-1.271,0.112,-1.25,compass,-0.0,0.112,21.373,-0.965,0.0,-10.22,0.0,0.22235566903567783,-53.267,346.241,0.041,23859.92,False,0.020481525415212035,0.024416578630717035,0.44,-0.012,-0.316,-9.875,-0.007,346.241,169.078,True,0,1,0,0
-1.278,0.0,-1.251,compass,90.0,-0.0,23.836,-0.965,-0.112,-10.2,0.0,0.19308264156441987,-53.273,346.235,0.041,23860.02,False,0.02406764362264742,0.024412663900793954,0.44,-0.012,-0.355,-9.875,0.004,346.235,169.078,True,0,1,0,0
-1.286,-0.112,-1.252,compass,134.997,-0.224,29.902,-0.959,-0.112,-10.2,0.0,0.17319102060909047,-53.273,346.235,0.039,23860.12,False,0.023216247814467027,0.023250272913448715,0.44,-0.012,-0.316,-9.875,0.004,346.235,169.078,True,0,1,0,0
-1.287,0.0,-1.253,compass,90.0,-0.0,33.727,-0.945,-0.112,-10.2,0.0,0.15222431350934612,-53.273,346.235,0.039,23860.22,False,0.02393270351532632,0.023250411123316893,0.44,-0.051,-0.355,-9.879,0.004,346.235,169.078,True,0,1,0,0
-1.281,-0.112,-1.254,compass,-134.997,-0.0,31.752,-0.937,0.112,-10.26,0.0,0.1409700280750706,-53.28,346.228,0.017,23860.32,False,0.012152021532397353,0.010460995772489507,0.44,-0.012,-0.355,-9.875,-0.017,346.228,169.078,True,0,1,0,0
-1.281,-0.224,-1.254,compass,-153.432,-0.112,22.708,-0.937,0.112,-10.26,0.0,0.1436638390386547,-53.301,346.207,0.017,23860.42,False,0.014536869000700847,0.010455691259748604,0.44,-0.051,-0.316,-9.879,-0.017,346.207,169.078,True,0,1,0,0
-1.282,0.112,-1.255,compass,45.003,-0.0,17.808,-0.93,-0.112,-10.24,0.0,0.13949533594841762,-53.336,346.172,0.039,23860.52,False,0.03481231805333033,0.023216048106208916,0.44,-0.051,-0.316,-9.879,-0.005,346.172,169.078,True,0,1,0,0
-1.283,-0.112,-1.256,compass,-134.997,-0.0,9.409,-0.922,0.112,-10.24,0.0,0.13569665843680664,-53.371,346.137,0.039,23860.62,False,-0.0035791220208551697,0.02319675927582444,0.44,-0.051,-0.355,-9.879,-0.005,346.137,169.078,True,0,1,0,0
-1.276,0.0,-1.257,compass,-90.0,-0.112,0.602,-0.92,0.112,-10.24,0.0,0.1238890010514255,-53.414,346.094,0.025,23860.721,False,-0.021127831365097854,0.015062815876251886,0.44,-0.051,-0.316,-9.879,-0.005,346.094,169.078,True,0,1,0,0
-1.269,0.0,-1.257,compass,-90.0,-0.0,-7.982,-0.919,0.112,-10.28,0.0,0.11414257989691283,-53.456,346.052,0.025,23860.821,False,-0.025170473155048185,0.015048030919496939,0.44,-0.051,-0.355,-9.879,-0.018,346.052,169.078,True,0,1,0,0
-1.262,-0.112,-1.257,compass,-134.997,-0.0,-20.971,-0.917,0.112,-10.28,0.0,0.10846447200290943,-53.505,346.003,0.006,23860.921,False,-0.0051102851355921755,0.0034685713523703345,0.44,-0.051,-0.355,-9.918,-0.018,346.003,169.078,True,0,1,0,0
-1.241,0.0,-1.257,compass,90.0,-0.0,-23.515,-0.914,-0.112,-10.2,0.0,0.09907628637052882,-53.548,345.96,0.006,23861.021,False,-0.003356318633578623,0.0034650720872317457,0.44,-0.09,-0.355,-9.914,0.023,345.96,169.078,True,0,1,0,0
-1.233,0.112,-1.256,compass,-45.003,-0.112,-24.176,-0.92,0.112,-10.2,0.0,0.10408432752106712,-53.562,345.946,0.041,23861.121,False,-0.009502428067694545,0.024247425765358984,0.44,-0.051,-0.355,-9.918,0.023,345.946,169.078,True,0,1,0,0
-1.225,0.112,-1.255,compass,-45.003,-0.0,-24.947,-0.926,0.112,-10.2,0.0,0.10788595595409871,-53.584,345.924,0.041,23861.221,False,0.002268687096106014,0.02423487400046981,0.44,-0.051,-0.355,-9.918,0.023,345.924,169.078,True,0,1,0,0
-1.218,0.112,-1.254,compass,-45.003,-0.112,-25.059,-0.924,0.112,-10.24,0.0,0.11428604409522095,-53.598,345.91,0.058,23861.321,False,0.01672769702728512,0.03460980847177865,0.44,-0.051,-0.355,-9.918,0.008,345.91,169.078,True,0,1,0,0
-1.211,0.112,-1.253,compass,-0.0,-0.112,-23.427,-0.923,0.0,-10.24,0.0,0.1145447777075875,-53.626,345.882,0.058,23861.421,False,0.028178930759316715,0.03458699239574039,0.44,-0.051,-0.355,-9.918,0.008,345.882,169.078,True,0,1,0,0
-1.203,0.112,-1.251,compass,-45.003,-0.0,-23.742,-0.929,0.112,-10.24,0.0,0.11593277277507884,-53.648,345.86,0.039,23861.521,False,0.023315756417588568,0.0230460291540516,0.44,-0.051,-0.355,-9.918,0.008,345.86,169.078,True,0,1,0,0
-1.209,-0.112,-1.25,compass,134.997,-0.0,-18.319,-0.936,-0.112,-10.26,0.0,0.11785019299190924,-53.683,345.825,0.039,23861.621,False,-0.019706629787518207,0.02302656275568848,0.44,-0.051,-0.355,-9.879,0.0,345.825,169.078,True,0,1,0,0
-1.208,-0.112,-1.249,compass,-180.0,0.112,-20.007,-0.942,0.0,-10.26,0.0,0.11134024478423644,-53.711,345.797,0.031,23861.721,False,-0.005243273894895253,0.018409048098118407,0.44,-0.051,-0.355,-9.879,0.0,345.797,169.078,True,0,1,0,0
-1.207,-0.112,-1.247,compass,134.998,0.224,-15.718,-0.949,-0.112,-10.22,0.0,0.11257937411970874,-53.732,345.776,0.031,23861.821,False,-0.028646260222400445,0.01839987963929301,0.44,-0.051,-0.355,-9.879,0.02,345.776,169.078,True,0,1,0,0
-1.213,-0.112,-1.246,compass,-134.998,0.112,-16.356,-0.957,0.112,-10.22,0.0,0.11917318354171122,-53.747,345.761,0.06,23861.921,False,-0.035961602617537794,0.035637221067599374,0.44,-0.012,-0.355,-9.875,0.02,345.761,169.078,True,0,1,0,0
-1.213,-0.112,-1.245,compass,134.998,0.112,-12.173,-0.964,-0.112,-10.22,0.0,0.12499153663971532,-53.725,345.783,0.06,23862.021,False,-0.06019957436595688,0.03565550013533356,0.44,-0.051,-0.355,-9.879,0.02,345.783,169.078,True,0,1,0,0
-1.212,-0.224,-1.244,compass,153.433,0.224,-2.643,-0.971,-0.112,-10.13,0.0,0.13308882136118666,-53.705,345.803,0.033,23862.122,False,-0.028432534283299712,0.019562634245981817,0.44,-0.012,-0.355,-9.875,0.048,345.803,169.078,True,0,1,0,0
-1.219,-0.112,-1.244,compass,-180.0,-0.112,-3.61,-0.972,0.0,-10.13,0.0,0.12442510272036478,-53.683,345.825,0.033,23862.222,False,-0.01395653830229973,0.019572753687464483,0.44,-0.012,-0.316,-9.875,0.048,345.825,169.078,True,0,1,0,0
-1.219,-0.112,-1.243,compass,134.998,0.112,0.463,-0.973,-0.112,-10.13,0.0,0.12350895360057479,-53.627,345.881,0.037,23862.322,False,-0.0019453588714606952,0.02190470584482594,0.44,-0.012,-0.316,-9.875,0.048,345.881,169.078,True,0,1,0,0
-1.221,0.224,-1.242,compass,45.002,-0.0,5.25,-0.96,-0.224,-10.22,0.0,0.1413160082812882,-53.571,345.937,0.037,23862.422,False,0.00799657904663009,0.02193365142192686,0.44,-0.051,-0.316,-9.879,0.013,345.937,169.078,True,0,1,0,0
-1.229,0.112,-1.242,compass,63.437,0.112,8.998,-0.948,-0.224,-10.22,0.0,0.15362484760025313,-53.528,345.98,0.072,23862.522,False,0.02995264418310409,0.04275616932972194,0.44,-0.051,-0.316,-9.879,0.013,345.98,169.078,True,0,1,0,0
-1.238,0.0,-1.242,compass,-103.999,-0.112,8.012,-0.935,0.0,-10.22,2.249,0.6302403510956324,-53.514,345.994,0.072,23862.622,False,0.04426781444228128,0.042770531752591295,0.44,-0.051,-0.316,-9.879,0.013,345.994,169.078,True,0,1,0,0
-1.24,0.112,-1.242,compass,-102.834,-0.224,2.122,-0.922,-0.112,-10.24,2.249,0.9739802803194908,-53.492,346.016,0.017,23862.722,False,-0.007567928172668353,0.010409027811555456,0.44,-0.012,-0.316,-9.875,0.005,346.016,169.078,True,0,1,0,0
-1.264,0.112,-1.242,compass,-102.931,-0.112,-6.513,-0.897,-0.112,-10.24,2.448,1.2853874273324775,-53.462,346.046,0.017,23862.822,False,-0.016564732666968226,0.01041623833882634,0.44,-0.051,-0.355,-9.879,0.005,346.046,169.078,True,0,1,0,0
-1.271,0.0,-1.243,compass,-104.351,-0.224,-16.31,-0.898,-0.112,-10.2,2.448,1.5367718385742077,-53.435,346.073,0.058,23862.922,False,-0.05665459123338809,0.03474356571050365,0.44,-0.051,-0.316,-9.879,0.025,346.073,169.078,True,0,1,0,0
-1.271,-0.112,-1.244,compass,-105.606,-0.0,-26.527,-0.899,-0.112,-10.2,2.667,1.7823450703488017,-53.399,346.109,0.058,23863.022,False,-0.04687259374998989,0.034772627412873416,0.44,-0.051,-0.355,-9.879,0.025,346.109,169.078,True,0,1,0,0
-1.279,0.112,-1.245,compass,-103.021,-0.112,-36.369,-0.893,-0.112,-10.2,2.667,1.9655752477267607,-53.371,346.137,0.058,23863.123,False,-0.03557311206949287,0.03479548578283822,0.44,-0.051,-0.355,-9.879,0.025,346.137,169.078,True,0,1,0,0
-1.271,0.0,-1.246,compass,-103.714,-0.0,-45.58,-0.9,0.112,-10.17,2.906,2.188652257251296,-53.343,346.165,0.058,23863.223,False,-0.02622011590408997,0.03481868212215155,0.44,-0.051,-0.355,-9.879,0.032,346.165,169.078,True,0,1,0,0
-1.264,0.112,-1.246,compass,-102.569,-0.0,-54.063,-0.906,0.112,-10.17,2.906,2.3570198633612685,-53.329,346.179,0.016,23863.323,False,-0.0052032735703815116,0.009287958884130665,0.43,-0.051,-0.355,-9.879,0.032,346.179,169.078,True,0,1,0,0
-1.262,-0.112,-1.247,compass,-105.124,0.112,-61.681,-0.921,0.0,-10.22,2.986,2.499028599888442,-53.301,346.207,0.016,23863.423,False,-0.004009877997632474,0.009293947769840834,0.43,-0.051,-0.355,-9.879,0.004,346.207,169.078,True,0,1,0,0
-1.24,0.112,-1.247,compass,-102.607,-0.0,-68.055,-0.925,0.112,-10.22,2.986,2.616543247404878,-53.28,346.228,0.07,23863.523,False,-0.014295666124284245,0.041843607569394634,0.43,-0.051,-0.355,-9.918,0.004,346.228,169.078,True,0,1,0,0
-1.233,-0.112,-1.246,compass,-105.109,-0.112,-73.663,-0.932,0.0,-10.17,3.026,2.7096181700707413,-53.26,346.248,0.07,23863.623,False,-0.012105932268379376,0.04186378665006064,0.43,-0.051,-0.355,-9.879,0.029,346.248,169.078,True,0,1,0,0
-1.209,-0.112,-1.245,compass,-104.535,-0.224,-78.671,-0.951,0.224,-10.17,3.026,2.8079590171498716,-53.232,346.276,0.031,23863.723,False,-0.004954262447521491,0.018617924214746825,0.43,-0.051,-0.316,-9.879,0.029,346.276,169.078,True,0,1,0,0
-1.194,-0.112,-1.244,compass,-104.796,-0.0,-82.956,-0.963,0.112,-10.17,3.105,2.889052468590028,-53.233,346.275,0.031,23863.823,False,-0.004835554046278405,0.018617733987828827,0.43,-0.051,-0.355,-9.918,0.026,346.275,169.078,True,0,1,0,0
-1.186,0.112,-1.242,compass,-102.422,-0.112,-86.343,-0.969,0.224,-10.17,3.105,2.9581284139115884,-53.233,346.275,0.066,23863.923,False,-0.010128373127318143,0.03956248145775757,0.43,-0.051,-0.355,-9.879,0.026,346.275,169.078,True,0,1,0,0
-1.178,-0.112,-1.24,compass,-104.817,-0.0,-89.231,-0.975,0.112,-10.17,3.026,2.9875216727506246,-53.261,346.247,0.066,23864.023,False,-0.010319804310480319,0.03953660841117078,0.43,-0.051,-0.355,-9.879,0.026,346.247,169.078,True,0,1,0,0
-1.17,-0.112,-1.238,compass,-104.817,0.336,-91.826,-0.98,0.112,-10.22,3.026,3.011277733071979,-53.275,346.233,0.031,23864.123,False,-0.005103599906025665,0.01859932524421561,0.43,-0.051,-0.355,-9.879,0.006,346.233,169.078,True,0,1,0,0
-1.163,-0.112,-1.236,compass,-105.483,0.112,-94.027,-0.979,-0.112,-10.22,2.886,2.973279940433945,-53.297,346.211,0.031,23864.223,False,-0.005393966584649502,0.018589857699611197,0.43,-0.051,-0.355,-9.879,0.006,346.211,169.078,True,0,1,0,0
-1.156,0.112,-1.233,compass,-103.098,-0.112,-95.799,-0.978,-0.112,-10.17,2.886,2.9372307520421383,-53.333,346.175,0.025,23864.323,False,-0.004595176397883552,0.01509165221439026,0.43,-0.051,-0.355,-9.918,0.031,346.175,169.078,True,0,1,0,0
-1.157,0.112,-1.231,compass,-103.065,-0.112,-97.201,-0.97,-0.112,-10.17,2.787,2.887215493980279,-53.36,346.148,0.025,23864.423,False,-0.004766141120712244,0.015081873651583791,0.43,-0.012,-0.355,-9.875,0.031,346.148,169.078,True,0,1,0,0
-1.156,-0.112,-1.229,compass,-105.537,-0.112,-98.433,-0.977,-0.112,-10.24,2.787,2.85474288719974,-53.388,346.12,0.025,23864.523,False,-0.004959462541115167,0.015071996457330115,0.43,-0.051,-0.355,-9.879,-0.007,346.12,169.078,True,0,1,0,0
-1.15,0.112,-1.226,compass,-102.509,-0.224,-99.358,-0.968,0.112,-10.24,2.787,2.8488876485776604,-53.438,346.07,0.002,23864.623,False,-0.005101824434667406,0.015054504248649283,0.43,-0.051,-0.355,-9.879,-0.007,346.07,169.078,True,0,1,0,0
-1.15,-0.112,-1.224,compass,-105.537,-0.0,-100.297,-0.968,-0.112,-10.2,2.787,2.8257381047958297,-53.444,346.064,0.002,23864.723,False,-0.0004071108788045451,0.0011578496144871693,0.43,-0.051,-0.355,-9.918,0.014,346.064,169.078,True,0,1,0,0
-1.151,0.112,-1.222,compass,-105.743,-0.224,-101.13,-0.961,0.0,-10.2,2.667,2.7871559616484127,-53.452,346.056,0.027,23864.823,False,-0.0004218618613490633,0.0011576409433174302,0.43,-0.051,-0.355,-9.918,0.014,346.056,169.078,True,0,1,0,0
-1.151,0.112,-1.22,compass,-105.743,-0.0,-101.74,-0.954,0.0,-10.17,2.667,2.7559808326209745,-53.452,346.056,0.027,23864.923,False,-0.006045684040744561,0.01620702489036207,0.43,-0.051,-0.355,-9.918,0.027,346.056,169.078,True,0,1,0,0
-1.152,0.0,-1.218,compass,-111.553,-0.112,-102.57,-0.947,0.112,-10.17,2.866,2.7914510306759697,-53.466,346.042,0.07,23865.023,False,-0.006323368788092016,0.016201778334656147,0.43,-0.051,-0.355,-9.918,0.027,346.042,169.078,True,0,1,0,0
-1.167,0.224,-1.216,compass,-110.579,-0.336,-103.234,-0.941,-0.224,-10.17,2.866,2.7699078235015184,-53.493,346.015,0.07,23865.123,False,-0.016848075147054938,0.04163476117225414,0.43,-0.051,-0.355,-9.918,0.027,346.015,169.078,True,0,1,0,0
-1.174,0.0,-1.215,compass,-112.45,-0.224,-104.036,-0.941,-0.112,-10.2,2.946,2.7925325839722848,-53.522,345.986,0.029,23865.224,False,-0.017641856566229137,0.04160674322006166,0.43,-0.09,-0.355,-9.875,0.015,345.986,169.078,True,0,1,0,0
-1.182,-0.112,-1.214,compass,-113.554,-0.0,-105.093,-0.935,-0.112,-10.2,2.946,2.817480292477497,-53.556,345.952,0.029,23865.324,False,-0.007822675599432687,0.01732202764076719,0.43,-0.051,-0.395,-9.914,0.015,345.952,169.078,True,0,1,0,0
-1.188,-0.112,-1.213,compass,-113.972,0.112,-106.142,-0.942,-0.224,-10.28,3.045,2.846492480796111,-53.613,345.895,0.058,23865.424,False,-0.008306779490973405,0.01729891667356442,0.43,-0.051,-0.395,-9.875,-0.026,345.895,169.078,True,0,1,0,0
-1.207,0.112,-1.213,compass,-111.35,-0.112,-106.887,-0.95,-0.112,-10.28,3.045,2.869323564698464,-53.684,345.824,0.058,23865.524,False,-0.0173055645689942,0.034539627547085346,0.43,-0.051,-0.355,-9.918,-0.026,345.824,169.078,True,0,1,0,0
-1.214,0.112,-1.213,compass,-111.779,-0.224,-107.514,-0.95,-0.224,-10.22,2.966,2.857156001194527,-53.718,345.79,0.033,23865.624,False,-0.017859907323394323,0.03451123327690729,0.43,-0.051,-0.355,-9.918,0.008,345.79,169.078,True,0,1,0,0
-1.227,-0.112,-1.213,compass,-114.026,0.112,-108.266,-0.958,-0.224,-10.22,2.966,2.8595823090937476,-53.747,345.761,0.033,23865.724,False,-0.01050674434593417,0.019543072281600633,0.43,-0.051,-0.355,-9.879,0.008,345.761,169.078,True,0,1,0,0
-1.241,0.112,-1.214,compass,-111.778,0.112,-108.86,-0.96,-0.224,-10.22,2.946,2.8466972532264734,-53.767,345.741,0.016,23865.824,False,-0.010807364533406012,0.019533468160808483,0.43,-0.051,-0.355,-9.879,0.008,345.741,169.078,True,0,1,0,0
-1.255,0.0,-1.215,compass,-112.918,0.112,-109.463,-0.961,-0.224,-10.24,2.946,2.8428894293809277,-53.788,345.72,0.016,23865.924,False,-0.00523133783771006,0.009187699789639046,0.43,-0.051,-0.316,-9.879,0.0,345.72,169.078,True,0,1,0,0
-1.261,0.0,-1.217,compass,-112.501,-0.0,-109.955,-0.968,-0.112,-10.24,2.647,2.786574197380215,-53.824,345.684,0.078,23866.024,False,-0.005353354893973901,0.009179899691183307,0.43,-0.012,-0.316,-9.875,0.0,345.684,169.078,True,0,1,0,0
-1.268,0.0,-1.218,compass,-113.027,-0.112,-110.091,-0.969,-0.224,-10.24,2.647,2.7261258850312657,-53.851,345.657,0.078,23866.124,False,-0.02691636328303172,0.04586918332562369,0.43,-0.012,-0.316,-9.875,0.0,345.657,169.078,True,0,1,0,0
-1.276,0.224,-1.22,compass,-109.645,-0.224,-110.01,-0.962,-0.112,-10.17,2.289,2.6030715048807846,-53.88,345.628,0.017,23866.224,False,-0.026796497461771263,0.04583803940983088,0.43,-0.012,-0.355,-9.875,0.024,345.628,169.078,True,0,1,0,0
-1.283,0.112,-1.222,compass,-111.128,-0.112,-110.255,-0.955,-0.112,-10.17,2.289,2.5156243395215165,-53.922,345.586,0.017,23866.324,False,-0.00609951350563138,0.010303123902307547,0.43,-0.012,-0.316,-9.875,0.024,345.586,169.078,True,0,1,0,0
-1.293,0.112,-1.224,compass,-106.4,-0.224,-110.19,-0.934,0.0,-10.17,2.09,2.4170931817855306,-53.992,345.516,0.062,23866.424,False,-0.0060870931736245375,0.010285891848080318,0.43,-0.051,-0.316,-9.879,0.021,345.516,169.078,True,0,1,0,0
-1.301,0.0,-1.226,compass,-108.527,-0.112,-109.776,-0.928,-0.112,-10.17,2.09,2.3289234319559937,-54.026,345.482,0.062,23866.524,False,-0.021210836146488637,0.036541774747792966,0.43,-0.051,-0.316,-9.879,0.021,345.482,169.078,True,0,1,0,0
-1.293,-0.112,-1.228,compass,-134.996,-0.112,-101.664,-0.926,0.112,-10.17,0.0,1.8355421259834188,-54.055,345.453,0.019,23866.624,False,-0.012732698926918045,0.03651653628421192,0.43,-0.051,-0.355,-9.918,0.021,345.453,169.078,True,0,1,0,0
-1.293,0.0,-1.23,compass,-90.0,-0.224,-99.374,-0.933,0.112,-10.22,0.0,1.4447452648788304,-54.076,345.432,0.019,23866.724,False,-0.00321016636623395,0.01140566564616626,0.43,-0.051,-0.316,-9.879,0.002,345.432,169.078,True,0,1,0,0
-1.292,0.0,-1.232,compass,-0.0,-0.0,-78.328,-0.933,0.0,-10.22,0.0,1.1313206371319757,-54.098,345.41,0.031,23866.824,False,-0.017974632967411596,0.011399702945096723,0.43,-0.051,-0.316,-9.879,0.002,345.41,169.078,True,0,1,0,0
-1.292,-0.112,-1.234,compass,134.997,-0.224,-67.363,-0.939,-0.112,-10.17,0.0,0.907429223742048,-54.119,345.389,0.031,23866.924,False,-0.01967054869285723,0.018230316883093938,0.43,-0.051,-0.355,-9.879,0.027,345.389,169.078,True,0,1,0,0
-1.283,-0.112,-1.235,compass,-180.0,-0.0,-63.05,-0.952,0.0,-10.17,0.0,0.7252876278021316,-54.14,345.368,0.016,23867.024,False,-0.011312236860937725,0.01822101315528609,0.42,-0.051,-0.355,-9.918,0.027,345.368,169.078,True,0,1,0,0
-1.269,0.0,-1.236,compass,-90.0,-0.0,-62.573,-0.95,0.112,-10.17,0.0,0.5807000570212215,-54.155,345.353,0.016,23867.124,False,-0.0027663229854338776,0.009107220604935762,0.42,-0.051,-0.316,-9.879,0.027,345.353,169.078,True,0,1,0,0
-1.262,-0.112,-1.237,compass,134.997,-0.224,-54.073,-0.949,-0.112,-10.2,0.0,0.4750716453245946,-54.169,345.339,0.017,23867.225,False,0.0017680352376607457,0.009104149307857063,0.42,-0.012,-0.355,-9.875,0.014,345.339,169.078,True,0,1,0,0
-1.248,0.112,-1.238,compass,-0.0,-0.448,-46.036,-0.946,0.0,-10.2,0.0,0.3876686982249065,-54.198,345.31,0.017,23867.325,False,0.006272128429150834,0.01023503441757975,0.42,-0.051,-0.316,-9.879,0.014,345.31,169.078,True,0,1,0,0
-1.242,0.0,-1.238,compass,-90.0,-0.0,-42.372,-0.938,0.112,-10.17,0.0,0.31914731273165503,-54.211,345.297,0.029,23867.425,False,0.008670650248448585,0.010231609892481739,0.42,-0.051,-0.316,-9.879,0.028,345.297,169.078,True,0,1,0,0
-1.235,-0.224,-1.237,compass,-134.997,-0.224,-50.109,-0.937,0.224,-10.2,0.0,0.2604789097206528,-54.232,345.276,0.029,23867.625,False,0.0141239349083171,0.017044057353698346,0.42,-0.051,-0.316,-9.879,0.011,345.276,169.078,True,0,1,0,0
-1.235,-0.224,-1.237,compass,-134.997,-0.224,-50.109,-0.937,0.224,-10.2,0.0,0.2604789097206528,-54.232,345.276,0.056,23867.625,False,0.0141239349083171,0.017044057353698346,0.42,-0.051,-0.316,-9.879,0.011,345.276,169.078,True,0,1,0,0
-1.233,0.112,-1.237,compass,-45.003,-0.112,-51.857,-0.951,0.112,-10.2,0.0,0.20142357045541848,-54.254,345.254,0.056,23867.825,False,0.02944173442485501,0.032934304688013005,0.42,-0.09,-0.355,-9.875,0.011,345.254,169.078,True,0,1,0,0
-1.233,0.112,-1.237,compass,-45.003,-0.112,-51.857,-0.951,0.112,-10.2,0.0,0.20142357045541848,-54.254,345.254,0.023,23867.825,False,0.02944173442485501,0.032934304688013005,0.42,-0.09,-0.355,-9.875,0.011,345.254,169.078,True,0,1,0,0
-1.216,0.0,-1.236,compass,-90.0,-0.112,-62.311,-0.97,0.224,-10.2,0.0,0.17422393066758377,-54.248,345.26,0.023,23868.025,False,0.009354615758233419,0.01363009280257715,0.42,-0.051,-0.355,-9.879,0.01,345.26,169.078,True,0,1,0,0
-1.216,0.0,-1.236,compass,-90.0,-0.112,-62.311,-0.97,0.224,-10.2,0.0,0.17422393066758377,-54.248,345.26,0.043,23868.025,False,0.009354615758233419,0.01363009280257715,0.42,-0.051,-0.355,-9.879,0.01,345.26,169.078,True,0,1,0,0
-1.178,0.0,-1.233,compass,-90.0,0.112,-67.2,-0.994,0.224,-10.2,0.0,0.1497023586201152,-54.206,345.302,0.043,23868.225,False,0.014886385372268765,0.025013662880172857,0.42,-0.051,-0.355,-9.879,0.009,345.302,169.078,True,0,1,0,0
-1.178,0.0,-1.233,compass,-90.0,0.112,-67.2,-0.994,0.224,-10.2,0.0,0.1497023586201152,-54.206,345.302,0.045,23868.225,False,0.014886385372268765,0.025013662880172857,0.42,-0.051,-0.355,-9.879,0.009,345.302,169.078,True,0,1,0,0
-1.157,0.112,-1.229,compass,-45.001,-0.224,-63.92,-0.999,0.112,-10.2,0.0,0.12652398646543894,-54.15,345.358,0.045,23868.426,False,0.018640914366821262,0.0261860717409386,0.42,-0.051,-0.355,-9.879,0.009,345.358,169.078,True,0,1,0,0
-1.151,0.112,-1.227,compass,-45.001,-0.112,-61.609,-0.991,0.112,-10.2,0.0,0.1222620695069225,-54.129,345.379,0.043,23868.426,False,0.019604684652636442,0.025060164691099878,0.42,-0.051,-0.355,-9.879,0.009,345.379,169.078,True,0,1,0,0
-1.152,0.0,-1.224,compass,-8.0,-0.0,-61.237,-0.985,0.0,-10.2,2.229,0.5908459267538693,-54.094,345.414,0.043,23868.626,False,0.020030064788924155,0.02508175919973594,0.42,-0.012,-0.355,-9.914,0.008,345.414,169.078,True,0,1,0,0
-1.153,0.0,-1.222,compass,-6.449,-0.0,-58.356,-0.979,-0.112,-10.2,2.229,0.9559081948109216,-54.073,345.435,0.041,23868.726,False,0.02103076646521962,0.023953766057276706,0.42,-0.012,-0.355,-9.914,0.008,345.435,169.078,True,0,1,0,0
-1.147,0.112,-1.22,compass,-10.641,-0.224,-54.297,-0.971,0.224,-10.2,2.349,1.287002191471272,-54.051,345.457,0.041,23868.826,False,0.02354628816918048,0.02396631196501299,0.42,-0.051,-0.355,-9.918,0.007,345.457,169.078,True,0,1,0,0
-1.155,-0.112,-1.218,compass,-6.702,-0.0,-49.514,-0.966,-0.112,-10.2,2.349,1.5134368433937746,-54.015,345.493,0.041,23868.926,False,0.026317841147825285,0.023986952090953653,0.42,-0.051,-0.355,-9.918,0.007,345.493,169.078,True,0,1,0,0
-1.157,0.112,-1.216,compass,-27.088,-0.112,-45.507,-0.945,-0.112,-10.26,2.448,1.7325366338001913,-53.994,345.514,0.041,23869.027,False,0.028481541353787727,0.023999183447702317,0.42,-0.051,-0.395,-9.914,-0.024,345.514,169.078,True,0,1,0,0
-1.18,0.0,-1.215,compass,-26.456,-0.112,-42.108,-0.935,-0.224,-10.26,2.448,1.8871175346501272,-53.923,345.585,0.049,23869.127,False,0.03597437918399043,0.02861900177371792,0.42,-0.051,-0.355,-9.918,-0.024,345.585,169.078,True,0,1,0,0
-1.187,-0.112,-1.214,compass,-45.069,-0.0,-40.138,-0.937,0.0,-10.2,2.309,1.9797025583138148,-53.881,345.627,0.049,23869.227,False,0.037111606534597885,0.028648192019270772,0.42,-0.051,-0.355,-9.918,0.008,345.627,169.078,True,0,1,0,0
-1.194,0.0,-1.214,compass,-42.898,-0.336,-39.086,-0.938,-0.112,-10.2,2.309,2.0487994320016423,-53.845,345.663,0.031,23869.327,False,0.024131600907983806,0.018350473003817296,0.42,-0.051,-0.355,-9.918,0.008,345.663,169.078,True,0,1,0,0
-1.215,0.0,-1.214,compass,-38.75,-0.0,-38.391,-0.942,-0.448,-10.2,2.07,2.023953683829749,-53.81,345.698,0.031,23869.427,False,0.02437971265218548,0.01836578779561238,0.42,-0.051,-0.355,-9.918,0.008,345.698,169.078,True,0,1,0,0
-1.229,0.0,-1.214,compass,-41.483,-0.0,-37.98,-0.944,-0.224,-10.24,2.07,2.027784403500477,-53.774,345.734,0.064,23869.527,False,0.050586051213407215,0.03791172228315735,0.42,-0.051,-0.355,-9.918,-0.006,345.734,169.078,True,0,1,0,0
-1.243,0.112,-1.215,compass,71.567,-0.0,-32.045,-0.946,-0.336,-10.24,0.0,1.6380639820985572,-53.746,345.762,0.064,23869.627,False,-0.023162050353314232,0.03793694288481879,0.42,-0.051,-0.355,-9.879,-0.006,345.762,169.078,True,0,1,0,0
-1.265,0.0,-1.217,compass,90.0,-0.0,-24.059,-0.942,-0.224,-10.22,0.0,1.3218506857668668,-53.717,345.791,0.08,23869.727,False,-0.07695970678749325,0.047166315922651546,0.42,-0.051,-0.316,-9.918,0.005,345.791,169.078,True,0,1,0,0
-1.278,0.0,-1.218,compass,90.0,-0.0,-14.831,-0.952,-0.336,-10.22,0.0,1.0871021649822148,-53.682,345.826,0.08,23869.828,False,-0.07289578311993337,0.047206235185397266,0.42,-0.051,-0.316,-9.879,0.005,345.826,169.078,True,0,1,0,0
-1.299,0.0,-1.221,compass,90.0,0.112,-4.566,-0.954,-0.224,-10.22,0.0,0.8803884677452212,-53.675,345.833,0.033,23869.928,False,-0.020716480389307783,0.019576662550680586,0.42,-0.051,-0.316,-9.918,0.005,345.833,169.078,True,0,1,0,0
-1.351,-0.224,-1.225,compass,123.687,-0.224,7.861,-0.982,-0.336,-10.24,0.0,0.7387431287658835,-53.667,345.841,0.033,23870.028,False,-0.012337346705568086,0.019580038645222602,0.42,-0.051,-0.316,-9.879,-0.003,345.841,169.078,True,0,1,0,0
-1.372,-0.112,-1.229,compass,116.562,-0.112,15.073,-0.985,-0.224,-10.24,0.0,0.6179106437846104,-53.66,345.848,0.101,23870.128,False,-0.011013521093712984,0.05990212526152236,0.42,-0.051,-0.316,-9.879,-0.003,345.848,169.078,True,0,1,0,0
-1.386,0.0,-1.234,compass,90.0,0.112,17.18,-0.987,-0.112,-10.28,0.0,0.5100770282932249,-53.653,345.855,0.101,23870.228,False,0.01665688803999411,0.05991224142722176,0.42,-0.051,-0.277,-9.875,-0.022,345.855,169.078,True,0,1,0,0
-1.407,0.0,-1.239,compass,90.0,-0.336,20.245,-0.989,-0.112,-10.28,0.0,0.42136489230228236,-53.667,345.841,0.08,23870.328,False,0.027727231465474293,0.04722324472677465,0.42,-0.012,-0.277,-9.879,-0.022,345.841,169.078,True,0,1,0,0
-1.421,0.0,-1.244,compass,90.0,-0.112,26.73,-0.991,-0.224,-10.2,0.0,0.3620263081376758,-53.673,345.835,0.08,23870.428,False,0.0333562201807665,0.047215667808671404,0.42,-0.051,-0.277,-9.875,0.02,345.835,169.078,True,0,1,0,0
-1.443,0.0,-1.25,compass,90.0,-0.0,28.494,-0.986,-0.112,-10.2,0.0,0.3040746794533728,-53.687,345.821,0.074,23870.528,False,0.038553019440686634,0.043746846740757336,0.42,-0.012,-0.277,-9.879,0.02,345.821,169.078,True,0,1,0,0
-1.465,0.112,-1.257,compass,-63.273,-0.224,33.107,-0.974,0.112,-10.2,2.11,0.7288769475642538,-53.722,345.786,0.074,23870.629,False,0.04075183522862813,0.04371041185056586,0.42,-0.051,-0.277,-9.875,0.02,345.786,169.078,True,0,1,0,0
-1.481,-0.112,-1.264,compass,-64.043,-0.224,31.062,-0.962,-0.224,-10.3,2.11,1.030745011356143,-53.749,345.759,0.144,23870.729,False,0.09379982191317585,0.08506491050419338,0.42,-0.012,-0.242,-9.879,-0.015,345.759,169.078,True,0,1,0,0
-1.511,-0.224,-1.271,compass,-66.728,-0.112,25.302,-0.943,0.0,-10.3,2.349,1.3408850960952978,-53.819,345.689,0.144,23870.829,False,0.11103707936795006,0.08492399253830014,0.42,-0.051,-0.277,-9.875,-0.015,345.689,169.078,True,0,1,0,0
-1.519,-0.112,-1.278,compass,-64.712,-0.336,17.551,-0.93,-0.112,-10.2,2.349,1.551223269844852,-53.854,345.654,0.029,23870.929,False,0.025606297070017093,0.0171998377288732,0.42,-0.051,-0.277,-9.875,0.037,345.654,169.078,True,0,1,0,0
-1.526,-0.112,-1.286,compass,-65.825,-0.112,8.937,-0.93,0.112,-10.2,2.528,1.7928799879447577,-53.868,345.64,0.097,23871.029,False,-0.011333464115570617,0.05731389869164593,0.42,-0.09,-0.316,-9.875,0.037,345.64,169.078,True,0,1,0,0
-1.54,-0.112,-1.294,compass,-64.66,-0.0,0.248,-0.932,-0.112,-10.2,2.528,1.9557956750497723,-53.875,345.633,0.097,23871.129,False,-0.08231068990903805,0.05730462915693204,0.42,-0.09,-0.316,-9.875,0.037,345.633,169.078,True,0,1,0,0
-1.539,-0.112,-1.301,compass,-64.629,0.112,-8.087,-0.939,-0.112,-10.24,2.647,2.1077698106665474,-53.875,345.633,0.097,23871.229,False,-0.09662508487411212,0.05730447563309374,0.42,-0.09,-0.355,-9.914,0.02,345.633,169.078,True,0,1,0,0
-1.537,-0.112,-1.308,compass,-64.036,-0.112,-15.985,-0.96,-0.224,-10.24,2.647,2.201264738917304,-53.861,345.647,0.027,23871.329,False,-0.022353865841586995,0.01605044788480039,0.42,-0.051,-0.316,-9.879,0.02,345.647,169.078,True,0,1,0,0
-1.526,-0.224,-1.315,compass,-66.875,-0.112,-23.232,-0.987,0.112,-10.2,2.707,2.317904338393199,-53.841,345.667,0.027,23871.43,False,-0.015231569595301041,0.016058224975432047,0.42,-0.051,-0.277,-9.875,0.038,345.667,169.078,True,0,1,0,0
-1.51,0.0,-1.32,compass,-63.429,-0.224,-29.586,-1.007,-0.112,-10.2,2.707,2.3944956315068975,-53.82,345.688,0.019,23871.53,False,-0.00607308284545201,0.01147595848208341,0.42,-0.051,-0.316,-9.879,0.038,345.688,169.078,True,0,1,0,0
-1.508,-0.224,-1.326,compass,-66.36,-0.112,-35.213,-1.021,0.0,-10.2,2.707,2.454831386158079,-53.799,345.709,0.019,23871.63,False,-0.0022097460759872476,0.011481596121320308,0.42,-0.051,-0.316,-9.879,0.038,345.709,169.078,True,0,1,0,0
-1.521,-0.224,-1.332,compass,-65.823,0.112,-40.03,-1.037,-0.112,-10.2,2.707,2.4918150168875357,-53.771,345.737,0.037,23871.73,False,0.0013930949768904094,0.021829899568473088,0.42,-0.051,-0.277,-9.875,0.034,345.737,169.078,True,0,1,0,0
-1.52,-0.112,-1.337,compass,-64.619,0.112,-44.116,-1.045,-0.112,-10.2,2.687,2.521706000949033,-53.7,345.808,0.037,23871.83,False,0.005550826235353274,0.021866361927022893,0.42,-0.051,-0.277,-9.914,0.034,345.808,169.078,True,0,1,0,0
-1.527,0.112,-1.343,compass,-62.255,-0.112,-47.564,-1.046,-0.112,-10.26,2.687,2.5533375995352623,-53.68,345.828,0.008,23871.93,False,0.0018022420352932563,0.0046057318453046605,0.42,-0.012,-0.242,-9.879,-0.0,345.828,169.078,True,0,1,0,0
-1.541,-0.112,-1.349,compass,-65.163,-0.0,-50.506,-1.048,0.0,-10.26,2.727,2.5868919667003096,-53.658,345.85,0.008,23872.03,False,0.002255414840009047,0.004608123196318491,0.42,-0.051,-0.277,-9.914,-0.0,345.85,169.078,True,0,1,0,0
-1.555,0.0,-1.355,compass,-64.005,-0.224,-52.784,-1.05,0.0,-10.26,2.608,2.6235456015533645,-53.651,345.857,0.049,23872.13,False,0.01627565215401748,0.028805640303749016,0.42,-0.012,-0.242,-9.918,-0.0,345.857,169.078,True,0,1,0,0
-1.569,0.0,-1.362,compass,-45.122,-0.112,-53.751,-1.044,-0.224,-10.2,2.608,2.607159625506265,-53.657,345.851,0.049,23872.23,False,0.018578796889088842,0.028801103473445964,0.42,-0.051,-0.242,-9.914,0.02,345.851,169.078,True,0,1,0,0
-1.585,-0.112,-1.368,compass,-47.074,-0.224,-53.83,-1.032,-0.112,-10.2,2.528,2.6004595846865524,-53.672,345.836,0.087,23872.33,False,0.037541016112593084,0.05182435436714275,0.42,-0.051,-0.242,-9.914,0.02,345.836,169.078,True,0,1,0,0
-1.6,0.224,-1.375,compass,-43.112,-0.0,-53.3,-1.02,-0.224,-10.2,2.528,2.5972723240289737,-53.699,345.809,0.087,23872.43,False,0.04145565054275456,0.05179069925976867,0.42,-0.051,-0.242,-9.875,0.02,345.809,169.078,True,0,1,0,0
-1.617,0.112,-1.383,compass,-44.07,-0.336,-52.479,-1.0,-0.224,-10.26,2.468,2.585007895360062,-53.734,345.774,0.084,23872.53,False,0.04296719040102047,0.049447661428547014,0.43,-0.051,-0.242,-9.914,-0.002,345.774,169.078,True,0,1,0,0
-1.647,0.112,-1.391,compass,-42.947,-0.112,-51.447,-0.982,-0.336,-10.26,2.468,2.5535459406108285,-53.761,345.747,0.084,23872.63,False,0.04600491606213535,0.04941580857430472,0.43,-0.09,-0.277,-9.957,-0.002,345.747,169.078,True,0,1,0,0
-1.699,0.0,-1.4,compass,-45.014,-0.224,-50.62,-0.96,-0.224,-10.2,2.428,2.52119113424395,-53.823,345.685,0.035,23872.73,False,0.0202225431040759,0.02065499886260908,0.43,-0.09,-0.316,-9.914,0.027,345.685,169.078,True,0,1,0,0
-1.713,0.224,-1.409,compass,-41.887,-0.112,-49.67,-0.961,-0.336,-10.2,2.428,2.4975517180066675,-53.837,345.671,0.035,23872.83,False,0.021126936228108295,0.020648245358925992,0.43,-0.09,-0.277,-9.918,0.027,345.671,169.078,True,0,1,0,0
-1.725,0.224,-1.419,compass,-42.954,0.112,-48.69,-0.977,-0.224,-10.2,2.389,2.4907515710941865,-53.844,345.664,0.051,23872.93,False,0.03168189696308277,0.029820285629587384,0.43,-0.051,-0.277,-9.914,0.027,345.664,169.078,True,0,1,0,0
