imu.roll,imu.pitchrate,imu.heel,ap.mode,ap.wind_angle,imu.headingrate,ap.true_wind_angle,imu.pitch,imu.rollrate,rudder.angle,wind.speed,ap.true_wind_speed,ap.heading_error,ap.heading,gps.speed,timestamp,ap.enabled,ap.vmg,ap.cmg,sow.speed,imu.accel_X,imu.accel_Y,imu.accel_Z,rudder.speed,imu.heading,gps.track,perf.quality_flag,perf.boat_config.Main,perf.boat_config.jib,perf.boat_config.spi,perf.boat_config.weight
-1.429,0.112,-1.282,compass,-110.137,-0.448,-108.708,-1.232,-0.336,-10.22,2.369,2.1816196718146674,-52.212,347.296,0.097,23669.691,False,-0.03155499587306471,0.059559106936417534,0.37,-0.051,-0.316,-9.918,0.001,347.296,169.078,True,0,1,0,0
-1.436,0.112,-1.287,compass,-108.606,-0.56,-108.559,-1.225,0.0,-10.26,2.369,2.2121218653570827,-52.247,347.261,0.097,23669.791,False,-0.03127618267618487,0.05951176404634785,0.37,-0.09,-0.277,-9.918,-0.013,347.261,169.078,True,0,1,0,0
-1.444,-0.112,-1.291,compass,-120.814,-0.56,-109.105,-1.218,-0.112,-10.26,2.627,2.2930051008468006,-52.282,347.226,0.076,23669.891,False,-0.025054781242022213,0.04638222797261724,0.37,-0.09,-0.277,-9.918,-0.013,347.226,169.078,True,0,1,0,0
-1.451,0.112,-1.296,compass,-117.214,-0.448,-109.762,-1.212,0.112,-10.26,2.627,2.3662468258182217,-52.317,347.191,0.076,23669.991,False,-0.02585401891988965,0.04634607821874456,0.37,-0.09,-0.277,-9.918,-0.011,347.191,169.078,True,0,1,0,0
-1.458,-0.112,-1.301,compass,-120.627,-0.56,-110.872,-1.212,-0.112,-10.26,2.926,2.4829086346467077,-52.359,347.149,0.019,23670.091,False,-0.006980442117705499,0.01187222735992747,0.36,-0.09,-0.277,-9.879,-0.011,347.149,169.078,True,0,1,0,0
-1.458,0.0,-1.306,compass,-118.998,-0.671,-111.925,-1.211,0.0,-10.26,2.926,2.5788137684911963,-52.408,347.1,0.019,23670.191,False,-0.007312962369494504,0.011858941497441362,0.36,-0.09,-0.277,-9.879,-0.011,347.1,169.078,True,0,1,0,0
-1.457,-0.112,-1.31,compass,-119.4,-0.671,-112.7,-1.21,0.112,-10.22,3.284,2.744857090953947,-52.472,347.036,0.084,23670.292,False,-0.03250604830431168,0.050920200289574676,0.36,-0.09,-0.316,-9.875,0.003,347.036,169.078,True,0,1,0,0
-1.434,-0.112,-1.314,compass,-118.901,-0.56,-113.414,-1.22,0.224,-10.22,3.284,2.885945737940152,-52.592,346.916,0.084,23670.392,False,-0.033534165091250345,0.05078093223328155,0.36,-0.09,-0.277,-9.879,0.003,346.916,169.078,True,0,1,0,0
-1.413,-0.112,-1.317,compass,-118.912,-0.671,-114.153,-1.223,0.224,-10.24,3.682,3.0855778466004153,-52.649,346.859,0.06,23670.492,False,-0.024878365438768677,0.03656201928709848,0.36,-0.09,-0.316,-9.875,-0.008,346.859,169.078,True,0,1,0,0
-1.391,0.0,-1.319,compass,-117.266,-0.783,-114.717,-1.227,0.448,-10.24,3.682,3.2586159225112485,-52.698,346.81,0.06,23670.592,False,-0.02540592985133752,0.03652097851424155,0.36,-0.09,-0.277,-9.84,-0.008,346.81,169.078,True,0,1,0,0
-1.37,0.112,-1.321,compass,-116.948,-0.671,-115.103,-1.224,0.336,-10.24,3.822,3.4054052253648033,-52.748,346.76,0.07,23670.692,False,-0.029920725439128344,0.042363105754754674,0.36,-0.09,-0.277,-9.879,-0.008,346.76,169.078,True,0,1,0,0
-1.335,0.0,-1.321,compass,-117.728,-0.895,-115.422,-1.212,0.336,-10.22,3.822,3.5260380235458073,-52.811,346.697,0.07,23670.792,False,-0.030276343815227376,0.04230112344016148,0.36,-0.09,-0.277,-9.879,-0.0,346.697,169.078,True,0,1,0,0
-1.315,0.112,-1.321,compass,-117.327,-0.783,-115.842,-1.201,0.224,-10.22,3.762,3.5946763484721926,-52.897,346.611,0.008,23670.892,False,-0.0034178041408102155,0.004690911666427228,0.35,-0.129,-0.316,-9.875,-0.0,346.611,169.078,True,0,1,0,0
-1.287,0.112,-1.32,compass,-116.917,-0.56,-116.145,-1.197,0.336,-10.17,3.762,3.660110574316794,-52.974,346.534,0.008,23670.992,False,-0.0034558615898245596,0.004682504681958453,0.35,-0.129,-0.316,-9.875,0.025,346.534,169.078,True,0,1,0,0
-1.252,-0.112,-1.318,compass,-118.074,-0.783,-116.172,-1.191,0.448,-10.17,3.762,3.7276217338393534,-53.053,346.455,0.093,23671.092,False,-0.04152110835240438,0.05608786925219166,0.35,-0.129,-0.316,-9.875,0.025,346.455,169.078,True,0,1,0,0
-1.216,0.224,-1.315,compass,-115.725,-0.783,-116.101,-1.193,0.448,-10.17,3.762,3.762299505078405,-53.138,346.37,0.093,23671.192,False,-0.041433592213729165,0.05597743585085194,0.35,-0.129,-0.355,-9.875,0.025,346.37,169.078,True,0,1,0,0
-1.187,-0.112,-1.311,compass,-118.07,-0.783,-116.233,-1.195,0.448,-10.17,3.742,3.807167190155791,-53.223,346.285,0.047,23671.292,False,-0.020819893921474708,0.027932962837178214,0.35,-0.129,-0.355,-9.914,0.022,346.285,169.078,True,0,1,0,0
-1.119,-0.112,-1.305,compass,-117.665,-0.56,-116.354,-1.226,0.56,-10.17,3.742,3.853978858885522,-53.387,346.121,0.047,23671.392,False,-0.020958355912358492,0.027825916187912945,0.35,-0.129,-0.395,-9.918,0.022,346.121,169.078,True,0,1,0,0
-1.088,0.0,-1.299,compass,-118.066,-0.56,-116.316,-1.242,0.224,-10.2,3.503,3.792190491002162,-53.458,346.05,0.093,23671.492,False,-0.041832690487793395,0.05555884493247311,0.35,-0.09,-0.395,-9.918,0.005,346.05,169.078,True,0,1,0,0
-1.056,-0.112,-1.291,compass,-118.911,-0.56,-116.355,-1.265,0.224,-10.2,3.503,3.750280303398934,-53.529,345.979,0.093,23671.592,False,-0.041868069674966445,0.05546557571619836,0.35,-0.09,-0.395,-9.918,0.005,345.979,169.078,True,0,1,0,0
-1.027,-0.112,-1.283,compass,-125.076,-0.56,-116.684,-1.274,0.336,-10.2,3.404,3.7043013138262166,-53.593,345.915,0.109,23671.693,False,-0.04937565270447158,0.064611967045957,0.35,-0.09,-0.395,-9.879,0.005,345.915,169.078,True,0,1,0,0
-1.003,-0.112,-1.275,compass,-126.223,-0.783,-117.264,-1.291,0.112,-10.24,3.404,3.646189445513788,-53.665,345.843,0.109,23671.793,False,-0.05034247762205494,0.0645020009252553,0.35,-0.09,-0.395,-9.879,-0.009,345.843,169.078,True,0,1,0,0
-0.973,-0.112,-1.257,compass,-117.021,-0.895,-116.611,-1.299,0.0,-10.24,3.045,3.3936108969461314,-53.793,345.715,0.233,23671.993,False,-0.10543877123770663,0.13780049634232538,0.34,-0.09,-0.434,-9.918,-0.009,345.715,169.078,True,0,1,0,0
-0.973,-0.112,-1.257,compass,-117.021,-0.895,-116.611,-1.299,0.0,-10.24,3.045,3.3936108969461314,-53.793,345.715,0.233,23671.993,False,-0.10543877123770663,0.13780049634232538,0.34,-0.09,-0.434,-9.918,-0.009,345.715,169.078,True,0,1,0,0
-0.98,0.112,-1.241,compass,-116.51,-0.783,-116.343,-1.291,-0.336,-10.2,3.045,3.17461952239579,-53.905,345.603,0.142,23672.193,False,-0.06349472202218331,0.08360361320865148,0.34,-0.09,-0.395,-9.918,0.005,345.603,169.078,True,0,1,0,0
-0.98,0.112,-1.241,compass,-116.51,-0.783,-116.343,-1.291,-0.336,-10.2,3.045,3.17461952239579,-53.905,345.603,0.142,23672.193,False,-0.06349472202218331,0.08360361320865148,0.34,-0.09,-0.395,-9.918,0.005,345.603,169.078,True,0,1,0,0
-1.031,0.112,-1.228,compass,-117.22,-1.119,-116.422,-1.266,-0.448,-10.24,2.687,2.8910239803355404,-54.066,345.442,0.072,23672.393,False,-0.032288290941196396,0.04221104959492807,0.34,-0.09,-0.395,-9.918,-0.015,345.442,169.078,True,0,1,0,0
-1.031,0.112,-1.228,compass,-117.22,-1.119,-116.422,-1.266,-0.448,-10.24,2.687,2.8910239803355404,-54.066,345.442,0.072,23672.393,False,-0.032288290941196396,0.04221104959492807,0.34,-0.09,-0.395,-9.918,-0.015,345.442,169.078,True,0,1,0,0
-1.098,0.112,-1.219,compass,-117.402,-1.007,-116.41,-1.238,-0.448,-10.24,2.369,2.5853407598547524,-54.177,345.331,0.068,23672.593,False,-0.030508207532661008,0.03982244019008182,0.34,-0.09,-0.355,-9.914,-0.014,345.331,169.078,True,0,1,0,0
-1.098,0.112,-1.219,compass,-117.402,-1.007,-116.41,-1.238,-0.448,-10.24,2.369,2.5853407598547524,-54.177,345.331,0.068,23672.593,False,-0.030508207532661008,0.03982244019008182,0.34,-0.09,-0.355,-9.914,-0.014,345.331,169.078,True,0,1,0,0
-1.172,0.112,-1.215,compass,-141.791,-1.119,-119.13,-1.202,-0.336,-10.22,2.17,2.333196309118867,-54.323,345.185,0.097,23672.793,False,-0.04767396510475703,0.056688732034297494,0.34,-0.09,-0.355,-9.914,-0.002,345.185,169.078,True,0,1,0,0
-1.172,0.112,-1.215,compass,-141.791,-1.119,-119.13,-1.202,-0.336,-10.22,2.17,2.333196309118867,-54.323,345.185,0.097,23672.793,False,-0.04767396510475703,0.056688732034297494,0.34,-0.09,-0.355,-9.914,-0.002,345.185,169.078,True,0,1,0,0
-1.246,0.224,-1.216,compass,-142.158,-1.231,-122.924,-1.168,-0.448,-10.22,2.13,2.1399916197243445,-54.455,345.053,0.134,23672.993,False,-0.07337363451283806,0.07797965075402963,0.34,-0.051,-0.316,-9.879,-0.002,345.053,169.078,True,0,1,0,0
-1.246,0.224,-1.216,compass,-142.158,-1.231,-122.924,-1.168,-0.448,-10.22,2.13,2.1399916197243445,-54.455,345.053,0.134,23672.993,False,-0.07337363451283806,0.07797965075402963,0.34,-0.051,-0.316,-9.879,-0.002,345.053,169.078,True,0,1,0,0
-1.354,-0.112,-1.222,compass,-144.026,-1.231,-127.71,-1.144,-0.336,-10.22,2.09,2.073496516000327,-54.629,344.879,0.091,23673.193,False,-0.056225774660503235,0.05289060363369787,0.34,-0.051,-0.316,-9.879,-0.002,344.879,169.078,True,0,1,0,0
-1.354,-0.112,-1.222,compass,-144.026,-1.231,-127.71,-1.144,-0.336,-10.22,2.09,2.073496516000327,-54.629,344.879,0.091,23673.193,False,-0.056225774660503235,0.05289060363369787,0.34,-0.051,-0.316,-9.879,-0.002,344.879,169.078,True,0,1,0,0
-1.402,-0.112,-1.232,compass,-143.881,-0.671,-132.162,-1.149,-0.336,-10.2,2.15,2.073674531245175,-54.699,344.809,0.045,23673.393,False,-0.03013448940741748,0.025837762887351408,0.34,-0.09,-0.355,-9.875,0.008,344.809,169.078,True,0,1,0,0
-1.402,-0.112,-1.232,compass,-143.881,-0.671,-132.162,-1.149,-0.336,-10.2,2.15,2.073674531245175,-54.699,344.809,0.045,23673.393,False,-0.03013448940741748,0.025837762887351408,0.34,-0.09,-0.355,-9.875,0.008,344.809,169.078,True,0,1,0,0
-1.434,-0.112,-1.244,compass,-143.455,-0.895,-135.416,-1.174,-0.336,-10.22,2.349,2.1410526989896472,-54.748,344.76,0.051,23673.594,False,-0.03609974230112213,0.029172384049831034,0.34,-0.09,-0.316,-9.875,-0.003,344.76,169.078,True,0,1,0,0
-1.434,-0.112,-1.244,compass,-143.455,-0.895,-135.416,-1.174,-0.336,-10.22,2.349,2.1410526989896472,-54.748,344.76,0.051,23673.594,False,-0.03609974230112213,0.029172384049831034,0.34,-0.09,-0.316,-9.875,-0.003,344.76,169.078,True,0,1,0,0
-1.437,-0.112,-1.255,compass,-140.89,-0.671,-137.362,-1.202,-0.112,-10.2,2.588,2.295852390198908,-54.79,344.718,0.087,23673.794,False,-0.06448909102450233,0.050438316468207164,0.33,-0.09,-0.316,-9.875,0.004,344.718,169.078,True,0,1,0,0
-1.437,-0.112,-1.255,compass,-140.89,-0.671,-137.362,-1.202,-0.112,-10.2,2.588,2.295852390198908,-54.79,344.718,0.087,23673.794,False,-0.06448909102450233,0.050438316468207164,0.33,-0.09,-0.316,-9.875,0.004,344.718,169.078,True,0,1,0,0
-1.45,0.0,-1.267,compass,-140.868,-0.783,-138.807,-1.209,-0.224,-10.13,2.886,2.494752029953449,-54.882,344.626,0.035,23673.994,False,-0.026389100503542904,0.02012944804240654,0.33,-0.09,-0.277,-9.879,0.039,344.626,169.078,True,0,1,0,0
-1.45,0.0,-1.267,compass,-140.868,-0.783,-138.807,-1.209,-0.224,-10.13,2.886,2.494752029953449,-54.882,344.626,0.035,23673.994,False,-0.026389100503542904,0.02012944804240654,0.33,-0.09,-0.277,-9.879,0.039,344.626,169.078,True,0,1,0,0
-1.44,-0.224,-1.277,compass,-120.057,-0.895,-136.373,-1.22,0.0,-10.2,2.926,2.640182109009679,-54.995,344.513,0.132,23674.194,False,-0.09594335244834973,0.07583097153829156,0.33,-0.09,-0.316,-9.875,0.0,344.513,169.078,True,0,1,0,0
-1.44,-0.224,-1.277,compass,-120.057,-0.895,-136.373,-1.22,0.0,-10.2,2.926,2.640182109009679,-54.995,344.513,0.132,23674.194,False,-0.09594335244834973,0.07583097153829156,0.33,-0.09,-0.316,-9.875,0.0,344.513,169.078,True,0,1,0,0
-1.427,-0.112,-1.286,compass,-117.934,-0.56,-132.861,-1.211,0.224,-10.2,2.926,2.758202538625083,-55.017,344.491,0.047,23674.394,False,-0.03180336657038421,0.02674931878762134,0.33,-0.09,-0.316,-9.875,0.0,344.491,169.078,True,0,1,0,0
-1.427,-0.112,-1.286,compass,-117.934,-0.56,-132.861,-1.211,0.224,-10.2,2.826,2.758202538625083,-55.017,344.491,0.047,23674.394,False,-0.03180336657038421,0.02674931878762134,0.33,-0.09,-0.316,-9.875,0.0,344.491,169.078,True,0,1,0,0
-1.392,0.112,-1.293,compass,-117.474,-0.56,-128.955,-1.206,-0.112,-10.24,2.826,2.767326847002994,-55.038,344.47,0.074,23674.594,False,-0.046526470218107394,0.04233058917721091,0.33,-0.09,-0.316,-9.875,-0.013,344.47,169.078,True,0,1,0,0
-1.392,0.112,-1.293,compass,-117.474,-0.56,-128.955,-1.206,-0.112,-10.24,2.826,2.767326847002994,-55.038,344.47,0.074,23674.594,False,-0.046526470218107394,0.04233058917721091,0.33,-0.09,-0.316,-9.875,-0.013,344.47,169.078,True,0,1,0,0
-1.351,0.112,-1.297,compass,-115.212,-0.224,-125.586,-1.2,0.336,-10.2,2.727,2.779512754769962,-55.061,344.447,0.039,23674.794,False,-0.02266215257514715,0.02226683212063364,0.32,-0.09,-0.316,-9.875,0.008,344.447,169.078,True,0,1,0,0
-1.351,0.112,-1.297,compass,-115.212,-0.224,-125.586,-1.2,0.336,-10.2,2.727,2.779512754769962,-55.061,344.447,0.068,23674.794,False,-0.02266215257514715,0.02226683212063364,0.32,-0.09,-0.316,-9.875,0.008,344.447,169.078,True,0,1,0,0
-1.274,0.336,-1.297,compass,-122.035,-0.224,-123.586,-1.189,0.448,-10.22,2.727,2.770171366994035,-55.118,344.39,0.068,23674.994,False,-0.03771967183530877,0.03891098264922923,0.32,-0.09,-0.316,-9.875,-0.003,344.39,169.078,True,0,1,0,0
-1.274,0.336,-1.297,compass,-122.035,-0.224,-123.586,-1.189,0.448,-10.22,2.787,2.770171366994035,-55.118,344.39,0.13,23674.994,False,-0.03771967183530877,0.03891098264922923,0.32,-0.09,-0.316,-9.875,-0.003,344.39,169.078,True,0,1,0,0
-1.228,0.0,-1.294,compass,-126.513,0.224,-122.473,-1.168,0.224,-10.28,2.787,2.785306710435383,-55.147,344.361,0.13,23675.194,False,-0.07006365386602399,0.07443248343151374,0.32,-0.09,-0.316,-9.875,-0.032,344.361,169.078,True,0,1,0,0
-1.228,0.0,-1.294,compass,-126.513,0.224,-122.473,-1.168,0.224,-10.28,2.767,2.785306710435383,-55.147,344.361,0.06,23675.194,False,-0.07006365386602399,0.07443248343151374,0.32,-0.09,-0.316,-9.875,-0.032,344.361,169.078,True,0,1,0,0
-1.187,0.112,-1.288,compass,-124.811,0.112,-122.532,-1.154,0.336,-10.17,2.767,2.80451528896861,-55.189,344.319,0.06,23675.394,False,-0.03247219190011294,0.03440263741956592,0.32,-0.09,-0.316,-9.914,0.008,344.319,169.078,True,0,1,0,0
-1.187,0.112,-1.288,compass,-124.811,0.112,-122.532,-1.154,0.336,-10.17,2.727,2.80451528896861,-55.189,344.319,0.064,23675.394,False,-0.03247219190011294,0.03440263741956592,0.32,-0.09,-0.316,-9.914,0.008,344.319,169.078,True,0,1,0,0
-1.144,0.112,-1.28,compass,-119.98,0.224,-122.152,-1.154,0.336,-10.17,2.727,2.8022880120568825,-55.268,344.24,0.064,23675.595,False,-0.03423353053574185,0.036549659402188746,0.32,-0.09,-0.355,-9.914,0.008,344.24,169.078,True,0,1,0,0
-1.144,0.112,-1.28,compass,-119.98,0.224,-122.152,-1.154,0.336,-10.17,2.767,2.8022880120568825,-55.268,344.24,0.031,23675.595,False,-0.03423353053574185,0.036549659402188746,0.33,-0.09,-0.355,-9.914,0.008,344.24,169.078,True,0,1,0,0
-1.099,-0.224,-1.27,compass,-123.698,0.224,-122.096,-1.167,0.224,-10.24,2.767,2.8287923874181344,-55.404,344.104,0.031,23675.795,False,-0.01659875648931921,0.01766054722148929,0.33,-0.09,-0.355,-9.914,-0.016,344.104,169.078,True,0,1,0,0
-1.099,-0.224,-1.27,compass,-123.698,0.224,-122.096,-1.167,0.224,-10.24,2.807,2.8287923874181344,-55.404,344.104,0.031,23675.795,False,-0.01659875648931921,0.01766054722148929,0.33,-0.09,-0.355,-9.914,-0.016,344.104,169.078,True,0,1,0,0
-1.083,0.0,-1.259,compass,-123.689,0.112,-122.158,-1.18,-0.112,-10.24,2.807,2.826675007754019,-55.362,344.146,0.031,23675.995,False,-0.016585064757983894,0.017679332555673652,0.33,-0.09,-0.355,-9.875,-0.014,344.146,169.078,True,0,1,0,0
-1.083,0.0,-1.259,compass,-123.689,0.112,-122.158,-1.18,-0.112,-10.24,2.906,2.826675007754019,-55.362,344.146,0.029,23675.995,False,-0.016585064757983894,0.017679332555673652,0.33,-0.09,-0.355,-9.875,-0.014,344.146,169.078,True,0,1,0,0
-1.075,0.112,-1.248,compass,-121.355,0.336,-122.336,-1.194,0.112,-10.2,2.906,2.8684727804117442,-55.256,344.252,0.029,23676.195,False,-0.01558223287902009,0.016618499428387567,0.33,-0.09,-0.355,-9.875,0.007,344.252,169.078,True,0,1,0,0
-1.074,-0.112,-1.243,compass,-135.001,0.224,-123.007,-1.202,0.112,-10.2,2.966,2.907596329029114,-55.207,344.301,0.012,23676.295,False,-0.0063426909628808694,0.006655645412212652,0.33,-0.051,-0.355,-9.879,0.007,344.301,169.078,True,0,1,0,0
-1.081,-0.112,-1.238,compass,-136.66,0.224,-124.067,-1.204,-0.112,-10.22,2.966,2.919402981534883,-55.157,344.351,0.012,23676.396,False,-0.006518518602100359,0.006663926455379139,0.33,-0.09,-0.355,-9.875,-0.004,344.351,169.078,True,0,1,0,0
-1.076,0.0,-1.234,compass,-134.15,0.224,-125.084,-1.197,0.112,-10.22,2.846,2.90792474100334,-55.101,344.407,0.041,23676.496,False,-0.023398043070637854,0.02335672670699819,0.33,-0.09,-0.355,-9.914,-0.004,344.407,169.078,True,0,1,0,0
-1.076,-0.112,-1.229,compass,-134.174,0.448,-126.116,-1.198,0.224,-10.22,2.846,2.9177182656541163,-55.045,344.463,0.041,23676.596,False,-0.023986089851901177,0.02338966218752643,0.37,-0.09,-0.355,-9.914,-0.004,344.463,169.078,True,0,1,0,0
-1.084,0.112,-1.224,compass,-152.537,0.112,-127.993,-1.193,-0.112,-10.24,2.767,2.8610708093640445,-55.002,344.506,0.039,23676.696,False,-0.023859636812643224,0.022299645267715943,0.37,-0.09,-0.355,-9.914,-0.01,344.506,169.078,True,0,1,0,0
-1.112,-0.112,-1.221,compass,-151.496,0.448,-130.256,-1.199,0.112,-10.24,2.767,2.852609604157246,-54.896,344.612,0.039,23676.796,False,-0.025025983980784948,0.02235865363118417,0.37,-0.09,-0.355,-9.914,-0.01,344.612,169.078,True,0,1,0,0
-1.126,0.112,-1.218,compass,-152.562,0.112,-132.652,-1.202,-0.112,-10.17,2.647,2.7820401481642323,-54.832,344.676,0.047,23676.896,False,-0.03149279665727917,0.02687267678950304,0.37,-0.09,-0.355,-9.914,0.026,344.676,169.078,True,0,1,0,0
-1.133,-0.112,-1.216,compass,-152.606,0.448,-135.055,-1.211,0.0,-10.17,2.647,2.75656926953224,-54.761,344.747,0.047,23676.996,False,-0.03290161668236293,0.02692000805008696,0.37,-0.09,-0.355,-9.914,0.026,344.747,169.078,True,0,1,0,0
-1.147,0.0,-1.214,compass,-154.467,0.112,-137.389,-1.214,-0.224,-10.17,2.548,2.6890082705701177,-54.684,344.824,0.056,23677.096,False,-0.041341641677769,0.032590495953685426,0.37,-0.09,-0.355,-9.914,0.026,344.824,169.078,True,0,1,0,0
-1.16,-0.112,-1.212,compass,-155.055,0.448,-139.637,-1.224,-0.224,-10.22,2.548,2.648131375799914,-54.605,344.903,0.056,23677.196,False,-0.042805363321118076,0.03265322164196752,0.37,-0.09,-0.355,-9.875,0.007,344.903,169.078,True,0,1,0,0
-1.174,-0.112,-1.211,compass,-155.179,0.112,-141.76,-1.227,-0.224,-10.22,2.448,2.5966450240359227,-54.549,344.959,0.043,23677.296,False,-0.03348538124393308,0.024805827773559583,0.37,-0.09,-0.355,-9.875,0.007,344.959,169.078,True,0,1,0,0
-1.182,0.112,-1.21,compass,-153.93,0.112,-143.61,-1.222,-0.224,-10.22,2.448,2.5322634073374752,-54.507,345.001,0.043,23677.396,False,-0.034334632605739594,0.02483126145357967,0.37,-0.09,-0.355,-9.875,0.006,345.001,169.078,True,0,1,0,0
-1.197,0.112,-1.21,compass,-152.619,-0.0,-145.006,-1.217,-0.112,-10.22,2.408,2.4710809888665826,-54.478,345.03,0.087,23677.496,False,-0.07150082558574478,0.050827243718363314,0.37,-0.09,-0.316,-9.875,0.006,345.03,169.078,True,0,1,0,0
-1.205,0.112,-1.209,compass,-152.619,-0.0,-146.168,-1.211,-0.112,-10.2,2.408,2.4232921228517594,-54.478,345.03,0.087,23677.596,False,-0.07254288370992439,0.05082753681460691,0.39,-0.09,-0.316,-9.875,0.015,345.03,169.078,True,0,1,0,0
-1.228,0.112,-1.21,compass,-152.608,0.336,-147.245,-1.193,-0.112,-10.2,2.448,2.401510602421057,-54.463,345.045,0.051,23677.696,False,-0.042447276608426815,0.029377481772963204,0.39,-0.09,-0.316,-9.875,0.015,345.045,169.078,True,0,1,0,0
-1.237,-0.112,-1.211,compass,-153.902,-0.0,-148.199,-1.181,-0.112,-10.2,2.448,2.408329025034312,-54.455,345.053,0.051,23677.796,False,-0.042907957550665725,0.02938337568936836,0.39,-0.09,-0.316,-9.875,0.014,345.053,169.078,True,0,1,0,0
-1.237,0.112,-1.212,compass,-150.089,0.224,-148.946,-1.18,0.112,-10.2,2.488,2.4186033810182552,-54.463,345.045,0.012,23677.896,False,-0.009984467931814444,0.0067794794008294735,0.39,-0.09,-0.316,-9.875,0.014,345.045,169.078,True,0,1,0,0
-1.237,0.112,-1.212,compass,-150.089,0.112,-149.449,-1.181,0.112,-10.2,2.488,2.4266270163876063,-54.455,345.053,0.012,23677.996,False,-0.010038074693833566,0.006780779005238853,0.39,-0.09,-0.316,-9.875,0.014,345.053,169.078,True,0,1,0,0
-1.237,0.0,-1.213,compass,-152.0,0.56,-149.804,-1.181,0.0,-10.3,2.548,2.4465682644829307,-54.448,345.06,0.037,23678.097,False,-0.031906090597244294,0.021476103716175376,0.39,-0.09,-0.355,-9.875,-0.021,345.06,169.078,True,0,1,0,0
-1.236,0.112,-1.214,compass,-150.134,0.224,-150.013,-1.188,0.112,-10.3,2.548,2.4569192478700526,-54.448,345.06,0.037,23678.197,False,-0.03197758645761614,0.021476034074230342,0.39,-0.09,-0.355,-9.914,-0.021,345.06,169.078,True,0,1,0,0
-1.236,0.0,-1.215,compass,-164.0,0.112,-150.793,-1.194,0.0,-10.22,2.568,2.4736546809446747,-54.455,345.053,0.041,23678.297,False,-0.03562394998867483,0.02373257248997541,0.39,-0.09,-0.355,-9.914,0.021,345.053,169.078,True,0,1,0,0
-1.227,-0.112,-1.215,compass,-163.097,0.224,-151.85,-1.207,0.112,-10.22,2.568,2.5031563659725236,-54.456,345.052,0.041,23678.397,False,-0.03598774511554069,0.0237323599380269,0.39,-0.09,-0.316,-9.914,0.021,345.052,169.078,True,0,1,0,0
-1.219,-0.112,-1.215,compass,-164.36,-0.0,-153.133,-1.214,0.0,-10.22,2.608,2.535644264866594,-54.449,345.059,0.017,23678.497,False,-0.015604416225432478,0.010172675893186498,0.42,-0.09,-0.316,-9.914,0.021,345.059,169.078,True,0,1,0,0
-1.219,0.112,-1.215,compass,-163.624,-0.112,-154.414,-1.213,0.0,-10.2,2.608,2.5352654513393205,-54.456,345.052,0.017,23678.597,False,-0.015778684232809398,0.01017095315054503,0.42,-0.09,-0.355,-9.914,0.026,345.052,169.078,True,0,1,0,0
-1.218,0.112,-1.215,compass,-163.618,-0.112,-155.545,-1.22,0.0,-10.2,2.568,2.5180040438214997,-54.456,345.052,0.058,23678.697,False,-0.053084114769452885,0.03390306605243376,0.42,-0.09,-0.316,-9.914,0.026,345.052,169.078,True,0,1,0,0
-1.212,0.224,-1.215,compass,-161.868,0.112,-156.513,-1.213,0.112,-10.2,2.568,2.4957037720154105,-54.442,345.066,0.058,23678.797,False,-0.05348081918890349,0.033914578303764584,0.42,-0.09,-0.355,-9.914,0.026,345.066,169.078,True,0,1,0,0
-1.213,-0.112,-1.215,compass,-165.649,0.112,-157.577,-1.206,-0.112,-10.24,2.568,2.514353577303151,-54.435,345.073,0.033,23678.897,False,-0.03054495653547647,0.019221577729303246,0.42,-0.051,-0.316,-9.879,0.01,345.073,169.078,True,0,1,0,0
-1.213,0.112,-1.215,compass,-162.296,0.112,-158.437,-1.206,0.112,-10.24,2.568,2.5105816747710845,-54.421,345.087,0.033,23678.997,False,-0.030729608555183904,0.01922808423690487,0.42,-0.09,-0.355,-9.875,0.01,345.087,169.078,True,0,1,0,0
-1.214,-0.112,-1.215,compass,-159.22,0.224,-158.976,-1.199,0.112,-10.24,2.588,2.5369573149170197,-54.421,345.087,0.039,23679.097,False,-0.036286730042923876,0.022621349710233427,0.42,-0.09,-0.355,-9.875,0.01,345.087,169.078,True,0,1,0,0
-1.207,0.112,-1.215,compass,-158.252,-0.112,-159.247,-1.198,0.112,-10.17,2.588,2.5326689709070505,-54.428,345.08,0.039,23679.197,False,-0.036354911268795864,0.022617467397964382,0.42,-0.09,-0.355,-9.875,0.032,345.08,169.078,True,0,1,0,0
-1.2,0.0,-1.214,compass,-157.456,0.112,-159.315,-1.197,0.224,-10.17,2.528,2.534430666246772,-54.442,345.066,0.035,23679.297,False,-0.03273698730897016,0.02034878142551936,0.42,-0.09,-0.355,-9.875,0.032,345.066,169.078,True,0,1,0,0
-1.201,0.112,-1.214,compass,-160.849,0.336,-159.412,-1.19,-0.112,-10.17,2.528,2.5090315618571597,-54.471,345.037,0.035,23679.397,False,-0.03276249731348456,0.02033461285258533,0.42,-0.09,-0.355,-9.875,0.032,345.037,169.078,True,0,1,0,0
-1.2,-0.112,-1.213,compass,-161.767,0.112,-159.612,-1.196,-0.112,-10.24,2.488,2.5096688917645604,-54.505,345.003,0.016,23679.497,False,-0.014582079906765643,0.009029916057406686,0.42,-0.051,-0.355,-9.879,0.006,345.003,169.078,True,0,1,0,0
-1.207,0.0,-1.213,compass,-162.672,-0.112,-159.874,-1.19,-0.224,-10.24,2.488,2.4933507927025773,-54.52,344.988,0.016,23679.597,False,-0.014606760511122908,0.009026700854534034,0.42,-0.09,-0.355,-9.914,0.006,344.988,169.078,True,0,1,0,0
-1.214,-0.224,-1.213,compass,-163.563,-0.0,-160.137,-1.19,-0.224,-10.24,2.428,2.4859735134917345,-54.527,344.981,0.051,23679.697,False,-0.0475496323308897,0.029331868062839675,0.42,-0.09,-0.395,-9.918,0.006,344.981,169.078,True,0,1,0,0
-1.215,0.0,-1.213,compass,-161.358,0.112,-160.33,-1.183,-0.112,-10.2,2.428,2.4587652126236756,-54.54,344.968,0.051,23679.797,False,-0.047607507811561325,0.02932200149474965,0.42,-0.09,-0.355,-9.914,0.019,344.968,169.078,True,0,1,0,0
-1.221,-0.112,-1.214,compass,-161.854,0.112,-160.352,-1.191,-0.112,-10.2,2.369,2.423349690472601,-54.554,344.954,0.119,23679.898,False,-0.11171109075777512,0.06877048958877575,0.42,-0.09,-0.355,-9.914,0.019,344.954,169.078,True,0,1,0,0
-1.235,0.0,-1.214,compass,-162.808,0.336,-160.424,-1.192,-0.224,-10.2,2.369,2.378892635271984,-54.569,344.939,0.119,23679.998,False,-0.11176193330865153,0.06874589495091292,0.42,-0.129,-0.355,-9.875,0.019,344.939,169.078,True,0,1,0,0
-1.241,-0.112,-1.215,compass,-161.885,-0.0,-160.726,-1.2,-0.112,-10.28,2.329,2.3750879138216066,-54.583,344.925,0.006,23680.098,False,-0.00550669873196882,0.003379792749970436,0.42,-0.09,-0.395,-9.879,-0.01,344.925,169.078,True,0,1,0,0
-1.262,-0.112,-1.216,compass,-163.294,0.112,-161.031,-1.202,-0.224,-10.28,2.329,2.3681199925012737,-54.603,344.905,0.006,23680.198,False,-0.005517037898869629,0.0033780921368739736,0.42,-0.09,-0.355,-9.875,-0.01,344.905,169.078,True,0,1,0,0
-1.275,0.112,-1.218,compass,-160.811,0.448,-161.101,-1.211,-0.336,-10.28,2.289,2.3136804942119844,-54.617,344.891,0.051,23680.298,False,-0.04783413314990978,0.029266877278618403,0.42,-0.09,-0.355,-9.875,-0.01,344.891,169.078,True,0,1,0,0
-1.31,0.112,-1.221,compass,-160.81,0.112,-161.104,-1.208,-0.336,-10.26,2.289,2.271231759980851,-54.638,344.87,0.051,23680.398,False,-0.04783623723144708,0.02925171005843791,0.42,-0.09,-0.355,-9.875,-0.002,344.87,169.078,True,0,1,0,0
-1.318,0.224,-1.224,compass,-161.494,0.224,-161.167,-1.202,-0.448,-10.26,2.448,2.261994560330131,-54.63,344.878,0.021,23680.498,False,-0.02024381867361575,0.01237818389321272,0.42,-0.09,-0.355,-9.875,-0.002,344.878,169.078,True,0,1,0,0
-1.341,0.112,-1.227,compass,-161.973,0.112,-161.236,-1.192,-0.448,-10.24,2.448,2.2674715344626826,-54.609,344.899,0.021,23680.598,False,-0.020249085684385333,0.012384681925930242,0.42,-0.09,-0.316,-9.875,0.008,344.899,169.078,True,0,1,0,0
-1.356,0.0,-1.231,compass,-161.035,-0.0,-161.191,-1.18,-0.336,-10.24,2.448,2.2819652022456056,-54.588,344.92,0.054,23680.698,False,-0.05152321127446162,0.031541101294866675,0.42,-0.09,-0.316,-9.914,0.008,344.92,169.078,True,0,1,0,0
-1.371,0.112,-1.235,compass,-160.549,0.448,-161.103,-1.175,-0.336,-10.2,2.448,2.280670445054604,-54.559,344.949,0.054,23680.798,False,-0.05148983124731076,0.03156353225734213,0.42,-0.051,-0.316,-9.918,0.027,344.949,169.078,True,0,1,0,0
-1.386,0.224,-1.24,compass,-157.197,0.112,-160.891,-1.171,-0.112,-10.2,2.568,2.3082403695570113,-54.53,344.978,0.029,23680.898,False,-0.027545843467284132,0.016921046243506366,0.42,-0.051,-0.277,-9.914,0.027,344.978,169.078,True,0,1,0,0
-1.408,0.0,-1.245,compass,-159.539,-0.0,-160.685,-1.167,-0.224,-10.2,2.568,2.3496730196773687,-54.508,345.0,0.029,23680.998,False,-0.027510068802844453,0.016929841228766746,0.42,-0.051,-0.277,-9.914,0.027,345.0,169.078,True,0,1,0,0
-1.417,-0.112,-1.25,compass,-158.753,-0.0,-160.434,-1.154,-0.112,-10.22,2.568,2.397303772114822,-54.494,345.014,0.039,23681.098,False,-0.03662336732041216,0.022580972405292728,0.42,-0.051,-0.316,-9.918,0.018,345.014,169.078,True,0,1,0,0
-1.425,0.0,-1.255,compass,-158.257,0.224,-160.156,-1.149,-0.112,-10.22,2.568,2.4220493976763384,-54.465,345.043,0.039,23681.198,False,-0.03655703462488866,0.022596916688165283,0.42,-0.09,-0.316,-9.875,0.018,345.043,169.078,True,0,1,0,0
-1.439,-0.112,-1.261,compass,-156.311,0.224,-159.713,-1.151,0.112,-10.2,2.608,2.465866124850139,-54.423,345.085,0.074,23681.298,False,-0.06925309717806524,0.042978943377585344,0.42,-0.09,-0.316,-9.875,0.026,345.085,169.078,True,0,1,0,0
-1.431,-0.224,-1.266,compass,-159.194,-0.0,-159.387,-1.158,-0.112,-10.2,2.608,2.5022830455732814,-54.388,345.12,0.074,23681.398,False,-0.06910138485850141,0.04301506434735247,0.42,-0.09,-0.316,-9.875,0.026,345.12,169.078,True,0,1,0,0
-1.423,-0.112,-1.271,compass,-156.285,0.448,-159.11,-1.171,0.112,-10.2,2.508,2.516994290886722,-54.346,345.162,0.021,23681.499,False,-0.01996449617395884,0.012464522204452653,0.42,-0.09,-0.316,-9.875,0.026,345.162,169.078,True,0,1,0,0
-1.413,-0.224,-1.275,compass,-156.815,0.224,-158.821,-1.192,0.112,-10.22,2.508,2.54074169420414,-54.311,345.197,0.021,23681.599,False,-0.019924962167722115,0.012475168424538418,0.42,-0.09,-0.316,-9.836,0.017,345.197,169.078,True,0,1,0,0
-1.391,0.0,-1.278,compass,-155.703,0.112,-158.458,-1.203,0.112,-10.22,2.448,2.519779680588789,-54.277,345.231,0.031,23681.699,False,-0.028909095650995673,0.018160743500510477,0.42,-0.09,-0.316,-9.875,0.017,345.231,169.078,True,0,1,0,0
-1.368,0.0,-1.281,compass,-154.433,0.112,-158.026,-1.215,0.224,-10.22,2.448,2.509095989037349,-54.249,345.259,0.031,23681.799,False,-0.028822261448032814,0.018173120413623865,0.42,-0.09,-0.316,-9.875,0.017,345.259,169.078,True,0,1,0,0
-1.353,-0.112,-1.283,compass,-157.538,0.448,-157.716,-1.227,0.0,-10.22,2.468,2.5057010586093456,-54.228,345.28,0.035,23681.899,False,-0.03235523554790991,0.02045484617665633,0.42,-0.09,-0.316,-9.875,0.015,345.28,169.078,True,0,1,0,0
-1.303,-0.224,-1.284,compass,-148.102,0.112,-157.044,-1.228,0.224,-10.22,2.488,2.5319699869511876,-54.215,345.293,0.035,23681.999,False,-0.032199544566929646,0.020461299889219818,0.42,-0.09,-0.316,-9.875,0.015,345.293,169.078,True,0,1,0,0
-1.303,0.0,-1.284,compass,-146.586,0.224,-156.079,-1.228,0.224,-10.24,2.408,2.5111172407920614,-54.215,345.293,0.043,23682.099,False,-0.03907359254187271,0.025008255420157555,0.42,-0.09,-0.316,-9.875,0.004,345.293,169.078,True,0,1,0,0
-1.255,0.0,-1.284,compass,-147.777,0.448,-155.061,-1.222,0.112,-10.24,2.408,2.487705250588064,-54.195,345.313,0.043,23682.199,False,-0.03875819840624361,0.025020420705962356,0.42,-0.09,-0.355,-9.875,0.004,345.313,169.078,True,0,1,0,0
-1.241,0.112,-1.282,compass,-148.219,0.112,-154.133,-1.221,0.0,-10.24,2.349,2.441553836727315,-54.174,345.334,0.023,23682.299,False,-0.020978067648418038,0.013654600682807768,0.42,-0.129,-0.355,-9.875,0.004,345.334,169.078,True,0,1,0,0
-1.22,0.112,-1.28,compass,-145.715,0.448,-153.146,-1.219,0.224,-10.22,2.349,2.4201766103355826,-54.132,345.376,0.023,23682.4,False,-0.02079608185767881,0.013668235542289013,0.42,-0.129,-0.355,-9.875,0.01,345.376,169.078,True,0,1,0,0
-1.201,0.224,-1.278,compass,-145.985,0.112,-152.182,-1.21,0.112,-10.22,2.249,2.363477005616408,-54.097,345.411,0.021,23682.5,False,-0.01889600768679253,0.012539921916835482,0.42,-0.09,-0.355,-9.875,0.01,345.411,169.078,True,0,1,0,0
-1.186,0.224,-1.275,compass,-144.682,0.112,-151.217,-1.216,0.224,-10.22,2.249,2.3268891648955914,-54.048,345.46,0.021,23682.6,False,-0.01872162217184316,0.012554763886145806,0.42,-0.09,-0.355,-9.875,0.01,345.46,169.078,True,0,1,0,0
-1.172,0.112,-1.272,compass,-146.819,0.224,-150.279,-1.215,0.112,-10.2,2.209,2.2869420045290973,-54.005,345.503,0.056,23682.7,False,-0.04890054687718723,0.033132611856982776,0.42,-0.09,-0.355,-9.875,0.015,345.503,169.078,True,0,1,0,0
-1.159,0.112,-1.269,compass,-148.17,0.448,-149.561,-1.214,0.0,-10.2,2.209,2.248585902626195,-53.978,345.53,0.056,23682.8,False,-0.048547881173903525,0.033154538853952316,0.42,-0.09,-0.355,-9.875,0.015,345.53,169.078,True,0,1,0,0
-1.159,0.112,-1.265,compass,45.0,0.224,-132.56,-1.207,-0.112,-10.2,0.0,1.7739591281009561,-53.957,345.551,0.051,23682.9,False,-0.034116563506163794,0.029739705166053742,0.42,-0.051,-0.355,-9.879,0.015,345.551,169.078,True,0,1,0,0
-1.162,-0.112,-1.259,compass,135.0,0.336,-93.95,-1.186,-0.112,-10.2,0.0,1.1216455242406274,-53.964,345.544,0.017,23683.1,False,-0.001186927803647296,0.010292901737608882,0.42,-0.09,-0.355,-9.914,0.014,345.544,169.078,True,0,1,0,0
-1.162,-0.112,-1.259,compass,135.0,0.336,-93.95,-1.186,-0.112,-10.2,1.99,1.1216455242406274,-53.964,345.544,0.017,23683.1,False,-0.001186927803647296,0.010292901737608882,0.43,-0.09,-0.355,-9.914,0.014,345.544,169.078,True,0,1,0,0
-1.177,0.0,-1.254,compass,-0.0,0.224,-67.037,-1.181,0.0,-10.28,0.0,1.03915098566285,-53.984,345.524,0.086,23683.301,False,-0.07106159494932597,0.05029612762307221,0.43,-0.09,-0.355,-9.914,-0.029,345.524,169.078,True,0,1,0,0
-1.177,0.0,-1.254,compass,-0.0,0.224,-67.037,-1.181,0.0,-10.28,0.0,1.03915098566285,-53.984,345.524,0.086,23683.301,False,-0.07106159494932597,0.05029612762307221,0.43,-0.09,-0.355,-9.914,-0.029,345.524,169.078,True,0,1,0,0
-1.205,-0.112,-1.251,compass,116.565,0.224,-43.462,-1.184,-0.224,-10.24,0.0,0.6895677689128155,-53.984,345.524,0.014,23683.501,False,-0.013432582733754113,0.008001732903126713,0.43,-0.09,-0.395,-9.918,-0.013,345.524,169.078,True,0,1,0,0
-1.205,-0.112,-1.251,compass,116.565,0.224,-43.462,-1.184,-0.224,-10.24,0.0,0.6895677689128155,-53.984,345.524,0.014,23683.501,False,-0.013432582733754113,0.008001732903126713,0.43,-0.09,-0.395,-9.918,-0.013,345.524,169.078,True,0,1,0,0
-1.239,0.112,-1.25,compass,63.435,0.56,-19.083,-1.196,-0.224,-10.26,0.0,0.49546091459400166,-53.948,345.56,0.064,23683.701,False,-0.034503803865397455,0.03775499379248086,0.43,-0.09,-0.355,-9.914,-0.021,345.56,169.078,True,0,1,0,0
-1.239,0.112,-1.25,compass,63.435,0.56,-19.083,-1.196,-0.224,-10.26,0.0,0.49546091459400166,-53.948,345.56,0.064,23683.701,False,-0.034503803865397455,0.03775499379248086,0.43,-0.09,-0.355,-9.914,-0.021,345.56,169.078,True,0,1,0,0
-1.28,0.0,-1.251,compass,90.0,0.224,5.459,-1.209,-0.336,-10.22,0.0,0.3753442081741252,-53.898,345.61,0.021,23683.902,False,-0.0006261024900158337,0.012600056462827478,0.43,-0.09,-0.316,-9.875,0.001,345.61,169.078,True,0,1,0,0
-1.28,0.0,-1.251,compass,90.0,0.224,5.459,-1.209,-0.336,-10.22,0.0,0.3753442081741252,-53.898,345.61,0.021,23683.902,False,-0.0006261024900158337,0.012600056462827478,0.43,-0.09,-0.316,-9.875,0.001,345.61,169.078,True,0,1,0,0
-1.305,-0.112,-1.254,compass,116.564,0.448,22.567,-1.234,-0.224,-10.22,0.0,0.30720103494350415,-53.841,345.667,0.134,23684.102,False,0.0345439817571475,0.07914337620642331,0.44,-0.09,-0.316,-9.836,0.001,345.667,169.078,True,0,1,0,0
-1.305,-0.112,-1.254,compass,116.564,0.448,22.567,-1.234,-0.224,-10.22,0.0,0.30720103494350415,-53.841,345.667,0.134,23684.102,False,0.0345439817571475,0.07914337620642331,0.44,-0.09,-0.316,-9.836,0.001,345.667,169.078,True,0,1,0,0
-1.34,0.112,-1.258,compass,45.001,0.112,27.228,-1.24,-0.112,-10.22,0.0,0.24205708336352963,-53.791,345.717,0.049,23684.302,False,0.024872410125329533,0.02870934378872607,0.44,-0.09,-0.316,-9.875,0.001,345.717,169.078,True,0,1,0,0
-1.34,0.112,-1.258,compass,45.001,0.112,27.228,-1.24,-0.112,-10.22,0.0,0.24205708336352963,-53.791,345.717,0.049,23684.302,False,0.024872410125329533,0.02870934378872607,0.44,-0.09,-0.316,-9.875,0.001,345.717,169.078,True,0,1,0,0
-1.363,0.112,-1.264,compass,-45.002,0.224,28.347,-1.221,0.112,-10.24,0.0,0.21928951842619054,-53.819,345.689,0.099,23684.503,False,0.06660471641503637,0.05852804215230735,0.44,-0.09,-0.316,-9.836,-0.01,345.689,169.078,True,0,1,0,0
-1.378,0.0,-1.267,compass,90.0,0.448,27.804,-1.215,-0.224,-10.24,0.0,0.214587655381492,-53.833,345.675,0.099,23684.503,False,0.07255158238542854,0.05850911783928636,0.44,-0.09,-0.277,-9.84,-0.01,345.675,169.078,True,0,1,0,0
-1.386,0.112,-1.271,compass,-45.002,0.336,26.94,-1.202,0.112,-10.22,0.0,0.18926888779305323,-53.867,345.641,0.016,23684.703,False,0.012130557983935045,0.009170373336700897,0.44,-0.09,-0.277,-9.879,-0.002,345.641,169.078,True,0,1,0,0
-1.38,0.112,-1.274,compass,-63.437,0.112,22.595,-1.194,0.224,-10.22,0.0,0.18088025078680497,-53.896,345.612,0.016,23684.803,False,0.013220831960806109,0.009164100389308401,0.44,-0.129,-0.277,-9.879,-0.002,345.612,169.078,True,0,1,0,0
-1.368,0.0,-1.277,compass,-90.0,-0.0,15.287,-1.177,0.224,-10.3,0.0,0.17755701236557936,-53.966,345.542,0.045,23684.903,False,0.041339789220999415,0.026302498155130194,0.44,-0.09,-0.277,-9.879,-0.042,345.542,169.078,True,0,1,0,0
-1.362,0.0,-1.28,compass,-110.221,-0.112,4.453,-1.169,0.336,-10.3,2.03,0.6309497566453104,-53.995,345.513,0.045,23685.003,False,0.0006714501530382496,0.026284440585818292,0.45,-0.09,-0.277,-9.879,-0.042,345.513,169.078,True,0,1,0,0
-1.348,0.112,-1.282,compass,-109.274,0.112,-7.534,-1.166,0.224,-10.3,2.05,0.970767886715157,-54.023,345.485,0.049,23685.103,False,-0.035930450284409186,0.028550862164708812,0.45,-0.09,-0.277,-9.918,-0.042,345.485,169.078,True,0,1,0,0
-1.334,0.112,-1.283,compass,-109.866,0.112,-19.691,-1.164,0.112,-10.24,2.09,1.2301014691618217,-54.051,345.457,0.049,23685.203,False,-0.04820889928925742,0.028531066103842283,0.45,-0.09,-0.316,-9.914,-0.018,345.457,169.078,True,0,1,0,0
-1.312,0.0,-1.284,compass,-110.815,-0.0,-31.408,-1.168,0.224,-10.24,2.09,1.4481492945625014,-54.08,345.428,0.052,23685.303,False,-0.04996444625042098,0.030792654231336425,0.45,-0.09,-0.316,-9.914,-0.018,345.428,169.078,True,0,1,0,0
-1.291,0.112,-1.284,compass,-109.046,0.112,-42.245,-1.165,0.336,-10.3,2.269,1.664154979945468,-54.109,345.399,0.052,23685.403,False,-0.04260766110400097,0.030771185057954856,0.45,-0.09,-0.355,-9.914,-0.047,345.399,169.078,True,0,1,0,0
-1.261,0.112,-1.284,compass,-109.528,0.224,-51.778,-1.175,0.224,-10.3,2.269,1.8201944248067206,-54.13,345.378,0.099,23685.504,False,-0.06554271512473968,0.05809325410601327,0.45,-0.129,-0.355,-9.914,-0.047,345.378,169.078,True,0,1,0,0
-1.226,-0.112,-1.282,compass,-112.241,-0.0,-60.424,-1.177,0.224,-10.26,2.428,1.984428146339578,-54.166,345.342,0.099,23685.604,False,-0.053346844746942276,0.05804248015672989,0.45,-0.09,-0.355,-9.914,-0.021,345.342,169.078,True,0,1,0,0
-1.197,-0.112,-1.279,compass,-112.241,0.112,-67.865,-1.18,0.224,-10.26,2.428,2.1107950526022554,-54.188,345.32,0.144,23685.704,False,-0.06384711832869137,0.08417323893433958,0.45,-0.09,-0.395,-9.918,-0.021,345.32,169.078,True,0,1,0,0
-1.159,-0.112,-1.276,compass,-112.229,-0.112,-74.42,-1.196,0.224,-10.26,2.568,2.238182488886175,-54.196,345.312,0.144,23685.804,False,-0.05446742993373021,0.08415727396018925,0.45,-0.09,-0.395,-9.918,-0.021,345.312,169.078,True,0,1,0,0
-1.138,0.112,-1.272,compass,-110.259,0.224,-80.366,-1.201,0.112,-10.3,2.568,2.3164074137307846,-54.147,345.361,0.062,23685.904,False,-0.021110997223497283,0.03643547819989771,0.45,-0.09,-0.395,-9.918,-0.033,345.361,169.078,True,0,1,0,0
-1.116,-0.112,-1.267,compass,-112.733,-0.112,-85.489,-1.206,0.112,-10.3,2.548,2.382314982434522,-54.098,345.41,0.062,23686.004,False,-0.01967873200938531,0.03647859260438491,0.45,-0.09,-0.355,-9.914,-0.033,345.41,169.078,True,0,1,0,0
-1.103,-0.112,-1.262,compass,-112.722,0.112,-90.027,-1.206,0.112,-10.3,2.588,2.4436853489607238,-54.021,345.487,0.027,23686.104,False,-0.008352465894708932,0.015988995019998602,0.45,-0.09,-0.395,-9.918,-0.033,345.487,169.078,True,0,1,0,0
-1.096,0.0,-1.257,compass,-112.528,-0.0,-93.84,-1.206,-0.112,-10.2,2.528,2.4484889926395237,-53.972,345.536,0.027,23686.204,False,-0.00828472869294074,0.01600795759113507,0.45,-0.09,-0.395,-9.918,0.004,345.536,169.078,True,0,1,0,0
-1.082,-0.112,-1.252,compass,-113.817,-0.0,-97.212,-1.205,-0.112,-10.2,2.528,2.458721256475741,-53.916,345.592,0.004,23686.304,False,-0.0012013543884368603,0.002289933305412308,0.45,-0.09,-0.355,-9.875,0.004,345.592,169.078,True,0,1,0,0
-1.075,0.0,-1.246,compass,-113.001,0.336,-100.024,-1.212,0.0,-10.2,2.468,2.4606630547936863,-53.867,345.641,0.004,23686.404,False,-0.0012272269821744638,0.002292630747767389,0.45,-0.09,-0.355,-9.875,0.004,345.641,169.078,True,0,1,0,0
-1.075,-0.112,-1.241,compass,-115.488,0.112,-102.311,-1.213,-0.224,-10.2,2.468,2.4411052324946194,-53.831,345.677,0.037,23686.504,False,-0.011913605433151548,0.021798506012055928,0.45,-0.09,-0.355,-9.875,0.004,345.677,169.078,True,0,1,0,0
-1.089,0.112,-1.237,compass,-112.195,-0.0,-104.132,-1.215,-0.112,-10.24,2.369,2.4053435929260454,-53.796,345.712,0.037,23686.604,False,-0.012135043270686251,0.021816661968870152,0.45,-0.09,-0.355,-9.875,-0.017,345.712,169.078,True,0,1,0,0
-1.11,0.112,-1.233,compass,-112.202,0.224,-105.58,-1.219,-0.112,-10.24,2.389,2.3816687482111876,-53.739,345.769,0.039,23686.704,False,-0.012961525818086779,0.02299593589685254,0.45,-0.09,-0.355,-9.875,-0.017,345.769,169.078,True,0,1,0,0
-1.138,-0.224,-1.23,compass,-117.209,0.336,-106.967,-1.223,-0.224,-10.22,2.229,2.332608218582865,-53.71,345.798,0.039,23686.804,False,-0.013286293575480732,0.023011817749062847,0.45,-0.051,-0.355,-9.879,-0.005,345.798,169.078,True,0,1,0,0
-1.159,-0.112,-1.228,compass,-116.489,0.112,-108.273,-1.226,-0.336,-10.22,2.229,2.276983901254936,-53.675,345.833,0.029,23686.904,False,-0.010258606636397605,0.0172732199509303,0.44,-0.09,-0.355,-9.875,-0.005,345.833,169.078,True,0,1,0,0
-1.181,-0.112,-1.227,compass,-115.058,0.112,-109.369,-1.222,-0.112,-10.22,2.249,2.261995332247626,-53.653,345.855,0.029,23687.004,False,-0.010528689383433175,0.01728229136028543,0.44,-0.09,-0.355,-9.914,-0.005,345.855,169.078,True,0,1,0,0
-1.21,0.0,-1.226,compass,-114.959,0.112,-110.196,-1.219,-0.336,-10.24,2.249,2.2195366903193907,-53.617,345.891,0.041,23687.104,False,-0.015007986043615055,0.024215923868328517,0.44,-0.09,-0.355,-9.914,-0.011,345.891,169.078,True,0,1,0,0
-1.238,-0.112,-1.226,compass,-113.351,-0.0,-110.796,-1.216,-0.336,-10.24,2.19,2.1776109598124047,-53.596,345.912,0.041,23687.204,False,-0.015194150674742673,0.02422817641800274,0.44,-0.09,-0.316,-9.914,-0.011,345.912,169.078,True,0,1,0,0
-1.268,0.112,-1.228,compass,-110.15,-0.0,-111.245,-1.206,-0.336,-10.22,2.19,2.1372458481181127,-53.573,345.935,0.012,23687.304,False,-0.004378963531655813,0.006925997708256442,0.44,-0.09,-0.355,-9.914,-0.0,345.935,169.078,True,0,1,0,0
-1.304,-0.112,-1.23,compass,-112.693,-0.0,-111.577,-1.203,-0.224,-10.22,2.19,2.1279688757255903,-53.559,345.949,0.012,23687.404,False,-0.004405966011510455,0.006928375809265795,0.44,-0.09,-0.316,-9.914,-0.0,345.949,169.078,True,0,1,0,0
-1.332,0.112,-1.233,compass,-110.151,0.224,-111.538,-1.2,-0.336,-10.22,2.17,2.092406065416345,-53.544,345.964,0.037,23687.505,False,-0.013841130847611476,0.02194733264525641,0.44,-0.09,-0.316,-9.914,-0.0,345.964,169.078,True,0,1,0,0
-1.397,0.112,-1.238,compass,-133.683,-0.0,-112.516,-1.195,-0.56,-10.24,2.03,2.016598764444014,-53.501,346.007,0.037,23687.605,False,-0.014342090887388087,0.021969969277878518,0.44,-0.09,-0.316,-9.914,-0.007,346.007,169.078,True,0,1,0,0
-1.425,0.224,-1.244,compass,-129.638,-0.0,-113.385,-1.191,-0.336,-10.24,2.03,1.9609037839965917,-53.486,346.022,0.117,23687.705,False,-0.04675770337384816,0.06940243481595575,0.44,-0.051,-0.316,-9.879,-0.007,346.022,169.078,True,0,1,0,0
-1.453,0.0,-1.25,compass,90.0,-0.0,-99.966,-1.195,-0.448,-10.22,0.0,1.5962052032664997,-53.478,346.03,0.117,23687.805,False,-0.02056180240844786,0.06941585603911091,0.42,-0.051,-0.316,-9.879,0.004,346.03,169.078,True,0,1,0,0
-1.476,-0.112,-1.257,compass,104.035,0.224,-83.893,-1.184,-0.448,-10.22,0.0,1.3166050005322254,-53.471,346.037,0.084,23687.905,False,0.008689817932199919,0.04975680534074664,0.42,-0.09,-0.277,-9.879,0.004,346.037,169.078,True,0,1,0,0
-1.497,0.112,-1.264,compass,63.438,0.112,-67.478,-1.179,-0.224,-10.22,0.0,1.0751701018476376,-53.47,346.038,0.084,23688.005,False,-0.0699074111397312,0.04975730081289471,0.42,-0.09,-0.277,-9.879,0.004,346.038,169.078,True,0,1,0,0
-1.519,-0.112,-1.271,compass,116.562,0.112,-50.43,-1.174,-0.224,-10.22,0.0,0.8805603228795802,-53.492,346.016,0.056,23688.105,False,-0.055253720259434216,0.03354044039792488,0.42,-0.09,-0.277,-9.879,0.003,346.016,169.078,True,0,1,0,0
-1.533,-0.224,-1.279,compass,153.432,-0.112,-32.306,-1.176,-0.112,-10.22,0.0,0.7260833646433701,-53.526,345.982,0.056,23688.205,False,-0.042218155878229593,0.033513145839705376,0.42,-0.09,-0.277,-9.84,0.003,345.982,169.078,True,0,1,0,0
-1.538,-0.224,-1.287,compass,153.432,-0.0,-11.093,-1.19,-0.112,-10.24,0.0,0.5973220698267905,-53.548,345.96,0.014,23688.305,False,-0.007237194647764488,0.008085214935171352,0.42,-0.09,-0.277,-9.879,-0.007,345.96,169.078,True,0,1,0,0
-1.55,-0.112,-1.295,compass,-180.0,0.112,-6.151,-1.205,0.0,-10.24,0.0,0.48220733401653526,-53.576,345.932,0.014,23688.405,False,-0.0018361249541106483,0.00807990584988079,0.42,-0.09,-0.277,-9.879,-0.007,345.932,169.078,True,0,1,0,0
-1.542,-0.112,-1.302,compass,-116.562,0.448,-7.017,-1.211,0.224,-10.22,0.0,0.42379435430331924,-53.604,345.904,0.082,23688.505,False,0.02248100594504102,0.04844734516992018,0.42,-0.129,-0.277,-9.879,0.004,345.904,169.078,True,0,1,0,0
-1.534,0.112,-1.309,compass,-45.004,-0.112,-8.182,-1.217,0.112,-10.22,0.0,0.36700743797001223,-53.597,345.911,0.082,23688.605,False,0.046786749160686966,0.048455055944668986,0.42,-0.129,-0.277,-9.879,0.004,345.911,169.078,True,0,1,0,0
-1.52,0.112,-1.316,compass,-71.567,-0.112,-11.446,-1.223,0.336,-10.22,0.0,0.3465198129021847,-53.583,345.925,0.089,23688.705,False,-0.04066321730232868,0.05308685321310674,0.42,-0.09,-0.277,-9.879,0.004,345.925,169.078,True,0,1,0,0
-1.498,0.0,-1.321,compass,-114.598,-0.0,-19.613,-1.227,0.224,-10.2,2.07,0.763442171503873,-53.584,345.924,0.089,23688.805,False,-0.08391745388575662,0.05308631344499973,0.41,-0.09,-0.277,-9.879,0.01,345.924,169.078,True,0,1,0,0
-1.477,0.112,-1.326,compass,-112.511,0.112,-28.992,-1.225,0.336,-10.2,2.07,1.0903408184198586,-53.57,345.938,0.076,23688.905,False,-0.07463324939639499,0.045022408453692674,0.41,-0.09,-0.277,-9.879,0.01,345.938,169.078,True,0,1,0,0
-1.449,0.112,-1.329,compass,-113.103,0.112,-38.636,-1.221,0.224,-10.2,2.05,1.3258337608622368,-53.564,345.944,0.076,23689.005,False,-0.0646626191781,0.04502935437952489,0.41,-0.09,-0.277,-9.879,0.01,345.944,169.078,True,0,1,0,0
-1.422,-0.112,-1.332,compass,-114.702,-0.0,-48.322,-1.211,0.448,-10.2,2.05,1.5406191896187638,-53.564,345.944,0.035,23689.105,False,-0.024328715572688384,0.020782634428993765,0.41,-0.09,-0.277,-9.879,0.009,345.944,169.078,True,0,1,0,0
-1.387,-0.112,-1.334,compass,-114.68,0.112,-57.377,-1.214,0.448,-10.2,2.01,1.698501686114113,-53.565,345.943,0.035,23689.205,False,-0.019695253434694887,0.020782321131134353,0.41,-0.09,-0.316,-9.875,0.009,345.943,169.078,True,0,1,0,0
-1.345,0.0,-1.334,compass,-113.895,0.112,-65.413,-1.208,0.336,-10.26,2.01,1.8031728103961906,-53.565,345.943,0.062,23689.305,False,-0.02880468510039207,0.03694581016650038,0.41,-0.09,-0.316,-9.875,-0.022,345.943,169.078,True,0,1,0,0
-1.275,-0.112,-1.332,compass,-112.605,-0.112,-72.515,-1.207,0.336,-10.26,2.03,1.894075885973363,-53.566,345.942,0.062,23689.405,False,-0.024519865975081667,0.03694480649679036,0.41,-0.09,-0.316,-9.875,-0.022,345.942,169.078,True,0,1,0,0
-1.239,0.0,-1.33,compass,-110.566,0.448,-78.57,-1.209,0.448,-10.15,2.01,1.96737082569848,-53.567,345.941,0.068,23689.506,False,-0.023627574471953846,0.04040777086768884,0.41,-0.09,-0.355,-9.875,0.036,345.941,169.078,True,0,1,0,0
-1.205,0.224,-1.326,compass,-108.135,-0.0,-83.589,-1.205,0.336,-10.15,2.03,2.0070924208230796,-53.561,345.947,0.068,23689.606,False,-0.021422225517085072,0.0404139172996163,0.41,-0.09,-0.355,-9.914,0.036,345.947,169.078,True,0,1,0,0
-1.178,0.224,-1.321,compass,-108.135,0.112,-87.846,-1.195,0.336,-10.15,2.03,2.0384331194370158,-53.554,345.954,0.051,23689.706,False,-0.014910883686100471,0.030026502286535812,0.41,-0.09,-0.355,-9.914,0.036,345.954,169.078,True,0,1,0,0
-1.149,0.0,-1.316,compass,-112.367,0.224,-91.558,-1.199,0.112,-10.22,2.09,2.059834826191609,-53.547,345.961,0.051,23689.806,False,-0.014455653713150256,0.030031045582379026,0.41,-0.09,-0.395,-9.918,0.009,345.961,169.078,True,0,1,0,0
-1.129,0.112,-1.311,compass,-111.465,-0.0,-94.973,-1.189,0.0,-10.22,2.11,2.0655735677687357,-53.548,345.96,0.006,23689.906,False,-0.0016779782740408552,0.0034651073703938825,0.41,-0.09,-0.395,-9.918,0.009,345.96,169.078,True,0,1,0,0
-1.116,-0.112,-1.305,compass,-105.575,0.224,-97.556,-1.181,0.0,-10.11,2.13,2.08289941962736,-53.548,345.96,0.006,23690.006,False,-0.0016780156613935,0.0034651024737952394,0.41,-0.09,-0.395,-9.918,0.063,345.96,169.078,True,0,1,0,0
-1.109,-0.112,-1.299,compass,-105.575,0.224,-99.23,-1.18,0.0,-10.11,2.13,2.0940751542784155,-53.555,345.953,0.054,23690.106,False,-0.015355111682860153,0.03233557683217957,0.41,-0.051,-0.395,-9.914,0.063,345.953,169.078,True,0,1,0,0
-1.095,0.112,-1.293,compass,-103.127,-0.0,-100.334,-1.178,-0.224,-10.22,2.07,2.0573092132164845,-53.556,345.952,0.054,23690.206,False,-0.014926991612969917,0.03233477093651916,0.41,-0.051,-0.395,-9.914,0.002,345.952,169.078,True,0,1,0,0
-1.091,-0.224,-1.287,compass,-107.214,0.336,-101.518,-1.156,0.0,-10.22,2.07,2.066641791985168,-53.555,345.953,0.016,23690.306,False,-0.004253275506548509,0.009238763758597706,0.41,-0.051,-0.395,-9.914,0.002,345.953,169.078,True,0,1,0,0
-1.106,-0.112,-1.281,compass,-106.625,0.112,-102.457,-1.151,-0.224,-10.17,2.03,2.035721258005613,-53.547,345.961,0.016,23690.406,False,-0.004247087576290152,0.009240352238377297,0.41,-0.051,-0.355,-9.918,0.027,345.961,169.078,True,0,1,0,0
-1.113,-0.224,-1.276,compass,-108.337,0.112,-103.293,-1.152,-0.224,-10.17,2.03,2.015587527405764,-53.54,345.968,0.016,23690.506,False,-0.004269071455470107,0.009241888751744805,0.41,-0.051,-0.355,-9.918,0.027,345.968,169.078,True,0,1,0,0
-1.127,-0.112,-1.272,compass,-107.123,0.112,-103.962,-1.147,-0.336,-10.17,2.05,1.9874514356785422,-53.54,345.968,0.111,23690.606,False,-0.004292146886694372,0.009241961498748402,0.38,-0.09,-0.355,-9.914,0.027,345.968,169.078,True,0,1,0,0
-1.148,-0.112,-1.268,compass,-106.598,-0.0,-103.87,-1.15,-0.224,-10.22,2.05,1.9740001113351149,-53.533,345.975,0.111,23690.706,False,-0.029558295725039183,0.06586022514973566,0.38,-0.09,-0.355,-9.914,0.008,345.975,169.078,True,0,1,0,0
-1.175,-0.112,-1.265,compass,116.565,-0.112,-88.367,-1.16,-0.224,-10.22,0.0,1.5881965802411073,-53.532,345.976,0.019,23690.806,False,0.0007428658818442231,0.06586062185480358,0.38,-0.09,-0.355,-9.875,0.008,345.976,169.078,True,0,1,0,0
-1.188,-0.112,-1.263,compass,116.565,0.112,-72.744,-1.169,-0.224,-10.22,0.0,1.2729528531905085,-53.525,345.983,0.019,23690.906,False,0.00545204293554316,0.01155640581806849,0.38,-0.129,-0.316,-9.875,0.008,345.983,169.078,True,0,1,0,0
-1.236,-0.112,-1.261,compass,-106.679,0.448,-51.092,-1.182,-0.224,-10.22,1.99,1.2288914834123796,-53.525,345.998,0.029,23691.006,False,-0.01159250220232247,0.011556486895776928,0.38,-0.09,-0.355,-9.875,0.007,345.998,169.078,True,0,1,0,0
-1.236,-0.112,-1.261,compass,-106.679,0.448,-51.092,-1.182,-0.224,-10.22,1.99,1.2288914834123796,-53.51,345.998,0.029,23691.107,False,-0.01159250220232247,0.01734086954429538,0.38,-0.09,-0.355,-9.875,0.007,345.998,169.078,True,0,1,0,0
-1.304,-0.112,-1.263,compass,-107.19,0.448,-49.627,-1.206,-0.224,-10.22,2.01,1.3706132737627992,-53.468,346.04,0.072,23691.207,False,-0.0041694091853734195,0.01735808827665127,0.38,-0.09,-0.316,-9.875,0.007,346.04,169.078,True,0,1,0,0
-1.304,-0.112,-1.263,compass,-106.651,0.448,-51.213,-1.206,-0.224,-10.22,2.01,1.4983064396734471,-53.425,346.083,0.072,23691.307,False,0.001146311023463107,0.042859787412818054,0.38,-0.09,-0.316,-9.875,0.006,346.083,169.078,True,0,1,0,0
-1.347,0.112,-1.267,compass,-103.536,-0.0,-59.397,-1.205,-0.336,-10.22,2.03,1.634705911318377,-53.361,346.147,0.035,23691.507,False,0.004626078606345169,0.020882117758568405,0.38,-0.09,-0.316,-9.875,0.006,346.147,169.078,True,0,1,0,0
-1.347,0.112,-1.267,compass,-103.536,-0.0,-59.397,-1.205,-0.336,-10.22,2.03,1.634705911318377,-53.361,346.147,0.035,23691.507,False,0.004626078606345169,0.020882117758568405,0.38,-0.09,-0.316,-9.875,0.006,346.147,169.078,True,0,1,0,0
-1.389,0.112,-1.274,compass,-103.56,0.224,-68.699,-1.211,-0.336,-10.22,2.13,1.7577400174179925,-53.296,346.212,0.105,23691.707,False,0.013422590690137402,0.06274156266812751,0.38,-0.09,-0.316,-9.875,0.006,346.212,169.078,True,0,1,0,0
-1.389,0.112,-1.274,compass,-103.56,0.224,-68.699,-1.211,-0.336,-10.22,2.13,1.7577400174179925,-53.296,346.212,0.105,23691.707,False,0.013422590690137402,0.06274156266812751,0.38,-0.09,-0.316,-9.875,0.006,346.212,169.078,True,0,1,0,0
-1.419,0.112,-1.282,compass,-103.134,0.224,-77.364,-1.201,-0.224,-10.17,2.09,1.8295868743043218,-53.232,346.276,0.033,23691.907,False,0.0024138458486155146,0.019781549585118217,0.38,-0.129,-0.316,-9.875,0.022,346.276,169.078,True,0,1,0,0
-1.419,0.112,-1.282,compass,-103.134,0.224,-77.364,-1.201,-0.224,-10.17,2.09,1.8295868743043218,-53.232,346.276,0.033,23691.907,False,0.0024138458486155146,0.019781549585118217,0.38,-0.129,-0.316,-9.875,0.022,346.276,169.078,True,0,1,0,0
-1.441,0.224,-1.291,compass,-101.188,0.224,-84.194,-1.198,-0.112,-10.2,2.19,1.938031220181954,-53.141,346.367,0.086,23692.107,False,0.001094821179513247,0.05130870565963261,0.38,-0.09,-0.277,-9.879,0.005,346.367,169.078,True,0,1,0,0
-1.441,0.224,-1.291,compass,-101.188,0.224,-84.194,-1.198,-0.112,-10.2,2.19,1.938031220181954,-53.141,346.367,0.086,23692.107,False,0.001094821179513247,0.05130870565963261,0.38,-0.09,-0.277,-9.879,0.005,346.367,169.078,True,0,1,0,0
-1.449,0.112,-1.3,compass,-102.844,0.112,-89.119,-1.193,-0.112,-10.2,2.269,2.031432950382242,-53.077,346.431,0.054,23692.307,False,-0.002053805215930278,0.03269928272266702,0.38,-0.09,-0.277,-9.879,0.005,346.431,169.078,True,0,1,0,0
-1.449,0.112,-1.3,compass,-102.844,0.112,-89.119,-1.193,-0.112,-10.2,2.269,2.031432950382242,-53.077,346.431,0.054,23692.307,False,-0.002053805215930278,0.03269928272266702,0.38,-0.09,-0.277,-9.879,0.005,346.431,169.078,True,0,1,0,0
-1.451,0.336,-1.309,compass,-100.078,0.224,-92.917,-1.173,-0.112,-10.28,2.468,2.166603988000316,-53.013,346.495,0.039,23692.507,False,-0.0032020817656866402,0.023391612842967802,0.38,-0.051,-0.277,-9.914,-0.023,346.495,169.078,True,0,1,0,0
-1.451,0.336,-1.309,compass,-100.078,0.224,-92.917,-1.173,-0.112,-10.28,2.468,2.166603988000316,-53.013,346.495,0.039,23692.507,False,-0.0032020817656866402,0.023391612842967802,0.38,-0.051,-0.277,-9.914,-0.023,346.495,169.078,True,0,1,0,0
-1.44,0.0,-1.317,compass,-103.69,0.224,-95.541,-1.152,0.112,-10.2,2.667,2.3789751214963872,-52.957,346.551,0.056,23692.708,False,-0.00648111513335945,0.03396161278996194,0.38,-0.051,-0.277,-9.875,0.006,346.551,169.078,True,0,1,0,0
-1.44,0.0,-1.317,compass,-103.69,0.224,-95.541,-1.152,0.112,-10.2,2.667,2.3789751214963872,-52.957,346.551,0.056,23692.708,False,-0.00648111513335945,0.03396161278996194,0.38,-0.051,-0.277,-9.875,0.006,346.551,169.078,True,0,1,0,0
-1.415,-0.112,-1.323,compass,-104.891,0.112,-97.749,-1.128,0.112,-10.26,2.767,2.5550775149481857,-52.915,346.593,0.027,23692.908,False,-0.00395951054441461,0.016411353128398254,0.38,-0.051,-0.277,-9.875,-0.024,346.593,169.078,True,0,1,0,0
-1.387,-0.112,-1.325,compass,-102.652,-0.0,-98.655,-1.125,0.224,-10.26,2.866,2.651655159883773,-52.894,346.614,0.027,23693.008,False,-0.004313471381949439,0.016419098719407967,0.38,-0.09,-0.316,-9.875,-0.024,346.614,169.078,True,0,1,0,0
-1.366,-0.112,-1.326,compass,-102.402,0.112,-99.443,-1.13,0.336,-10.22,2.866,2.7407451417680484,-52.902,346.606,0.008,23693.108,False,-0.001325081991767897,0.004690373970185301,0.38,-0.09,-0.316,-9.875,-0.002,346.606,169.078,True,0,1,0,0
-1.329,-0.224,-1.326,compass,-103.49,0.112,-100.112,-1.139,0.336,-10.22,2.906,2.8219769200142917,-52.909,346.599,0.008,23693.208,False,-0.0014044806963049421,0.004689541718639852,0.38,-0.09,-0.316,-9.875,-0.002,346.599,169.078,True,0,1,0,0
-1.307,-0.224,-1.326,compass,-103.5,0.224,-100.559,-1.151,0.336,-10.22,2.886,2.8798528739538596,-52.917,346.591,0.037,23693.308,False,-0.006917283542610082,0.022271468588200147,0.38,-0.09,-0.316,-9.875,-0.002,346.591,169.078,True,0,1,0,0
-1.283,-0.224,-1.325,compass,-103.274,-0.0,-100.929,-1.176,0.448,-10.2,2.807,2.9204740494922685,-52.925,346.583,0.037,23693.408,False,-0.007122413726223359,0.022267479208368537,0.38,-0.09,-0.355,-9.875,0.005,346.583,169.078,True,0,1,0,0
-1.259,-0.112,-1.323,compass,-102.411,0.224,-101.043,-1.194,0.336,-10.2,2.807,2.9349373922263977,-52.933,346.575,0.072,23693.508,False,-0.013967940835539299,0.04335451562678687,0.38,-0.09,-0.355,-9.875,0.005,346.575,169.078,True,0,1,0,0
-1.237,0.0,-1.32,compass,-101.263,0.224,-101.053,-1.205,0.336,-10.26,2.767,2.9348155746472626,-52.94,346.568,0.072,23693.608,False,-0.013944548798793688,0.043346989220353085,0.38,-0.09,-0.355,-9.875,-0.026,346.568,169.078,True,0,1,0,0
-1.214,0.0,-1.317,compass,-101.502,0.112,-101.009,-1.217,0.224,-10.26,2.787,2.9260578160825848,-52.948,346.56,0.072,23693.708,False,-0.01386340947292433,0.04333945775062209,0.38,-0.09,-0.395,-9.879,-0.026,346.56,169.078,True,0,1,0,0
-1.186,0.224,-1.313,compass,-99.034,0.112,-100.804,-1.221,0.224,-10.2,2.687,2.892768402517981,-52.935,346.573,0.072,23693.808,False,-0.013570744206991081,0.043352828295670845,0.38,-0.09,-0.355,-9.875,0.007,346.573,169.078,True,0,1,0,0
-1.152,-0.112,-1.308,compass,-103.261,0.224,-100.925,-1.21,0.0,-10.2,2.687,2.8496463051531604,-52.921,346.587,0.027,23693.908,False,-0.005179013154704296,0.01640889529802869,0.38,-0.09,-0.395,-9.879,0.007,346.587,169.078,True,0,1,0,0
-1.146,0.336,-1.303,compass,-98.032,-0.336,-100.825,-1.202,0.0,-10.17,2.608,2.7886862185594428,-52.921,346.587,0.027,23694.008,False,-0.005127599169039983,0.01640890870023842,0.38,-0.09,-0.395,-9.879,0.021,346.587,169.078,True,0,1,0,0
-1.14,0.112,-1.298,compass,-100.935,0.224,-100.737,-1.187,-0.112,-10.17,2.588,2.7279799316386946,-52.913,346.595,0.027,23694.108,False,-0.005080121418304691,0.016411916495303668,0.38,-0.09,-0.395,-9.918,0.021,346.595,169.078,True,0,1,0,0
-1.136,0.112,-1.293,compass,-100.926,0.224,-100.662,-1.166,-0.112,-10.17,2.568,2.6762461338191095,-52.899,346.609,0.027,23694.208,False,-0.005037742531374029,0.016417297939811736,0.38,-0.09,-0.355,-9.914,0.021,346.609,169.078,True,0,1,0,0
-1.138,0.224,-1.289,compass,-99.551,0.112,-100.326,-1.152,-0.112,-10.2,2.568,2.632430624708652,-52.892,346.616,0.068,23694.308,False,-0.012194243952066648,0.04105008302484903,0.38,-0.09,-0.355,-9.914,0.009,346.616,169.078,True,0,1,0,0
-1.139,0.224,-1.284,compass,-99.789,-0.112,-100.012,-1.139,-0.224,-10.2,2.568,2.5851325596718473,-52.878,346.63,0.068,23694.408,False,-0.011814319469051662,0.04106349725249988,0.37,-0.09,-0.355,-9.914,0.009,346.63,169.078,True,0,1,0,0
-1.148,0.112,-1.28,compass,-100.926,-0.0,-99.895,-1.126,-0.112,-10.2,2.568,2.564257569121186,-52.87,346.638,0.049,23694.508,False,-0.008338912840266178,0.029336017546883864,0.37,-0.09,-0.355,-9.914,0.008,346.638,169.078,True,0,1,0,0
-1.169,0.224,-1.277,compass,-99.953,-0.0,-99.749,-1.129,-0.336,-10.2,2.468,2.4974257185538833,-52.848,346.66,0.049,23694.609,False,-0.008204960484326944,0.02935085481549957,0.37,-0.09,-0.355,-9.914,0.008,346.66,169.078,True,0,1,0,0
-1.191,0.112,-1.274,compass,-101.458,0.224,-99.727,-1.125,-0.336,-10.2,2.468,2.447942365069306,-52.82,346.688,0.041,23694.709,False,-0.006866293969636055,0.024670735502922057,0.37,-0.09,-0.355,-9.914,0.008,346.688,169.078,True,0,1,0,0
-1.24,0.112,-1.273,compass,-101.125,0.336,-99.729,-1.125,-0.224,-10.22,2.369,2.400536348716218,-52.741,346.767,0.041,23694.809,False,-0.006831035529980117,0.02471547095053695,0.37,-0.09,-0.316,-9.914,0.001,346.767,169.078,True,0,1,0,0
-1.261,-0.112,-1.273,compass,-104.143,0.448,-99.95,-1.128,-0.224,-10.22,2.369,2.369590901409166,-52.685,346.823,0.031,23694.909,False,-0.005310512117695012,0.018855312924851878,0.37,-0.09,-0.355,-9.914,0.001,346.823,169.078,True,0,1,0,0
-1.296,-0.112,-1.274,compass,-104.483,0.112,-100.265,-1.14,-0.336,-10.22,2.408,2.341176888897445,-52.635,346.873,0.031,23695.009,False,-0.0054721557505725445,0.018876805482343068,0.37,-0.09,-0.355,-9.875,0.001,346.873,169.078,True,0,1,0,0
-1.323,-0.224,-1.275,compass,-105.974,0.336,-100.471,-1.151,-0.336,-10.24,2.408,2.320928575392603,-52.579,346.929,0.072,23695.109,False,-0.012891287701004022,0.0437083201407794,0.37,-0.051,-0.316,-9.918,-0.006,346.929,169.078,True,0,1,0,0
