imu.roll,imu.pitchrate,imu.heel,ap.mode,ap.wind_angle,imu.headingrate,ap.true_wind_angle,imu.pitch,imu.rollrate,rudder.angle,wind.speed,ap.true_wind_speed,ap.heading_error,ap.heading,gps.speed,timestamp,ap.enabled,ap.vmg,ap.cmg,sow.speed,imu.accel_X,imu.accel_Y,imu.accel_Z,rudder.speed,imu.heading,gps.track,perf.quality_flag,perf.boat_config.Main,perf.boat_config.jib,perf.boat_config.spi,perf.boat_config.weight
-1.538,0.112,-1.492,compass,-51.748,0.112,-40.434,-0.86,0.112,-10.2,2.229,2.383596745660484,-52.964,346.544,0.031,23758.549,False,0.023656112703089996,0.018734277391937476,0.4,-0.051,-0.277,-9.875,0.019,346.544,169.078,True,0,1,0,0
-1.529,-0.112,-1.493,compass,-55.076,0.112,-41.487,-0.88,0.224,-10.24,2.229,2.3702456497972815,-53.0,346.508,0.043,23758.649,False,0.032003110854568376,0.025738196788638652,0.4,-0.051,-0.277,-9.875,0.004,346.508,169.078,True,0,1,0,0
-1.52,0.224,-1.494,compass,-51.507,-0.0,-42.581,-0.892,0.224,-10.24,2.229,2.383661275850427,-53.022,346.486,0.043,23758.749,False,0.0314545712450599,0.025725099406717123,0.4,-0.051,-0.277,-9.875,0.004,346.486,169.078,True,0,1,0,0
-1.505,0.112,-1.494,compass,-50.828,-0.112,-43.532,-0.897,0.0,-10.24,2.289,2.3810256848687756,-53.043,346.465,0.062,23758.849,False,0.045045797340236,0.037400007139232354,0.4,-0.012,-0.277,-9.918,0.004,346.465,169.078,True,0,1,0,0
-1.489,0.112,-1.494,compass,-51.753,-0.0,-44.458,-0.909,0.112,-10.22,2.289,2.389263642340186,-53.1,346.408,0.062,23758.949,False,0.04432495456149479,0.03735072473626502,0.4,-0.012,-0.277,-9.879,0.01,346.408,169.078,True,0,1,0,0
-1.476,0.112,-1.494,compass,-63.334,-0.0,-45.717,-0.906,0.112,-10.22,2.309,2.4047102718645923,-53.15,346.358,0.103,23759.049,False,0.0717864432186206,0.06179077261111498,0.4,-0.012,-0.277,-9.879,0.01,346.358,169.078,True,0,1,0,0
-1.462,0.112,-1.493,compass,-63.334,-0.112,-47.232,-0.897,0.112,-10.22,2.309,2.416030052701368,-53.192,346.316,0.103,23759.149,False,0.06979860116491307,0.061730727095399195,0.4,-0.012,-0.277,-9.879,0.01,346.316,169.078,True,0,1,0,0
-1.456,0.112,-1.492,compass,-63.273,-0.0,-48.97,-0.889,0.112,-10.22,2.11,2.374989978407644,-53.227,346.281,0.062,23759.249,False,0.040734783225091845,0.03724049785151605,0.4,-0.012,-0.277,-9.879,0.009,346.281,169.078,True,0,1,0,0
-1.443,0.112,-1.49,compass,-63.273,-0.224,-50.652,-0.88,0.112,-10.22,2.11,2.342691510398169,-53.263,346.245,0.062,23759.349,False,0.039337029723615496,0.037209525649002276,0.4,-0.012,-0.316,-9.875,0.009,346.245,169.078,True,0,1,0,0
-1.444,0.112,-1.489,compass,-0.0,-0.112,-45.437,-0.872,0.0,-10.22,0.0,1.8495883223134557,-53.297,346.211,0.047,23759.45,False,0.03266597749314552,0.027884562031780573,0.4,-0.012,-0.316,-9.875,0.008,346.211,169.078,True,0,1,0,0
-1.438,0.224,-1.487,compass,-26.57,-0.112,-42.394,-0.864,0.112,-10.22,0.0,1.4813263592790706,-53.319,346.189,0.047,23759.55,False,0.034393941342732756,0.027870435264457604,0.4,-0.012,-0.316,-9.875,0.008,346.189,169.078,True,0,1,0,0
-1.424,0.0,-1.485,compass,-90.0,-0.0,-40.215,-0.862,0.112,-10.22,0.0,1.175996252900662,-53.34,346.168,0.041,23759.65,False,0.031125796708672396,0.024374633856409665,0.4,-0.012,-0.355,-9.914,0.008,346.168,169.078,True,0,1,0,0
-1.417,-0.112,-1.483,compass,-180.0,-0.0,-42.447,-0.861,0.0,-10.24,0.0,0.9350747468208118,-53.354,346.154,0.041,23759.75,False,0.030079475047099454,0.02436665016365216,0.4,-0.012,-0.316,-9.914,0.001,346.154,169.078,True,0,1,0,0
-1.403,-0.112,-1.481,compass,134.995,-0.0,-39.036,-0.859,-0.112,-10.24,0.0,0.7525453520272702,-53.369,346.139,0.021,23759.85,False,0.016590189943854763,0.012759023222931232,0.4,-0.012,-0.355,-9.914,0.001,346.139,169.078,True,0,1,0,0
-1.41,0.0,-1.479,compass,90.0,0.112,-31.556,-0.86,-0.112,-10.24,0.0,0.6051206195666756,-53.361,346.147,0.021,23759.95,False,-0.007586433165741321,0.012761379945768701,0.4,-0.012,-0.316,-9.914,0.001,346.147,169.078,True,0,1,0,0
-1.411,0.112,-1.477,compass,45.006,-0.0,-24.362,-0.853,-0.112,-10.24,0.0,0.5105118275529283,-53.354,346.154,0.089,23760.05,False,-0.08650596437484503,0.05337461312342197,0.4,-0.012,-0.316,-9.914,0.001,346.154,169.078,True,0,1,0,0
-1.411,0.112,-1.475,compass,45.006,-0.224,-17.812,-0.853,-0.112,-10.24,0.0,0.43638401957049155,-53.354,346.154,0.089,23760.15,False,-0.07972019390144477,0.05337461312342197,0.4,-0.012,-0.316,-9.914,0.001,346.154,169.078,True,0,1,0,0
-1.413,0.112,-1.473,compass,71.568,-0.0,-8.748,-0.839,-0.336,-10.26,0.0,0.38758520020990855,-53.354,346.154,0.025,23760.25,False,-0.014332187373841338,0.01508421384270077,0.4,-0.012,-0.316,-9.914,-0.006,346.154,169.078,True,0,1,0,0
-1.427,0.112,-1.471,compass,63.44,-0.224,-0.415,-0.834,-0.224,-10.26,0.0,0.3367945514152564,-53.368,346.14,0.025,23760.35,False,-0.005925023962463495,0.015079099747872943,0.4,-0.012,-0.316,-9.875,-0.006,346.14,169.078,True,0,1,0,0
-1.443,0.0,-1.471,compass,90.0,-0.112,9.899,-0.821,-0.336,-10.26,0.0,0.30309623116170636,-53.389,346.119,0.002,23760.45,False,-3.369934398529781e-05,0.0011593743681359526,0.4,-0.051,-0.316,-9.879,-0.005,346.119,169.078,True,0,1,0,0
-1.458,0.224,-1.47,compass,26.57,-0.112,16.934,-0.809,-0.112,-10.26,0.0,0.2666200922850053,-53.416,346.092,0.002,23760.55,False,0.00033174132635910747,0.0011586286545797444,0.4,-0.012,-0.277,-9.879,-0.005,346.092,169.078,True,0,1,0,0
-1.473,0.224,-1.47,compass,45.007,-0.112,20.69,-0.803,-0.224,-10.26,0.0,0.2531627657623178,-53.444,346.064,0.045,23760.65,False,0.015291264004160044,0.026630695884583905,0.39,-0.051,-0.277,-9.875,-0.005,346.064,169.078,True,0,1,0,0
-1.509,0.224,-1.471,compass,26.571,-0.112,22.575,-0.799,-0.112,-10.26,0.0,0.2352030356202301,-53.535,345.973,0.045,23760.75,False,0.021695883150987538,0.02657388173549035,0.39,-0.012,-0.277,-9.879,-0.005,345.973,169.078,True,0,1,0,0
-1.522,0.112,-1.473,compass,45.007,0.112,23.96,-0.8,-0.112,-10.22,0.0,0.20814149403349758,-53.577,345.931,0.033,23760.85,False,0.019480858332642518,0.019621917736182926,0.39,-0.012,-0.277,-9.879,0.016,345.931,169.078,True,0,1,0,0
-1.535,0.112,-1.475,compass,45.007,-0.0,25.197,-0.808,-0.112,-10.22,0.0,0.18696372225833818,-53.605,345.903,0.033,23760.95,False,0.02189100498042007,0.019609052380708834,0.39,-0.012,-0.277,-9.879,0.016,345.903,169.078,True,0,1,0,0
-1.548,0.0,-1.477,compass,90.0,-0.224,25.297,-0.817,-0.112,-10.22,0.0,0.16865817337398678,-53.626,345.882,0.056,23761.05,False,0.04091271691717638,0.03343360089914531,0.39,-0.012,-0.277,-9.879,0.016,345.882,169.078,True,0,1,0,0
-1.552,-0.112,-1.479,compass,134.992,-0.112,29.07,-0.845,-0.112,-10.2,0.0,0.15691973031814443,-53.641,345.867,0.037,23761.15,False,0.0410714565917685,0.03342249212574116,0.39,-0.051,-0.277,-9.875,0.021,345.867,169.078,True,0,1,0,0
-1.552,-0.112,-1.482,compass,-134.993,-0.112,26.372,-0.845,0.112,-10.2,0.0,0.14873405843177118,-53.648,345.86,0.037,23761.25,False,0.02933526779187131,0.021893777120410147,0.39,-0.051,-0.277,-9.875,0.021,345.86,169.078,True,0,1,0,0
-1.549,0.0,-1.486,compass,-0.0,-0.0,13.007,-0.866,0.0,-10.24,0.0,0.10795973188318977,-53.655,345.853,0.004,23761.35,False,0.0036600009693001597,0.021890116323884552,0.39,-0.012,-0.277,-9.879,-0.001,345.846,169.078,True,0,1,0,0
-1.549,0.0,-1.486,compass,-0.0,-0.0,13.007,-0.866,0.0,-10.24,0.0,0.10795973188318977,-53.662,345.846,0.004,23761.45,False,0.0036600009693001597,0.0023038313364308538,0.39,-0.012,-0.277,-9.879,-0.001,345.846,169.078,True,0,1,0,0
-1.541,-0.112,-1.487,compass,134.993,-0.0,13.82,-0.872,-0.112,-10.2,0.0,0.10391614605266854,-53.67,345.838,0.047,23761.551,False,0.0036750597771503897,0.0023033941504690394,0.39,-0.012,-0.277,-9.879,0.019,345.838,169.078,True,0,1,0,0
-1.533,0.0,-1.489,compass,-90.0,-0.112,9.717,-0.885,0.112,-10.2,0.0,0.10468017976889703,-53.67,345.838,0.047,23761.651,False,0.04530987451184861,0.027640528410481126,0.39,-0.012,-0.277,-9.879,0.019,345.838,169.078,True,0,1,0,0
-1.518,0.112,-1.491,compass,-63.44,-0.224,-1.467,-0.89,0.224,-10.26,0.0,0.12895213607540218,-53.67,345.838,0.086,23761.851,False,-0.06734413437058265,0.05067396431949786,0.39,-0.012,-0.277,-9.879,-0.013,345.838,169.078,True,0,1,0,0
-1.518,0.112,-1.491,compass,-63.44,-0.224,-1.467,-0.89,0.224,-10.26,0.0,0.12895213607540218,-53.67,345.838,0.086,23761.851,False,-0.06734413437058265,0.05067396431949786,0.39,-0.012,-0.277,-9.879,-0.013,345.838,169.078,True,0,1,0,0
-1.504,-0.224,-1.491,compass,-153.43,0.112,-20.905,-0.888,0.112,-10.28,0.0,0.14526632059595165,-53.656,345.852,0.023,23762.051,False,-0.020730915827824912,0.013824952286683328,0.39,-0.051,-0.316,-9.918,-0.018,345.852,169.078,True,0,1,0,0
-1.504,-0.224,-1.491,compass,-153.43,0.112,-20.905,-0.888,0.112,-10.28,0.0,0.14526632059595165,-53.656,345.852,0.023,23762.051,False,-0.020730915827824912,0.013824952286683328,0.39,-0.051,-0.316,-9.918,-0.018,345.852,169.078,True,0,1,0,0
-1.489,0.112,-1.491,compass,45.006,-0.224,-32.963,-0.894,-0.112,-10.28,0.0,0.12094892479998377,-53.635,345.873,0.01,23762.251,False,-0.0038223559262728518,0.005763202781810755,0.39,-0.012,-0.277,-9.879,-0.018,345.873,169.078,True,0,1,0,0
-1.489,0.112,-1.491,compass,45.006,-0.224,-32.963,-0.894,-0.112,-10.28,0.0,0.12094892479998377,-53.635,345.873,0.01,23762.251,False,-0.0038223559262728518,0.005763202781810755,0.39,-0.012,-0.277,-9.879,-0.018,345.873,169.078,True,0,1,0,0
-1.469,-0.112,-1.491,compass,-180.0,0.112,-28.592,-0.891,0.0,-10.26,0.0,0.09780517160021374,-53.629,345.879,0.062,23762.451,False,-0.047052889651226004,0.03689034447586469,0.39,-0.051,-0.277,-9.875,-0.01,345.879,169.078,True,0,1,0,0
-1.469,-0.112,-1.491,compass,-180.0,0.112,-28.592,-0.891,0.0,-10.26,0.0,0.09780517160021374,-53.629,345.879,0.062,23762.451,False,-0.047052889651226004,0.03689034447586469,0.39,-0.051,-0.277,-9.875,-0.01,345.879,169.078,True,0,1,0,0
-1.458,0.224,-1.49,compass,-26.57,-0.0,-31.864,-0.862,0.112,-10.28,0.0,0.11526943892374447,-53.628,345.88,0.052,23762.551,False,-0.02930780612064075,0.03689060485613365,0.39,-0.012,-0.277,-9.879,-0.018,345.88,169.078,True,0,1,0,0
-1.462,0.224,-1.489,compass,-26.57,-0.112,-33.621,-0.834,0.112,-10.28,0.0,0.12825010845506118,-53.635,345.873,0.052,23762.651,False,-0.009929414585725604,0.031121670759916766,0.39,-0.051,-0.316,-9.879,-0.018,345.873,169.078,True,0,1,0,0
-1.45,0.112,-1.487,compass,45.006,-0.224,-30.824,-0.811,-0.112,-10.24,0.0,0.12961098859244868,-53.642,345.866,0.056,23762.751,False,0.006108483753198537,0.031116636352758017,0.39,-0.012,-0.316,-9.875,0.004,345.866,169.078,True,0,1,0,0
-1.45,0.112,-1.487,compass,45.006,-0.224,-26.286,-0.811,-0.112,-10.24,0.0,0.13225011022648592,-53.655,345.853,0.056,23762.851,False,-0.04696261149311761,0.033410630837445054,0.39,-0.012,-0.316,-9.875,0.004,345.853,169.078,True,0,1,0,0
-1.444,0.224,-1.486,compass,-0.0,-0.336,-22.461,-0.803,0.0,-10.24,0.0,0.14219573165019245,-53.677,345.831,0.052,23762.952,False,-0.054364588574913206,0.03339347405377556,0.39,-0.012,-0.277,-9.879,0.004,345.831,169.078,True,0,1,0,0
-1.431,0.0,-1.484,compass,-90.0,-0.224,-21.253,-0.794,0.112,-10.22,0.0,0.13522026335614315,-53.698,345.81,0.052,23763.052,False,-0.048002325458157025,0.03107507851545487,0.39,-0.012,-0.316,-9.875,0.01,345.81,169.078,True,0,1,0,0
-1.424,0.112,-1.482,compass,-45.006,-0.112,-21.284,-0.793,0.112,-10.22,0.0,0.13500744358112127,-53.727,345.781,0.051,23763.152,False,-0.031245256090513797,0.031053884615510872,0.39,-0.012,-0.316,-9.875,0.01,345.781,169.078,True,0,1,0,0
-1.417,0.112,-1.48,compass,45.006,-0.224,-18.999,-0.791,-0.112,-10.22,0.0,0.13517525726698293,-53.761,345.747,0.051,23763.252,False,-0.050543332296462185,0.029879004110148388,0.39,-0.012,-0.316,-9.875,0.01,345.747,169.078,True,0,1,0,0
-1.41,-0.112,-1.478,compass,-180.0,-0.112,-21.374,-0.79,0.0,-10.22,0.0,0.1278111073885407,-53.79,345.718,0.084,23763.352,False,-0.0424965478875769,0.029858577688030626,0.39,-0.051,-0.316,-9.918,0.009,345.718,169.078,True,0,1,0,0
-1.42,-0.112,-1.474,compass,134.994,-0.112,-13.106,-0.826,-0.112,-10.2,0.0,0.15186748177231274,-53.833,345.675,0.084,23763.552,False,-0.05301592527081785,0.04933093093972732,0.39,-0.051,-0.316,-9.918,0.019,345.675,169.078,True,0,1,0,0
-1.425,-0.224,-1.473,compass,153.43,-0.224,-1.514,-0.841,-0.112,-10.2,0.0,0.15271212924816308,-53.833,345.675,0.029,23763.652,False,-0.009793780003824295,0.017208399904692053,0.39,-0.012,-0.316,-9.914,0.019,345.675,169.078,True,0,1,0,0
-1.423,-0.112,-1.471,compass,134.994,-0.112,10.058,-0.855,-0.112,-10.2,0.0,0.1410128646402762,-53.827,345.681,0.029,23763.752,False,-0.003433950429239156,0.01721115348011971,0.39,-0.012,-0.316,-9.914,0.019,345.681,169.078,True,0,1,0,0
-1.428,-0.112,-1.47,compass,116.561,0.112,20.086,-0.87,-0.224,-10.2,0.0,0.1444512154879758,-53.819,345.689,0.06,23763.852,False,0.0023869246913113015,0.03557621767753554,0.39,-0.012,-0.316,-9.914,0.017,345.689,169.078,True,0,1,0,0
-1.441,-0.224,-1.469,compass,134.994,-0.0,31.243,-0.878,-0.224,-10.2,0.0,0.15186343917181633,-53.826,345.682,0.06,23763.953,False,0.006292105935515211,0.03557036689051966,0.39,-0.012,-0.316,-9.914,0.017,345.682,169.078,True,0,1,0,0
-1.448,0.0,-1.469,compass,90.0,-0.112,39.722,-0.879,-0.224,-10.2,0.0,0.14632109806911944,-53.834,345.674,0.045,23764.053,False,0.007089074372712088,0.02638604841687808,0.39,-0.051,-0.316,-9.918,0.017,345.674,169.078,True,0,1,0,0
-1.462,-0.112,-1.469,compass,108.431,-0.0,48.798,-0.88,-0.336,-10.26,0.0,0.1562090072565246,-53.84,345.668,0.045,23764.153,False,0.007073240422825293,0.02638178144091388,0.39,-0.012,-0.277,-9.879,-0.005,345.668,169.078,True,0,1,0,0
-1.469,0.0,-1.469,compass,90.0,-0.112,52.36,-0.881,-0.112,-10.26,0.0,0.13612481751582334,-53.861,345.647,0.031,23764.253,False,0.00679324084095809,0.018343455314698852,0.39,-0.012,-0.277,-9.879,-0.005,345.647,169.078,True,0,1,0,0
-1.484,0.112,-1.469,compass,71.569,-0.112,58.3,-0.876,-0.336,-10.26,0.0,0.1487519345664908,-53.875,345.633,0.031,23764.353,False,0.006566959581279331,0.01833749451012509,0.39,-0.051,-0.277,-9.875,-0.005,345.633,169.078,True,0,1,0,0
-1.519,0.0,-1.471,compass,90.0,0.112,58.013,-0.873,-0.224,-10.2,0.0,0.14673281133941132,-53.896,345.612,0.074,23764.453,False,0.021330143958445666,0.04352950755517131,0.39,-0.051,-0.277,-9.875,0.016,345.612,169.078,True,0,1,0,0
-1.533,-0.112,-1.472,compass,116.56,-0.0,59.481,-0.874,-0.224,-10.2,0.0,0.1463015859800285,-53.909,345.599,0.074,23764.553,False,0.02364678269798529,0.043515224290491525,0.39,-0.012,-0.277,-9.879,0.016,345.599,169.078,True,0,1,0,0
-1.541,0.224,-1.474,compass,26.571,-0.112,61.893,-0.868,-0.112,-10.26,0.0,0.14501285319507418,-53.923,345.585,0.023,23764.653,False,0.0075459740266832324,0.013737147989454586,0.39,-0.012,-0.277,-9.879,-0.016,345.585,169.078,True,0,1,0,0
-1.555,0.112,-1.477,compass,45.007,-0.112,61.127,-0.87,-0.112,-10.26,0.0,0.1338854235035603,-53.93,345.578,0.023,23764.753,False,0.008615980186637994,0.013734919436398551,0.39,-0.012,-0.277,-9.879,-0.016,345.578,169.078,True,0,1,0,0
-1.564,0.112,-1.479,compass,-107.934,0.112,54.792,-0.857,-0.112,-10.26,2.11,0.5551283536582061,-53.93,345.578,0.019,23764.853,False,0.009599939792838508,0.011445849417600696,0.39,-0.012,-0.277,-9.879,-0.016,345.578,169.078,True,0,1,0,0
-1.565,0.0,-1.482,compass,-109.547,0.224,43.036,-0.843,-0.112,-10.26,2.11,0.8888329990197993,-53.922,345.586,0.019,23764.953,False,0.013153056180844256,0.011447812363303271,0.39,-0.012,-0.277,-9.879,-0.014,345.586,169.078,True,0,1,0,0
-1.56,0.0,-1.484,compass,-108.5,0.112,28.589,-0.828,0.112,-10.26,2.229,1.1996637642504342,-53.915,345.593,0.016,23765.053,False,-0.005618993018193322,0.009159802324159654,0.39,-0.012,-0.277,-9.879,-0.014,345.593,169.078,True,0,1,0,0
-1.554,0.0,-1.486,compass,-108.5,-0.0,13.199,-0.82,0.112,-10.26,2.229,1.4416063199171036,-53.915,345.593,0.016,23765.153,False,-0.014293607962758732,0.00915980885106528,0.39,-0.012,-0.277,-9.879,-0.014,345.593,169.078,True,0,1,0,0
-1.555,0.112,-1.489,compass,-107.127,-0.0,-1.887,-0.814,0.112,-10.2,2.329,1.6499052137690267,-53.915,345.593,0.033,23765.253,False,-0.03261418436760867,0.019464645207096055,0.4,-0.012,-0.277,-9.879,0.007,345.593,169.078,True,0,1,0,0
-1.527,0.0,-1.49,compass,-108.068,-0.0,-16.159,-0.81,0.224,-10.2,2.329,1.8279419199046545,-53.887,345.621,0.033,23765.353,False,-0.027974898523681367,0.01947783995215441,0.4,-0.051,-0.277,-9.875,0.007,345.621,169.078,True,0,1,0,0
-1.52,0.224,-1.491,compass,-105.196,-0.112,-28.774,-0.81,0.224,-10.22,2.249,1.9453418537697056,-53.887,345.621,0.097,23765.453,False,-0.06439689506934752,0.05728765587207903,0.4,-0.051,-0.277,-9.875,-0.004,345.621,169.078,True,0,1,0,0
-1.513,0.0,-1.491,compass,-108.037,-0.112,-40.164,-0.816,0.224,-10.22,2.249,2.0420183958661187,-53.873,345.635,0.097,23765.553,False,-0.04901695749168958,0.057306408762817916,0.4,-0.051,-0.277,-9.875,-0.004,345.635,169.078,True,0,1,0,0
-1.497,-0.112,-1.491,compass,-109.907,0.224,-50.739,-0.828,0.112,-10.22,2.289,2.113990325247291,-53.86,345.648,0.023,23765.653,False,-0.009200990788268693,0.013757974202169704,0.4,-0.051,-0.277,-9.875,-0.004,345.648,169.078,True,0,1,0,0
-1.489,-0.224,-1.491,compass,-110.761,-0.0,-60.052,-0.834,0.224,-10.22,2.289,2.1868735916106323,-53.853,345.655,0.023,23765.754,False,-0.007516458916608313,0.013760191599454807,0.4,-0.051,-0.277,-9.914,-0.003,345.655,169.078,True,0,1,0,0
-1.48,-0.112,-1.491,compass,-112.756,-0.0,-68.189,-0.847,0.112,-10.22,2.448,2.2614274206043152,-53.853,345.655,0.035,23765.854,False,-0.00977077488436617,0.020640134430445913,0.4,-0.012,-0.316,-9.875,-0.003,345.655,169.078,True,0,1,0,0
-1.474,0.112,-1.491,compass,-110.171,-0.0,-75.13,-0.847,0.112,-10.24,2.448,2.3094436462118884,-53.847,345.661,0.035,23765.954,False,-0.008931382307888308,0.020643516129501292,0.4,-0.012,-0.316,-9.875,-0.013,345.661,169.078,True,0,1,0,0
-1.466,0.112,-1.49,compass,-110.214,-0.0,-80.997,-0.853,0.112,-10.24,2.508,2.3596155665078142,-53.826,345.682,0.039,23766.054,False,-0.009483211690959814,0.022948536421672813,0.4,-0.012,-0.316,-9.875,-0.013,345.682,169.078,True,0,1,0,0
-1.444,0.0,-1.488,compass,-112.528,-0.0,-86.045,-0.858,-0.112,-10.28,2.508,2.3784080077163146,-53.805,345.703,0.039,23766.154,False,-0.009448242410763164,0.022960217516392177,0.4,-0.012,-0.316,-9.875,-0.032,345.703,169.078,True,0,1,0,0
-1.43,0.112,-1.487,compass,-110.82,0.112,-90.091,-0.857,0.0,-10.28,2.767,2.455292934553683,-53.755,345.753,0.084,23766.254,False,-0.02037824334090188,0.04942247089561916,0.41,0.027,-0.316,-9.918,-0.032,345.753,169.078,True,0,1,0,0
-1.416,-0.112,-1.485,compass,-113.153,0.112,-93.595,-0.855,0.0,-10.2,2.767,2.524774922065637,-53.721,345.787,0.084,23766.354,False,-0.020934695075596508,0.04946309623730927,0.41,-0.012,-0.316,-9.914,0.011,345.787,169.078,True,0,1,0,0
-1.41,-0.112,-1.482,compass,-113.034,-0.112,-96.847,-0.855,0.0,-10.2,3.085,2.651742670786847,-53.685,345.823,0.027,23766.454,False,-0.007195133134585146,0.016117847931700204,0.41,-0.012,-0.316,-9.914,0.011,345.823,169.078,True,0,1,0,0
-1.41,0.0,-1.48,compass,-111.996,-0.112,-99.535,-0.849,0.0,-10.26,3.085,2.7456025732653764,-53.657,345.851,0.027,23766.554,False,-0.0075614118886246475,0.01612851669658201,0.41,-0.012,-0.316,-9.914,-0.02,345.851,169.078,True,0,1,0,0
-1.41,-0.224,-1.478,compass,-106.481,-0.0,-101.467,-0.849,-0.112,-10.26,3.085,2.8128049755537305,-53.629,345.879,0.031,23766.654,False,-0.008880614710634224,0.018445104021917166,0.41,-0.012,-0.316,-9.914,-0.02,345.879,169.078,True,0,1,0,0
-1.417,-0.224,-1.476,compass,-106.481,-0.0,-102.857,-0.85,-0.112,-10.26,3.085,2.8652891098948765,-53.601,345.907,0.031,23766.754,False,-0.009006549292021621,0.018457272207107675,0.41,-0.012,-0.316,-9.914,-0.02,345.907,169.078,True,0,1,0,0
-1.424,-0.112,-1.475,compass,-105.682,0.224,-103.802,-0.859,-0.224,-10.24,3.105,2.894030815864107,-53.572,345.936,0.033,23766.854,False,-0.009596330050256743,0.01962411977957213,0.41,-0.012,-0.316,-9.914,-0.011,345.936,169.078,True,0,1,0,0
-1.431,-0.112,-1.473,compass,-106.002,-0.112,-104.451,-0.853,-0.336,-10.24,3.105,2.903646494709128,-53.558,345.95,0.033,23766.954,False,-0.009574847143846576,0.019630654158036182,0.41,-0.012,-0.277,-9.918,-0.011,345.95,169.078,True,0,1,0,0
-1.461,-0.112,-1.473,compass,-105.716,0.112,-104.852,-0.842,-0.224,-10.24,3.045,2.9106315409331427,-53.551,345.957,0.039,23767.054,False,-0.011179928289859321,0.023098981177763368,0.41,-0.051,-0.277,-9.875,-0.011,345.957,169.078,True,0,1,0,0
-1.476,0.0,-1.473,compass,-104.572,-0.0,-105.046,-0.837,-0.224,-10.22,3.045,2.9126735426311976,-53.557,345.951,0.039,23767.154,False,-0.011043510819887891,0.023095343812928208,0.41,-0.051,-0.277,-9.875,-0.003,345.951,169.078,True,0,1,0,0
-1.504,0.112,-1.474,compass,-103.378,-0.112,-105.009,-0.833,-0.224,-10.22,2.866,2.871484280719793,-53.585,345.923,0.045,23767.254,False,-0.01244854767998725,0.02654248832150855,0.41,-0.051,-0.277,-9.875,-0.003,345.923,169.078,True,0,1,0,0
-1.525,0.0,-1.476,compass,-104.609,-0.112,-104.924,-0.835,-0.224,-10.22,2.866,2.8426355951790616,-53.606,345.902,0.045,23767.354,False,-0.01220624793150146,0.026529023701497612,0.41,-0.051,-0.277,-9.875,-0.003,345.902,169.078,True,0,1,0,0
-1.546,0.112,-1.478,compass,-103.083,0.112,-104.757,-0.838,-0.112,-10.24,2.846,2.8257901466417095,-53.62,345.888,0.041,23767.455,False,-0.010899356409579826,0.024214329765794074,0.41,-0.051,-0.277,-9.875,-0.01,345.888,169.078,True,0,1,0,0
-1.561,0.224,-1.48,compass,-101.854,0.112,-104.474,-0.832,-0.112,-10.24,2.846,2.809878385717351,-53.64,345.868,0.041,23767.555,False,-0.010605927904395759,0.02420254084383574,0.41,-0.051,-0.316,-9.879,-0.01,345.868,169.078,True,0,1,0,0
-1.567,0.112,-1.483,compass,-102.586,-0.0,-104.241,-0.833,0.112,-10.26,2.946,2.848877386639608,-53.654,345.854,0.027,23767.655,False,-0.006909552646410549,0.016129748210431893,0.41,-0.051,-0.242,-9.875,-0.019,345.854,169.078,True,0,1,0,0
-1.574,0.112,-1.485,compass,-103.395,-0.112,-104.026,-0.833,-0.224,-10.26,2.946,2.8402548492128132,-53.676,345.832,0.027,23767.755,False,-0.0067713915232706845,0.016121482150078734,0.41,-0.012,-0.277,-9.879,-0.019,345.832,169.078,True,0,1,0,0
-1.58,0.112,-1.488,compass,-102.897,0.112,-103.809,-0.841,0.0,-10.24,3.085,2.890080070707253,-53.711,345.797,0.031,23767.855,False,-0.007594548300476342,0.018409358979675078,0.41,-0.012,-0.242,-9.879,-0.007,345.797,169.078,True,0,1,0,0
-1.586,0.0,-1.491,compass,-103.729,0.112,-103.648,-0.848,0.112,-10.24,3.085,2.9450330585040585,-53.76,345.748,0.031,23767.955,False,-0.0074925981895850365,0.018387705329955074,0.41,-0.012,-0.242,-9.879,-0.007,345.748,169.078,True,0,1,0,0
-1.592,-0.112,-1.494,compass,-105.038,0.112,-103.705,-0.862,0.0,-10.28,3.225,3.0100424153923724,-53.823,345.685,0.002,23768.055,False,-0.0004697073095888166,0.0011474943563795756,0.41,-0.012,-0.277,-9.879,-0.026,345.685,169.078,True,0,1,0,0
-1.591,-0.112,-1.497,compass,-105.038,0.224,-103.803,-0.861,0.0,-10.28,3.225,3.0607545760860333,-53.845,345.663,0.002,23768.155,False,-0.000471484998543194,0.0011469002353434502,0.41,-0.012,-0.242,-9.879,-0.026,345.663,169.078,True,0,1,0,0
-1.584,-0.112,-1.5,compass,-104.794,0.112,-103.712,-0.867,0.112,-10.28,3.105,3.0849466405374972,-53.852,345.656,0.052,23768.255,False,-0.012608154060749843,0.03096103182697418,0.41,-0.012,-0.277,-9.879,-0.026,345.656,169.078,True,0,1,0,0
-1.583,0.0,-1.502,compass,-103.996,0.112,-103.62,-0.874,0.0,-10.24,3.105,3.087572695727719,-53.866,345.642,0.052,23768.355,False,-0.012499481362722881,0.030950684690426004,0.41,-0.012,-0.277,-9.879,-0.01,345.642,169.078,True,0,1,0,0
-1.568,-0.224,-1.504,compass,-105.919,0.112,-103.776,-0.879,0.112,-10.24,2.986,3.0845702031671074,-53.874,345.634,0.016,23768.455,False,-0.0037371363629575298,0.009168991384599201,0.41,-0.012,-0.277,-9.879,-0.01,345.634,169.078,True,0,1,0,0
-1.554,-0.112,-1.506,compass,-104.539,-0.0,-103.895,-0.877,0.224,-10.2,2.986,3.091610425359776,-53.888,345.62,0.016,23768.555,False,-0.003763987480989797,0.009165912050701858,0.41,-0.012,-0.277,-9.918,0.01,345.62,169.078,True,0,1,0,0
-1.54,-0.112,-1.507,compass,-104.569,0.112,-103.951,-0.875,0.224,-10.2,2.826,3.061752509103059,-53.888,345.62,0.023,23768.655,False,-0.0056583751100944,0.01374881314081411,0.41,-0.012,-0.277,-9.918,0.01,345.62,169.078,True,0,1,0,0
-1.533,0.0,-1.508,compass,-104.301,0.112,-103.973,-0.875,-0.112,-10.2,2.826,2.9963133523156533,-53.896,345.612,0.023,23768.755,False,-0.005662184735836469,0.013746215005055904,0.41,-0.012,-0.316,-9.914,0.01,345.612,169.078,True,0,1,0,0
-1.513,0.224,-1.508,compass,-100.8,-0.224,-103.576,-0.865,0.224,-10.2,2.548,2.9156533951061467,-53.91,345.598,0.072,23768.855,False,-0.016967407560439917,0.04236994872479212,0.41,-0.012,-0.277,-9.918,0.009,345.598,169.078,True,0,1,0,0
-1.5,0.0,-1.508,compass,-103.365,-0.112,-103.252,-0.856,0.224,-10.2,2.548,2.858336224436961,-53.896,345.612,0.072,23768.956,False,-0.016540914481315384,0.042383973055455375,0.41,-0.051,-0.316,-9.879,0.009,345.612,169.078,True,0,1,0,0
-1.494,0.112,-1.507,compass,-102.464,-0.112,-103.183,-0.849,0.112,-10.2,2.707,2.834424911650461,-53.874,345.634,0.021,23769.056,False,-0.004882802596056173,0.01260719038447026,0.4,-0.012,-0.316,-9.914,0.009,345.634,169.078,True,0,1,0,0
-1.481,0.112,-1.506,compass,-102.464,-0.112,-103.085,-0.84,0.112,-10.26,2.707,2.815782216937886,-53.846,345.662,0.021,23769.156,False,-0.004837933016258418,0.012615541181718664,0.4,-0.051,-0.316,-9.918,-0.012,345.662,169.078,True,0,1,0,0
-1.468,-0.112,-1.505,compass,-105.513,0.112,-102.992,-0.839,-0.112,-10.26,2.826,2.806925123598471,-53.818,345.69,0.051,23769.256,False,-0.011337943331570262,0.029838824464020735,0.4,-0.051,-0.316,-9.918,-0.012,345.69,169.078,True,0,1,0,0
-1.454,0.0,-1.504,compass,-103.705,0.224,-102.928,-0.838,0.112,-10.24,2.826,2.8224962477191937,-53.79,345.718,0.051,23769.356,False,-0.011270276888971,0.029858468898160417,0.4,-0.051,-0.316,-9.879,-0.001,345.718,169.078,True,0,1,0,0
-1.439,0.112,-1.502,compass,-102.771,0.112,-102.841,-0.843,0.0,-10.24,2.767,2.8056148397193468,-53.777,345.731,0.047,23769.456,False,-0.010333374157737527,0.02757059841839618,0.4,-0.012,-0.316,-9.875,-0.001,345.731,169.078,True,0,1,0,0
-1.431,0.112,-1.5,compass,-103.056,0.112,-102.747,-0.85,-0.112,-10.2,2.767,2.7794358211224766,-53.762,345.746,0.047,23769.556,False,-0.010257801663293634,0.027580155040247384,0.4,-0.051,-0.316,-9.879,0.02,345.746,169.078,True,0,1,0,0
-1.416,0.112,-1.497,compass,-103.049,0.224,-102.819,-0.855,-0.112,-10.2,2.747,2.75589875128318,-53.756,345.752,0.012,23769.656,False,-0.002579644973826628,0.00689613198466112,0.4,-0.051,-0.316,-9.879,0.02,345.752,169.078,True,0,1,0,0
-1.409,-0.112,-1.494,compass,-104.896,0.112,-102.954,-0.861,0.112,-10.2,2.747,2.76990846123635,-53.749,345.759,0.012,23769.756,False,-0.002607191703147736,0.006897238303580642,0.4,-0.051,-0.277,-9.875,0.02,345.759,169.078,True,0,1,0,0
-1.393,0.0,-1.491,compass,-103.677,0.112,-102.899,-0.874,0.112,-10.26,2.568,2.7368946149306344,-53.714,345.794,0.045,23769.856,False,-0.009938762644842114,0.026460990290748474,0.4,-0.012,-0.316,-9.875,-0.002,345.794,169.078,True,0,1,0,0
-1.394,0.112,-1.488,compass,-102.675,0.112,-102.803,-0.867,0.0,-10.26,2.568,2.695121627461223,-53.7,345.808,0.045,23769.956,False,-0.009865761520765974,0.026470340194299596,0.4,-0.012,-0.316,-9.875,-0.002,345.808,169.078,True,0,1,0,0
-1.386,0.0,-1.485,compass,-103.665,-0.0,-102.687,-0.873,0.112,-10.26,2.468,2.656347244042681,-53.679,345.829,0.054,23770.057,False,-0.011900037310813677,0.03224054463123175,0.4,-0.012,-0.316,-9.875,-0.002,345.829,169.078,True,0,1,0,0
-1.387,-0.112,-1.482,compass,-105.357,-0.0,-102.683,-0.867,0.0,-10.22,2.408,2.6164224054868015,-53.651,345.857,0.054,23770.157,False,-0.01188792704123822,0.03226188182857983,0.4,-0.012,-0.316,-9.875,0.012,345.857,169.078,True,0,1,0,0
-1.388,0.0,-1.48,compass,-104.356,0.224,-102.953,-0.86,-0.112,-10.22,2.408,2.5577345302609538,-53.622,345.886,0.004,23770.257,False,-0.000866527560378741,0.0023059907731103673,0.4,-0.012,-0.316,-9.875,0.012,345.886,169.078,True,0,1,0,0
-1.395,0.112,-1.477,compass,-103.254,0.224,-103.127,-0.862,-0.224,-10.22,2.349,2.4957914874007976,-53.608,345.9,0.004,23770.357,False,-0.0008783975064334048,0.0023067535302841134,0.4,-0.012,-0.316,-9.875,0.012,345.9,169.078,True,0,1,0,0
-1.396,0.0,-1.475,compass,-104.752,0.112,-103.198,-0.855,-0.224,-10.22,2.349,2.436782632519554,-53.601,345.907,0.023,23770.457,False,-0.005302543953946296,0.013842835144634217,0.4,-0.012,-0.316,-9.875,0.011,345.907,169.078,True,0,1,0,0
-1.409,-0.112,-1.473,compass,-105.827,0.112,-103.345,-0.863,-0.112,-10.22,2.249,2.4071289025223157,-53.594,345.914,0.037,23770.557,False,-0.005363621023433847,0.013845123938208019,0.4,-0.051,-0.316,-9.879,0.011,345.914,169.078,True,0,1,0,0
-1.416,-0.112,-1.471,compass,-105.91,-0.0,-103.448,-0.864,-0.112,-10.22,2.249,2.3615276735603383,-53.593,345.915,0.037,23770.657,False,-0.008564087710671641,0.021921934384226856,0.4,-0.012,-0.277,-9.879,0.011,345.915,169.078,True,0,1,0,0
-1.424,0.112,-1.47,compass,-102.487,-0.0,-103.422,-0.852,0.0,-10.24,2.03,2.3324228102313014,-53.558,345.95,0.019,23770.757,False,-0.008535954285647263,0.021940100628563337,0.41,-0.051,-0.316,-9.918,0.003,345.95,169.078,True,0,1,0,0
-1.431,-0.112,-1.468,compass,-112.232,0.224,-103.871,-0.853,-0.112,-10.24,2.03,2.257525378210121,-53.523,345.985,0.019,23770.857,False,-0.0046360976684683055,0.01155714739863182,0.41,-0.051,-0.277,-9.914,0.003,345.985,169.078,True,0,1,0,0
-1.438,0.0,-1.468,compass,-111.238,0.448,-104.471,-0.854,-0.224,-10.24,2.07,2.18165437809865,-53.495,346.013,0.043,23770.957,False,-0.00483152148987876,0.011564743110879076,0.41,-0.051,-0.277,-9.875,0.003,346.013,169.078,True,0,1,0,0
-1.444,0.112,-1.467,compass,-107.88,-0.0,-104.848,-0.862,0.112,-10.26,2.07,2.163337769881849,-53.488,346.02,0.043,23771.057,False,-0.010910834646509064,0.025446578394294952,0.41,-0.012,-0.277,-9.879,-0.004,346.02,169.078,True,0,1,0,0
-1.458,0.0,-1.467,compass,-110.587,-0.0,-105.29,-0.864,-0.112,-10.26,2.15,2.1281022010238493,-53.48,346.028,0.012,23771.157,False,-0.011235433106373732,0.02545135264950342,0.41,-0.012,-0.277,-9.879,-0.004,346.028,169.078,True,0,1,0,0
-1.465,-0.112,-1.467,compass,-111.502,-0.112,-105.996,-0.865,0.0,-10.22,2.15,2.1370454871321707,-53.495,346.013,0.012,23771.257,False,-0.0032075476866002457,0.006938880584096236,0.41,-0.012,-0.277,-9.879,0.016,346.013,169.078,True,0,1,0,0
-1.472,-0.112,-1.467,compass,-112.105,0.224,-106.706,-0.865,-0.112,-10.22,2.448,2.1315864067844195,-53.508,346.0,0.031,23771.357,False,-0.003349765546055487,0.006936622229619818,0.41,-0.012,-0.277,-9.879,0.016,346.0,169.078,True,0,1,0,0
-1.472,-0.112,-1.467,compass,-111.32,-0.112,-107.26,-0.865,0.0,-10.24,2.448,2.204173919700635,-53.558,345.95,0.031,23771.457,False,-0.00924251653051834,0.018476073880249834,0.41,-0.051,-0.277,-9.914,0.005,345.95,169.078,True,0,1,0,0
-1.473,-0.112,-1.467,compass,-110.819,-0.0,-107.74,-0.857,0.112,-10.24,2.707,2.2732481333282006,-53.586,345.922,0.056,23771.557,False,-0.009499008192178016,0.01846399769078365,0.41,-0.012,-0.316,-9.875,0.005,345.922,169.078,True,0,1,0,0
-1.479,-0.112,-1.467,compass,-110.743,-0.0,-108.048,-0.864,0.112,-10.24,2.707,2.3824918304295357,-53.664,345.844,0.056,23771.657,False,-0.017553650337918468,0.03340412472619685,0.41,-0.012,-0.277,-9.879,0.005,345.844,169.078,True,0,1,0,0
-1.472,0.0,-1.468,compass,-109.565,-0.112,-108.253,-0.863,0.112,-10.15,2.966,2.4631448241222054,-53.685,345.823,0.023,23771.757,False,-0.017741053478598334,0.033387554759538134,0.41,-0.012,-0.316,-9.875,0.034,345.823,169.078,True,0,1,0,0
-1.471,-0.224,-1.468,compass,-103.555,-0.112,-108.246,-0.87,-0.112,-10.15,2.966,2.565175094133205,-53.692,345.816,0.023,23771.857,False,-0.00733317261166588,0.01381322516299208,0.41,-0.012,-0.316,-9.875,0.034,345.816,169.078,True,0,1,0,0
-1.471,-0.112,-1.468,compass,-102.396,-0.0,-107.937,-0.87,-0.112,-10.15,3.105,2.6418882660720264,-53.685,345.823,0.049,23771.957,False,-0.0072050687820015245,0.013815502006554275,0.41,-0.051,-0.316,-9.879,0.034,345.823,169.078,True,0,1,0,0
-1.464,0.112,-1.468,compass,-99.704,-0.0,-107.237,-0.869,0.112,-10.26,3.105,2.752514277355499,-53.671,345.837,0.049,23772.057,False,-0.014426426499485574,0.028791725121911863,0.41,-0.051,-0.316,-9.879,-0.006,345.837,169.078,True,0,1,0,0
-1.456,-0.112,-1.467,compass,-101.864,0.112,-106.51,-0.883,0.112,-10.26,3.185,2.843956706620025,-53.643,345.865,0.039,23772.158,False,-0.013813070175163178,0.02881106561703192,0.41,-0.051,-0.316,-9.879,-0.006,345.865,169.078,True,0,1,0,0
-1.442,0.112,-1.467,compass,-99.922,0.112,-105.745,-0.881,0.0,-10.26,3.185,2.915183998397603,-53.615,345.893,0.039,23772.258,False,-0.010537267290789153,0.0230639297496884,0.41,-0.051,-0.316,-9.879,-0.006,345.893,169.078,True,0,1,0,0
-1.434,0.112,-1.466,compass,-99.736,0.224,-104.958,-0.888,0.112,-10.2,3.165,2.984033897892646,-53.573,345.935,0.025,23772.358,False,-0.010003318592100385,0.023087032237341702,0.41,-0.051,-0.316,-9.918,0.015,345.935,169.078,True,0,1,0,0
-1.42,0.112,-1.464,compass,-100.31,0.112,-104.267,-0.887,-0.224,-10.2,3.165,2.9944113864753867,-53.51,345.998,0.025,23772.458,False,-0.006190735739053781,0.015028975883465166,0.41,-0.012,-0.316,-9.914,0.015,345.998,169.078,True,0,1,0,0
-1.42,0.112,-1.463,compass,-99.728,0.224,-103.61,-0.888,0.112,-10.26,3.145,3.042031192985824,-53.474,346.034,0.012,23772.558,False,-0.0059056913170401565,0.015041582369375816,0.41,-0.012,-0.316,-9.914,-0.017,346.034,169.078,True,0,1,0,0
-1.422,0.112,-1.462,compass,-100.103,0.224,-103.07,-0.875,-0.112,-10.26,3.145,3.0489259923423955,-53.424,346.084,0.012,23772.658,False,-0.0026151346753346223,0.006950392813456303,0.41,-0.012,-0.316,-9.914,-0.017,346.084,169.078,True,0,1,0,0
-1.431,0.224,-1.461,compass,-99.165,0.224,-102.541,-0.862,-0.224,-10.26,3.125,3.0389169283719273,-53.382,346.126,0.054,23772.758,False,-0.0025085003607345654,0.006957252393666814,0.41,-0.012,-0.316,-9.914,-0.017,346.126,169.078,True,0,1,0,0
-1.433,0.112,-1.46,compass,-102.388,0.112,-102.022,-0.849,-0.224,-10.3,3.125,3.027444532226747,-53.353,346.155,0.054,23772.858,False,-0.011228374945471567,0.032489171542526445,0.41,0.027,-0.316,-9.918,-0.028,346.155,169.078,True,0,1,0,0
-1.441,0.112,-1.459,compass,-102.388,-0.224,-101.674,-0.836,-0.224,-10.3,3.006,3.0184393613893423,-53.332,346.176,0.012,23772.958,False,-0.010913422081655187,0.03250528477639449,0.41,-0.012,-0.277,-9.918,-0.028,346.176,169.078,True,0,1,0,0
-1.46,0.112,-1.459,compass,-102.108,-0.112,-101.781,-0.797,-0.112,-10.26,3.006,2.979372161544912,-53.296,346.212,0.012,23773.158,False,-0.002364217954418761,0.006971362275538,0.41,-0.012,-0.316,-9.875,-0.005,346.212,169.078,True,0,1,0,0
-1.475,0.0,-1.46,compass,-103.263,0.112,-101.812,-0.791,-0.112,-10.3,3.006,2.9714499662961593,-53.303,346.205,0.025,23773.258,False,-0.005146382550946734,0.015102259252656463,0.41,-0.012,-0.316,-9.875,-0.025,346.205,169.078,True,0,1,0,0
-1.489,-0.112,-1.46,compass,-104.705,-0.0,-101.946,-0.79,-0.224,-10.3,3.006,2.955508956992369,-53.535,345.973,0.025,23773.358,False,-0.0052882605021905655,0.015019976719634585,0.41,-0.051,-0.316,-9.879,-0.025,345.973,169.078,True,0,1,0,0
-1.489,-0.112,-1.46,compass,-104.705,-0.0,-101.946,-0.79,-0.224,-10.3,2.787,2.955508956992369,-53.535,345.973,0.025,23773.358,False,-0.0052882605021905655,0.015019976719634585,0.41,-0.051,-0.316,-9.879,-0.025,345.973,169.078,True,0,1,0,0
-1.505,-0.112,-1.463,compass,-104.519,-0.0,-102.32,-0.825,-0.112,-10.24,2.787,2.870634741830493,-53.663,345.845,0.025,23773.558,False,-0.005458920557802976,0.014974592793670525,0.41,-0.012,-0.277,-9.84,-0.003,345.845,169.078,True,0,1,0,0
-1.505,-0.112,-1.463,compass,-104.519,-0.0,-102.32,-0.825,-0.112,-10.24,2.588,2.870634741830493,-53.663,345.845,0.047,23773.558,False,-0.005458920557802976,0.014974592793670525,0.41,-0.012,-0.277,-9.84,-0.003,345.845,169.078,True,0,1,0,0
-1.509,-0.112,-1.466,compass,-103.977,0.112,-102.506,-0.854,0.112,-10.26,2.588,2.765472210791634,-53.635,345.873,0.047,23773.758,False,-0.010162588021424732,0.027663930513690413,0.41,-0.012,-0.277,-9.879,-0.012,345.873,169.078,True,0,1,0,0
-1.522,0.0,-1.467,compass,-107.422,-0.112,-102.607,-0.863,-0.112,-10.26,2.448,2.680312547681077,-53.628,345.88,0.07,23773.859,False,-0.015337615289719891,0.04150277300065177,0.41,-0.012,-0.277,-9.879,-0.012,345.88,169.078,True,0,1,0,0
-1.528,0.112,-1.469,compass,-106.022,-0.0,-102.751,-0.864,-0.112,-10.26,2.448,2.609954826415834,-53.62,345.888,0.07,23773.959,False,-0.015488906469604755,0.04150967995183455,0.41,-0.012,-0.277,-9.879,-0.012,345.888,169.078,True,0,1,0,0
-1.535,-0.112,-1.471,compass,-108.862,-0.0,-102.965,-0.865,-0.112,-10.24,2.369,2.5447015440042766,-53.62,345.888,0.086,23774.059,False,-0.019230448818700792,0.05073415293375075,0.41,-0.012,-0.277,-9.879,-0.004,345.888,169.078,True,0,1,0,0
-1.543,-0.112,-1.473,compass,-108.861,-0.0,-103.281,-0.859,-0.112,-10.24,2.369,2.493581315204032,-53.62,345.888,0.086,23774.159,False,-0.019681119656903803,0.05073438627095163,0.41,-0.012,-0.277,-9.879,-0.004,345.888,169.078,True,0,1,0,0
-1.543,-0.112,-1.475,compass,-107.941,-0.0,-103.965,-0.859,0.112,-10.24,2.369,2.482160136685512,-53.62,345.888,0.017,23774.259,False,-0.00422725589881634,0.01037748810087647,0.41,-0.012,-0.277,-9.918,-0.004,345.888,169.078,True,0,1,0,0
-1.543,-0.112,-1.477,compass,-107.941,0.112,-104.554,-0.859,0.112,-10.26,2.369,2.473233039882835,-53.606,345.902,0.017,23774.359,False,-0.004397363206202778,0.010380900480514339,0.41,-0.012,-0.277,-9.918,-0.01,345.902,169.078,True,0,1,0,0
-1.542,-0.112,-1.479,compass,-107.513,0.224,-104.991,-0.866,0.224,-10.26,2.369,2.478490011473995,-53.585,345.923,0.027,23774.359,False,-0.007033026387658525,0.016156313787207346,0.41,-0.051,-0.277,-9.875,-0.01,345.923,169.078,True,0,1,0,0
-1.535,0.0,-1.481,compass,-106.177,-0.0,-105.284,-0.866,0.224,-10.28,2.369,2.4787368319603273,-53.557,345.951,0.027,23774.559,False,-0.007158932601909396,0.016166892845783872,0.41,-0.012,-0.277,-9.879,-0.019,345.951,169.078,True,0,1,0,0
-1.535,0.0,-1.481,compass,-106.177,-0.0,-105.284,-0.866,0.224,-10.28,2.428,2.4787368319603273,-53.557,345.951,0.041,23774.559,False,-0.007158932601909396,0.016166892845783872,0.41,-0.012,-0.277,-9.879,-0.019,345.951,169.078,True,0,1,0,0
-1.514,0.0,-1.483,compass,-105.824,0.112,-105.631,-0.871,0.336,-10.24,2.428,2.497222726634138,-53.472,346.036,0.041,23774.759,False,-0.010945608835057734,0.02429882730980476,0.41,-0.051,-0.277,-9.875,0.003,346.036,169.078,True,0,1,0,0
-1.514,0.0,-1.483,compass,-105.824,0.112,-105.631,-0.871,0.336,-10.24,2.448,2.497222726634138,-53.472,346.036,0.017,23774.759,False,-0.010945608835057734,0.02429882730980476,0.41,-0.051,-0.277,-9.875,0.003,346.036,169.078,True,0,1,0,0
-1.505,-0.112,-1.485,compass,-108.8,0.112,-106.05,-0.892,-0.112,-10.24,2.448,2.4781085450432783,-53.403,346.105,0.017,23774.959,False,-0.004808828557190101,0.010430913519981606,0.41,-0.051,-0.277,-9.875,0.003,346.105,169.078,True,0,1,0,0
-1.489,-0.112,-1.485,compass,-113.687,0.224,-106.48,-0.905,0.112,-10.28,2.588,2.5179998857586963,-53.375,346.133,0.033,23774.959,False,-0.009321777719818626,0.01971550927038283,0.41,-0.051,-0.277,-9.914,-0.011,346.133,169.078,True,0,1,0,0
-1.474,0.0,-1.485,compass,-112.481,0.112,-106.999,-0.911,0.112,-10.28,2.588,2.5437710865528063,-53.333,346.175,0.033,23775.16,False,-0.009601782557167223,0.019735045111934232,0.41,-0.012,-0.277,-9.879,-0.011,346.175,169.078,True,0,1,0,0
-1.461,0.112,-1.484,compass,-110.832,0.112,-107.403,-0.902,0.224,-10.24,2.647,2.583505265825968,-53.304,346.204,0.049,23775.26,False,-0.014448978669967666,0.029041551642474742,0.41,-0.012,-0.277,-9.918,0.011,346.204,169.078,True,0,1,0,0
-1.449,0.112,-1.483,compass,-110.832,0.112,-107.767,-0.887,0.224,-10.24,2.647,2.6144548454516463,-53.284,346.224,0.049,23775.36,False,-0.014749768252353763,0.029055758858764238,0.41,-0.012,-0.316,-9.914,0.011,346.224,169.078,True,0,1,0,0
-1.449,0.112,-1.483,compass,-110.832,0.112,-107.767,-0.887,0.224,-10.24,2.667,2.6144548454516463,-53.284,346.224,0.068,23775.36,False,-0.014749768252353763,0.029055758858764238,0.41,-0.012,-0.316,-9.914,0.011,346.224,169.078,True,0,1,0,0
-1.439,0.112,-1.48,compass,-111.306,-0.0,-108.363,-0.859,0.112,-10.24,2.667,2.6444983142095513,-53.184,346.324,0.068,23775.56,False,-0.021288996608141222,0.04077241169675721,0.42,-0.012,-0.316,-9.875,0.01,346.324,169.078,True,0,1,0,0
-1.44,0.112,-1.479,compass,-111.293,0.112,-108.834,-0.853,0.112,-10.24,2.647,2.6514474316959,-53.156,346.352,0.017,23775.66,False,-0.0056126324378201085,0.01049115160049594,0.42,-0.012,-0.355,-9.914,0.01,346.352,169.078,True,0,1,0,0
-1.44,-0.112,-1.478,compass,-114.74,-0.0,-109.387,-0.846,-0.112,-10.24,2.647,2.6426569210542104,-53.136,346.372,0.017,23775.76,False,-0.005775497084130681,0.010496270218443371,0.42,-0.051,-0.316,-9.879,0.01,346.372,169.078,True,0,1,0,0
-1.428,-0.112,-1.476,compass,-114.676,-0.0,-109.88,-0.838,-0.112,-10.22,2.747,2.656233669202898,-53.114,346.394,0.037,23775.86,False,-0.012496841344586826,0.022169940244338146,0.42,-0.012,-0.316,-9.875,0.015,346.394,169.078,True,0,1,0,0
-1.428,0.0,-1.475,compass,-114.028,0.224,-110.34,-0.831,-0.224,-10.22,2.747,2.649093550638561,-53.1,346.408,0.037,23775.96,False,-0.012782893842346441,0.022177161045673858,0.42,-0.012,-0.316,-9.914,0.015,346.408,169.078,True,0,1,0,0
-1.421,-0.112,-1.473,compass,-115.835,0.112,-110.764,-0.837,-0.336,-10.22,2.707,2.6268911815826246,-53.1,346.408,0.054,23776.06,False,-0.019233557958116772,0.03268198124054865,0.42,-0.051,-0.316,-9.879,0.015,346.408,169.078,True,0,1,0,0
-1.448,0.0,-1.473,compass,-113.509,0.224,-111.108,-0.847,-0.112,-10.26,2.707,2.6282811273489672,-53.1,346.408,0.054,23776.16,False,-0.01955242014892714,0.03268213954481523,0.42,-0.012,-0.316,-9.875,0.001,346.408,169.078,True,0,1,0,0
-1.461,-0.112,-1.472,compass,-115.383,0.112,-111.575,-0.849,-0.224,-10.26,2.568,2.593938205609815,-53.093,346.415,0.029,23776.26,False,-0.01069930700549472,0.017511181805963817,0.42,-0.051,-0.316,-9.918,0.001,346.415,169.078,True,0,1,0,0
-1.482,0.112,-1.473,compass,-112.796,-0.224,-111.885,-0.852,-0.224,-10.2,2.568,2.5562684326787903,-53.093,346.415,0.029,23776.361,False,-0.010850898378285406,0.017511282115762975,0.42,-0.051,-0.277,-9.914,0.031,346.415,169.078,True,0,1,0,0
-1.496,0.0,-1.473,compass,-105.044,0.112,-111.786,-0.854,-0.336,-10.2,2.588,2.5235735313800323,-53.071,346.437,0.014,23776.461,False,-0.005040037898955899,0.008176075950154892,0.42,-0.051,-0.277,-9.914,0.031,346.437,169.078,True,0,1,0,0
-1.51,0.0,-1.474,compass,-104.678,0.224,-111.368,-0.856,-0.224,-10.2,2.588,2.5110631917759973,-53.057,346.451,0.014,23776.561,False,-0.004947622764083921,0.008178743949643987,0.42,-0.012,-0.277,-9.918,0.028,346.451,169.078,True,0,1,0,0
-1.525,0.112,-1.476,compass,-103.266,0.224,-110.518,-0.85,-0.224,-10.2,2.448,2.4654757971178825,-53.056,346.452,0.049,23776.661,False,-0.017004872000903625,0.02920998795991849,0.42,-0.012,-0.242,-9.918,0.028,346.452,169.078,True,0,1,0,0
-1.546,-0.112,-1.478,compass,-106.153,0.224,-109.737,-0.853,-0.224,-10.22,2.448,2.4368038136435874,-53.063,346.445,0.049,23776.761,False,-0.016392950937715648,0.02920544811625344,0.42,-0.012,-0.277,-9.918,0.015,346.445,169.078,True,0,1,0,0
-1.566,0.0,-1.481,compass,-104.744,-0.0,-109.037,-0.855,-0.224,-10.22,2.369,2.3943242188680465,-53.077,346.431,0.033,23776.861,False,-0.010775284836962488,0.01985341579170231,0.42,-0.012,-0.242,-9.879,0.015,346.431,169.078,True,0,1,0,0
-1.581,0.112,-1.484,compass,-103.239,-0.336,-108.29,-0.849,-0.224,-10.24,2.369,2.3580738272899757,-53.098,346.41,0.033,23776.961,False,-0.010376976084751431,0.019843552824422035,0.42,-0.012,-0.242,-9.879,0.003,346.41,169.078,True,0,1,0,0
-1.617,-0.112,-1.488,compass,-105.389,-0.0,-107.57,-0.846,0.0,-10.24,2.408,2.3701770997005496,-53.161,346.347,0.052,23777.061,False,-0.015894287738224655,0.03147020191975102,0.42,-0.012,-0.242,-9.879,0.003,346.347,169.078,True,0,1,0,0
-1.624,0.0,-1.492,compass,-103.655,-0.0,-106.888,-0.846,0.112,-10.2,2.408,2.389320126402971,-53.175,346.333,0.052,23777.161,False,-0.015296207909052586,0.03146007971815921,0.42,-0.012,-0.242,-9.879,0.023,346.333,169.078,True,0,1,0,0
-1.637,-0.224,-1.496,compass,-106.271,0.112,-106.166,-0.855,0.112,-10.2,2.508,2.430910961346626,-53.175,346.333,0.101,23777.261,False,-0.02821869335252245,0.060589869389707236,0.42,-0.012,-0.277,-9.879,0.023,346.333,169.078,True,0,1,0,0
-1.635,-0.112,-1.5,compass,-105.334,0.112,-105.567,-0.869,0.0,-10.2,2.508,2.4469047054588566,-53.161,346.347,0.101,23777.361,False,-0.02716690272269586,0.06060918418740916,0.42,-0.012,-0.242,-9.879,0.023,346.347,169.078,True,0,1,0,0
-1.634,-0.224,-1.504,compass,-105.759,0.112,-105.214,-0.876,0.224,-10.28,2.727,2.537296722441526,-53.161,346.347,0.089,23777.461,False,-0.023493601584680175,0.05361568525263756,0.41,-0.012,-0.242,-9.879,-0.006,346.347,169.078,True,0,1,0,0
-1.634,-0.112,-1.508,compass,-104.588,0.112,-104.882,-0.876,0.224,-10.28,2.727,2.604394304676438,-53.146,346.362,0.089,23777.561,False,-0.02296989580228,0.05363407030851888,0.41,-0.012,-0.242,-9.879,-0.006,346.362,169.078,True,0,1,0,0
-1.626,-0.112,-1.512,compass,-104.87,-0.0,-104.766,-0.882,0.112,-10.28,2.826,2.667410784878934,-53.14,346.368,0.051,23777.661,False,-0.012879133959893424,0.03031967609082502,0.41,-0.012,-0.277,-9.879,-0.006,346.368,169.078,True,0,1,0,0
-1.619,-0.112,-1.515,compass,-104.568,-0.112,-104.642,-0.888,0.224,-10.2,2.826,2.729521165759655,-53.133,346.375,0.051,23777.761,False,-0.012770116016613141,0.030324441928245308,0.41,-0.012,-0.277,-9.879,0.021,346.375,169.078,True,0,1,0,0
-1.605,0.0,-1.518,compass,-103.716,0.112,-104.431,-0.887,0.112,-10.2,2.946,2.7875808049704887,-53.112,346.396,0.062,23777.861,False,-0.015479863646108436,0.03734033472615268,0.41,-0.012,-0.277,-9.879,0.021,346.396,169.078,True,0,1,0,0
-1.57,0.0,-1.519,compass,-103.447,0.112,-104.203,-0.884,0.224,-10.2,2.946,2.845908200165063,-53.056,346.452,0.062,23777.961,False,-0.015199470654124162,0.037388909894717465,0.41,-0.012,-0.277,-9.879,0.021,346.452,169.078,True,0,1,0,0
-1.549,0.112,-1.52,compass,-102.338,-0.0,-103.997,-0.882,0.224,-10.22,2.946,2.889307778079724,-53.028,346.48,0.043,23778.061,False,-0.010293899189270156,0.0257217849412264,0.41,-0.051,-0.316,-9.879,0.013,346.48,169.078,True,0,1,0,0
-1.536,0.112,-1.521,compass,-102.338,-0.112,-103.753,-0.874,0.224,-10.22,2.946,2.9232151108343634,-52.993,346.515,0.043,23778.161,False,-0.010108404847282655,0.02574245340100098,0.41,-0.051,-0.277,-9.875,0.013,346.515,169.078,True,0,1,0,0
-1.509,0.224,-1.52,compass,-101.163,0.112,-103.485,-0.864,0.224,-10.22,2.886,2.934338812290851,-52.973,346.535,0.031,23778.262,False,-0.007211171112058634,0.018730718843908867,0.41,-0.051,-0.316,-9.879,0.013,346.535,169.078,True,0,1,0,0
-1.489,0.112,-1.519,compass,-102.305,-0.112,-103.237,-0.862,0.224,-10.17,2.886,2.945744322890662,-52.937,346.571,0.031,23778.362,False,-0.007074799098306103,0.018746012828657743,0.41,-0.051,-0.316,-9.879,0.028,346.571,169.078,True,0,1,0,0
-1.469,0.224,-1.518,compass,-101.144,-0.224,-102.947,-0.846,0.224,-10.17,2.866,2.9475212930204493,-52.923,346.585,0.033,23778.462,False,-0.007358831417728439,0.019924022862546898,0.41,-0.051,-0.316,-9.879,0.028,346.585,169.078,True,0,1,0,0
-1.456,0.224,-1.516,compass,-101.87,-0.0,-102.678,-0.838,-0.112,-10.2,2.866,2.9096382594502335,-52.881,346.627,0.033,23778.562,False,-0.007199291232159558,0.019943548543910197,0.41,-0.051,-0.316,-9.879,0.01,346.627,169.078,True,0,1,0,0
-1.436,0.112,-1.514,compass,-102.518,-0.112,-102.428,-0.836,0.112,-10.2,2.807,2.895474315856637,-52.847,346.661,0.045,23778.662,False,-0.009544792007232725,0.027003901654649325,0.41,-0.051,-0.316,-9.879,0.01,346.661,169.078,True,0,1,0,0
-1.429,0.112,-1.511,compass,-103.07,0.112,-102.255,-0.828,-0.112,-10.2,2.807,2.858340627984857,-52.84,346.668,0.045,23778.762,False,-0.009425958014897028,0.02700824413419033,0.41,-0.051,-0.277,-9.875,0.01,346.668,169.078,True,0,1,0,0
-1.408,0.112,-1.508,compass,-103.042,0.112,-102.237,-0.833,-0.112,-10.24,2.727,2.812615730106358,-52.79,346.718,0.023,23778.862,False,-0.004903107657980865,0.014107176347197086,0.41,-0.051,-0.277,-9.875,-0.004,346.718,169.078,True,0,1,0,0
-1.408,0.112,-1.505,compass,-102.476,-0.0,-102.219,-0.834,0.112,-10.24,2.727,2.8030102835232844,-52.762,346.746,0.023,23778.962,False,-0.004896019573325478,0.014116446889964154,0.41,-0.012,-0.277,-9.918,-0.004,346.746,169.078,True,0,1,0,0
-1.407,-0.112,-1.502,compass,-105.605,0.112,-102.343,-0.841,-0.112,-10.24,2.667,2.7628692931310006,-52.755,346.753,0.023,23779.062,False,-0.0049522761951284145,0.014118660005789275,0.41,-0.012,-0.277,-9.879,-0.004,346.753,169.078,True,0,1,0,0
-1.414,-0.112,-1.499,compass,-104.922,-0.0,-102.524,-0.842,0.112,-10.28,2.667,2.7573052055261513,-52.748,346.76,0.023,23779.162,False,-0.005029520761552033,0.01412093778344754,0.41,-0.012,-0.277,-9.918,-0.017,346.76,169.078,True,0,1,0,0
-1.42,-0.112,-1.497,compass,-105.605,0.112,-102.599,-0.85,-0.112,-10.28,2.667,2.725773171915274,-52.748,346.76,0.056,23779.262,False,-0.012242186968813868,0.03412557132955916,0.41,-0.012,-0.277,-9.918,-0.017,346.76,169.078,True,0,1,0,0
-1.441,-0.224,-1.495,compass,-106.874,0.112,-102.795,-0.852,-0.112,-10.24,2.667,2.704784448638935,-52.748,346.76,0.056,23779.362,False,-0.012442340004161258,0.03412576455268425,0.41,-0.012,-0.316,-9.914,0.005,346.76,169.078,True,0,1,0,0
-1.453,-0.224,-1.494,compass,-106.811,0.224,-103.226,-0.867,-0.112,-10.24,2.727,2.7031276132504214,-52.748,346.76,0.019,23779.462,False,-0.004436156280808898,0.011767486996669047,0.41,-0.012,-0.316,-9.914,0.005,346.76,169.078,True,0,1,0,0
-1.467,0.0,-1.493,compass,-103.997,0.112,-103.506,-0.869,0.0,-10.24,2.727,2.7076433615882225,-52.741,346.767,0.019,23779.562,False,-0.004529540868332737,0.011769408113288925,0.41,-0.012,-0.316,-9.914,0.005,346.767,169.078,True,0,1,0,0
-1.473,-0.112,-1.493,compass,-105.546,0.112,-103.677,-0.877,-0.112,-10.24,2.767,2.7095881919832694,-52.734,346.774,0.037,23779.662,False,-0.008714320009438925,0.02236542362379895,0.41,-0.012,-0.316,-9.914,0.004,346.774,169.078,True,0,1,0,0
-1.48,-0.112,-1.492,compass,-105.896,-0.0,-103.848,-0.878,-0.224,-10.24,2.767,2.698218798646255,-52.727,346.781,0.037,23779.762,False,-0.008822201558652001,0.022369030696155652,0.41,-0.012,-0.316,-9.914,0.004,346.781,169.078,True,0,1,0,0
-1.495,-0.112,-1.492,compass,-105.925,-0.0,-103.903,-0.873,-0.224,-10.22,2.727,2.6795096601428066,-52.727,346.781,0.06,23779.862,False,-0.01445622947474404,0.03649707575533327,0.41,-0.012,-0.316,-9.914,0.014,346.781,169.078,True,0,1,0,0
-1.503,0.112,-1.493,compass,-103.344,-0.0,-103.843,-0.867,-0.224,-10.22,2.727,2.6582658958889915,-52.719,346.789,0.06,23779.962,False,-0.014394627134674572,0.036503054976637306,0.41,-0.012,-0.316,-9.875,0.014,346.789,169.078,True,0,1,0,0
-1.524,0.0,-1.494,compass,-105.011,-0.224,-103.904,-0.869,-0.336,-10.22,2.667,2.6199092196057525,-52.726,346.782,0.037,23780.063,False,-0.008867230441295369,0.022369405623285318,0.41,-0.012,-0.316,-9.914,0.014,346.782,169.078,True,0,1,0,0
-1.538,-0.112,-1.495,compass,-106.351,-0.112,-104.021,-0.864,-0.336,-10.22,2.667,2.5935584593388397,-52.725,346.783,0.037,23780.163,False,-0.008941524314283316,0.022369962322251778,0.41,-0.012,-0.277,-9.879,0.013,346.783,169.078,True,0,1,0,0
-1.553,0.112,-1.497,compass,-103.635,-0.112,-103.939,-0.858,-0.336,-10.22,2.548,2.5391837472168453,-52.718,346.79,0.052,23780.263,False,-0.012631385059155346,0.031794159919151445,0.41,0.027,-0.277,-9.914,0.013,346.79,169.078,True,0,1,0,0
-1.568,-0.112,-1.499,compass,-106.065,-0.112,-103.943,-0.853,-0.224,-10.24,2.548,2.516486008854495,-52.732,346.776,0.052,23780.363,False,-0.012647122554760986,0.03178364548432067,0.41,-0.012,-0.242,-9.879,0.001,346.776,169.078,True,0,1,0,0
-1.583,0.112,-1.501,compass,-102.938,-0.0,-103.67,-0.84,-0.112,-10.24,2.468,2.4863411062909444,-52.76,346.748,0.084,23780.463,False,-0.019785803347115206,0.050586574139107464,0.41,-0.012,-0.242,-9.879,0.001,346.748,169.078,True,0,1,0,0
-1.605,0.0,-1.504,compass,-104.346,-0.112,-103.444,-0.835,-0.112,-10.22,2.468,2.4660084393454667,-52.78,346.728,0.084,23780.563,False,-0.019481481025186112,0.05056277830986302,0.41,-0.012,-0.242,-9.879,0.011,346.728,169.078,True,0,1,0,0
-1.641,-0.112,-1.509,compass,-105.925,0.112,-103.366,-0.823,-0.112,-10.22,2.229,2.4016380347369264,-52.956,346.552,0.07,23780.663,False,-0.01637101707471284,0.042160757675707754,0.41,-0.051,-0.242,-9.875,0.011,346.552,169.078,True,0,1,0,0
-1.656,0.112,-1.513,compass,-102.141,0.112,-103.186,-0.815,0.112,-10.22,2.229,2.371098716109567,-53.188,346.32,0.07,23780.763,False,-0.016330463899360673,0.041934026559360536,0.41,-0.012,-0.242,-9.879,0.011,346.32,169.078,True,0,1,0,0
-1.662,0.0,-1.517,compass,-104.394,-0.112,-103.182,-0.814,-0.112,-10.15,2.17,2.312255673364995,-53.272,346.236,0.043,23780.863,False,-0.009975276128709607,0.025576078781455718,0.41,-0.012,-0.242,-9.879,0.033,346.236,169.078,True,0,1,0,0
-1.67,0.112,-1.522,compass,-101.771,-0.0,-103.074,-0.808,0.224,-10.15,2.17,2.3024730640531117,-53.273,346.235,0.043,23780.963,False,-0.009848276326197522,0.02557568676903494,0.41,-0.051,-0.277,-9.875,0.033,346.235,169.078,True,0,1,0,0
-1.67,0.112,-1.526,compass,-101.864,-0.0,-103.01,-0.809,0.224,-10.15,2.269,2.3175026855850245,-53.251,346.257,0.023,23781.064,False,-0.005318803972374492,0.013957444543112797,0.41,-0.051,-0.242,-9.875,0.033,346.257,169.078,True,0,1,0,0
-1.662,0.112,-1.531,compass,-102.173,-0.0,-102.9,-0.815,0.112,-10.26,2.269,2.3161761454148517,-53.23,346.278,0.023,23781.164,False,-0.005254178788178446,0.013964179018620902,0.4,-0.051,-0.242,-9.875,-0.006,346.278,169.078,True,0,1,0,0
-1.642,0.112,-1.534,compass,-101.55,-0.112,-102.796,-0.813,0.336,-10.26,2.249,2.3372978433163034,-53.217,346.291,0.014,23781.264,False,-0.0030324014073207046,0.008148366606255886,0.4,-0.051,-0.242,-9.875,-0.006,346.291,169.078,True,0,1,0,0
-1.62,0.112,-1.536,compass,-101.55,-0.0,-102.657,-0.817,0.336,-10.26,2.249,2.353782220469753,-53.202,346.306,0.014,23781.364,False,-0.0029934899555426014,0.008151100582513737,0.4,-0.051,-0.277,-9.875,-0.005,346.306,169.078,True,0,1,0,0
-1.54,0.0,-1.537,compass,-103.049,0.112,-101.701,-0.837,0.336,-10.24,2.488,2.467812942665413,-53.112,346.396,0.103,23781.564,False,-0.020840573490872167,0.061844667422929434,0.4,-0.051,-0.277,-9.914,0.005,346.396,169.078,True,0,1,0,0
-1.54,0.0,-1.537,compass,-103.049,0.112,-101.701,-0.837,0.336,-10.24,2.488,2.467812942665413,-53.112,346.396,0.103,23781.564,False,-0.020840573490872167,0.061844667422929434,0.4,-0.051,-0.277,-9.914,0.005,346.396,169.078,True,0,1,0,0
-1.475,0.112,-1.535,compass,-101.563,-0.0,-101.694,-0.859,0.448,-10.24,2.548,2.5782166333133274,-53.029,346.479,0.051,23781.764,False,-0.010179081101990664,0.030397401683059495,0.4,-0.012,-0.316,-9.875,0.005,346.479,169.078,True,0,1,0,0
-1.475,0.112,-1.535,compass,-101.563,-0.0,-101.694,-0.859,0.448,-10.24,2.548,2.5782166333133274,-53.029,346.479,0.051,23781.764,False,-0.010179081101990664,0.030397401683059495,0.4,-0.012,-0.316,-9.875,0.005,346.479,169.078,True,0,1,0,0
-1.401,-0.112,-1.528,compass,-103.376,-0.0,-101.565,-0.887,0.336,-10.22,2.568,2.654911297680724,-52.925,346.583,0.07,23781.964,False,-0.013887443020364423,0.04219052099579065,0.4,-0.012,-0.355,-9.914,0.012,346.583,169.078,True,0,1,0,0
-1.401,-0.112,-1.528,compass,-103.376,-0.0,-101.565,-0.887,0.336,-10.22,2.568,2.654911297680724,-52.925,346.583,0.07,23781.964,False,-0.013887443020364423,0.04219052099579065,0.4,-0.012,-0.355,-9.914,0.012,346.583,169.078,True,0,1,0,0
-1.343,-0.112,-1.518,compass,-103.65,0.224,-101.69,-0.903,0.224,-10.3,2.667,2.716475853196417,-52.806,346.702,0.047,23782.164,False,-0.009329968474785625,0.02820405096025791,0.41,-0.012,-0.355,-9.914,-0.03,346.702,169.078,True,0,1,0,0
-1.343,-0.112,-1.518,compass,-103.65,0.224,-101.69,-0.903,0.224,-10.3,2.667,2.716475853196417,-52.806,346.702,0.047,23782.164,False,-0.009329968474785625,0.02820405096025791,0.41,-0.012,-0.355,-9.914,-0.03,346.702,169.078,True,0,1,0,0
-1.287,0.0,-1.505,compass,-102.998,-0.0,-101.938,-0.904,0.0,-10.26,2.727,2.738113836380566,-52.8,346.708,0.014,23782.364,False,-0.002792459940008841,0.008227344094899508,0.41,-0.012,-0.316,-9.914,-0.013,346.708,169.078,True,0,1,0,0
-1.287,0.0,-1.505,compass,-102.998,-0.0,-101.938,-0.904,0.0,-10.26,2.727,2.738113836380566,-52.8,346.708,0.014,23782.364,False,-0.002792459940008841,0.008227344094899508,0.41,-0.012,-0.316,-9.914,-0.013,346.708,169.078,True,0,1,0,0
-1.261,0.112,-1.491,compass,-102.321,-0.112,-101.79,-0.877,-0.224,-10.22,2.826,2.7493073485099693,-52.935,346.573,0.041,23782.565,False,-0.008362360705023391,0.024605706562311938,0.41,-0.012,-0.355,-9.914,0.008,346.573,169.078,True,0,1,0,0
-1.261,0.112,-1.491,compass,-102.321,-0.112,-101.79,-0.877,-0.224,-10.22,2.826,2.7493073485099693,-52.935,346.573,0.041,23782.565,False,-0.008362360705023391,0.024605706562311938,0.41,-0.012,-0.355,-9.914,0.008,346.573,169.078,True,0,1,0,0
-1.271,0.112,-1.477,compass,-102.614,-0.112,-101.529,-0.848,-0.336,-10.22,2.906,2.7514226008125076,-53.075,346.433,0.049,23782.765,False,-0.00981067621065817,0.029197695696310956,0.41,-0.012,-0.355,-9.914,0.008,346.433,169.078,True,0,1,0,0
-1.271,0.112,-1.477,compass,-102.614,-0.112,-101.529,-0.848,-0.336,-10.22,2.906,2.7514226008125076,-53.075,346.433,0.049,23782.765,False,-0.00981067621065817,0.029197695696310956,0.41,-0.012,-0.355,-9.914,0.008,346.433,169.078,True,0,1,0,0
-1.286,0.0,-1.466,compass,-103.572,0.224,-101.386,-0.841,-0.224,-10.2,2.846,2.7469757004714763,-53.187,346.321,0.056,23782.965,False,-0.011271129097692697,0.033780790316708616,0.41,-0.012,-0.355,-9.875,0.014,346.321,169.078,True,0,1,0,0
-1.286,0.0,-1.466,compass,-103.572,0.224,-101.386,-0.841,-0.224,-10.2,2.846,2.7469757004714763,-53.187,346.321,0.056,23782.965,False,-0.011271129097692697,0.033780790316708616,0.41,-0.012,-0.355,-9.875,0.014,346.321,169.078,True,0,1,0,0
-1.307,-0.112,-1.456,compass,-104.818,-0.0,-101.513,-0.841,-0.224,-10.24,2.826,2.7299362165247727,-53.327,346.181,0.049,23783.165,False,-0.009854572447042503,0.02902601163275998,0.41,0.027,-0.316,-9.879,-0.001,346.181,169.078,True,0,1,0,0
-1.307,-0.112,-1.456,compass,-104.818,-0.0,-101.513,-0.841,-0.224,-10.24,2.826,2.7299362165247727,-53.327,346.181,0.049,23783.165,False,-0.009854572447042503,0.02902601163275998,0.41,0.027,-0.316,-9.879,-0.001,346.181,169.078,True,0,1,0,0
-1.342,-0.112,-1.449,compass,-104.566,-0.224,-102.189,-0.837,-0.112,-10.26,2.707,2.6927839895694508,-53.433,346.075,0.014,23783.365,False,-0.002916446448556108,0.008107211219518073,0.41,-0.012,-0.316,-9.875,-0.011,346.075,169.078,True,0,1,0,0
-1.342,-0.112,-1.449,compass,-104.566,-0.224,-102.189,-0.837,-0.112,-10.26,2.707,2.6927839895694508,-53.433,346.075,0.014,23783.365,False,-0.002916446448556108,0.008107211219518073,0.41,-0.012,-0.316,-9.875,-0.011,346.075,169.078,True,0,1,0,0
-1.379,-0.112,-1.444,compass,-104.902,-0.0,-102.75,-0.832,-0.224,-10.26,2.707,2.6567752461939618,-53.094,346.414,0.019,23783.565,False,-0.0042395756872672065,0.011673888854572427,0.41,-0.051,-0.316,-9.879,-0.011,346.414,169.078,True,0,1,0,0
-1.379,-0.112,-1.444,compass,-104.902,-0.0,-102.75,-0.832,-0.224,-10.26,2.707,2.6567752461939618,-53.094,346.414,0.019,23783.565,False,-0.0042395756872672065,0.011673888854572427,0.41,-0.051,-0.316,-9.879,-0.011,346.414,169.078,True,0,1,0,0
-1.401,0.224,-1.441,compass,-100.744,-0.0,-102.926,-0.834,-0.112,-10.17,2.747,2.652028663259363,-52.727,346.781,0.019,23783.765,False,-0.004240283360407089,0.011773063755134285,0.41,-0.051,-0.316,-9.879,0.021,346.781,169.078,True,0,1,0,0
-1.401,0.224,-1.441,compass,-100.744,-0.0,-102.926,-0.834,-0.112,-10.17,2.747,2.652028663259363,-52.727,346.781,0.019,23783.765,False,-0.004240283360407089,0.011773063755134285,0.41,-0.051,-0.316,-9.879,0.021,346.781,169.078,True,0,1,0,0
