imu.roll,imu.pitchrate,imu.heel,ap.mode,ap.wind_angle,imu.headingrate,ap.true_wind_angle,imu.pitch,imu.rollrate,rudder.angle,wind.speed,ap.true_wind_speed,ap.heading_error,ap.heading,gps.speed,timestamp,ap.enabled,ap.vmg,ap.cmg,sow.speed,imu.accel_X,imu.accel_Y,imu.accel_Z,rudder.speed,imu.heading,gps.track,perf.quality_flag,perf.boat_config.Main,perf.boat_config.jib,perf.boat_config.spi,perf.boat_config.weight
-0.867,-0.224,-0.855,compass,-116.567,-0.112,-48.239,-1.1,0.448,-10.38,0.0,0.26583118864555066,-60.0,338.749,0.058,23583.53,False,-0.020085300243725106,0.028488379089077427,0.45,-0.09,-0.395,-9.879,0.007,338.749,169.078,True,0,1,0,0
-0.832,-0.112,-0.854,compass,-116.567,-0.112,-54.349,-1.1,0.224,-10.32,0.0,0.2401547919550574,-60.0,338.706,0.058,23583.63,False,-0.012797404902664462,0.0284500910895618,0.45,-0.09,-0.395,-9.879,0.037,338.706,169.078,True,0,1,0,0
-0.747,0.0,-0.851,compass,-90.0,-0.112,-59.31,-1.088,0.448,-10.32,0.0,0.24555565370446053,-60.0,338.562,0.091,23583.73,False,-0.011327125021775486,0.04437155117090355,0.45,-0.09,-0.434,-9.879,0.037,338.562,169.078,True,0,1,0,0
-0.718,0.224,-0.847,compass,-44.997,-0.224,-59.749,-1.088,0.224,-10.34,0.0,0.2387161024258287,-60.0,338.49,0.091,23583.83,False,0.0011131822784226342,0.04427143093157019,0.45,-0.09,-0.469,-9.918,0.023,338.49,169.078,True,0,1,0,0
-0.674,0.112,-0.842,compass,-75.962,-0.0,-60.856,-1.093,0.448,-10.34,0.0,0.2511695075847913,-60.0,338.418,0.099,23583.93,False,0.010421099612800367,0.04792999692169884,0.45,-0.09,-0.469,-9.918,0.023,338.418,169.078,True,0,1,0,0
-0.647,0.112,-0.836,compass,44.997,-0.224,-54.354,-1.087,-0.112,-10.34,0.0,0.23361291050411512,-60.0,338.382,0.099,23584.03,False,0.029960380364064162,0.047875500801653106,0.45,-0.164,-0.699,-9.996,0.023,338.382,169.078,True,0,1,0,0
-0.633,0.224,-0.83,compass,-0.0,0.56,-48.482,-1.085,0.0,-10.38,0.0,0.23130276529187846,-60.0,338.403,0.111,23584.13,False,0.051076486199631385,0.05354253982686518,0.45,-0.203,-0.777,-9.992,0.007,338.403,169.078,True,0,1,0,0
-0.596,0.0,-0.823,compass,-0.0,0.783,-40.148,-1.094,0.0,-10.38,0.0,0.20480596640419438,-60.0,338.495,0.111,23584.23,False,-0.07154514619809274,0.053699065207281016,0.45,-0.09,-0.469,-9.957,0.007,338.495,169.078,True,0,1,0,0
-0.56,0.224,-0.815,compass,63.432,0.671,-33.935,-1.103,-0.448,-10.42,0.0,0.2357499189886919,-60.0,338.586,0.074,23584.331,False,-0.07375029291568787,0.03590215347800241,0.45,-0.051,-0.547,-9.957,-0.013,338.586,169.078,True,0,1,0,0
-0.532,0.112,-0.807,compass,63.432,0.224,-26.653,-1.1,-0.224,-10.42,0.0,0.2296745677941712,-60.0,338.671,0.074,23584.431,False,-0.054670455387044646,0.03599759403095395,0.45,-0.051,-0.395,-9.914,-0.013,338.671,169.078,True,0,1,0,0
-0.527,0.224,-0.798,compass,63.432,0.56,-17.814,-1.093,-0.448,-10.28,0.0,0.24776933756048256,-60.0,338.742,0.045,23584.531,False,-0.015645566370751287,0.02183666171912978,0.45,-0.051,-0.469,-9.914,0.054,338.742,169.078,True,0,1,0,0
-0.576,0.224,-0.792,compass,63.432,0.56,-8.972,-1.062,-0.448,-10.28,0.0,0.26106888734738987,-60.0,338.815,0.045,23584.631,False,-0.0009122819102140259,0.021886246132325832,0.45,-0.012,-0.434,-9.918,0.054,338.815,169.078,True,0,1,0,0
-0.601,0.112,-0.786,compass,75.962,0.56,-1.422,-1.045,-0.448,-10.2,0.0,0.27440548534104103,-60.0,338.845,0.095,23584.731,False,0.021879437755053775,0.04667003316251364,0.45,-0.051,-0.395,-9.875,0.09,338.845,169.078,True,0,1,0,0
-0.631,-0.112,-0.781,compass,116.567,0.56,5.278,-1.037,-0.224,-10.2,0.0,0.2570494452046242,-60.0,338.859,0.095,23584.831,False,0.03836598640393421,0.04669090150884738,0.45,-0.051,-0.434,-9.914,0.09,338.859,169.078,True,0,1,0,0
-0.701,-0.112,-0.775,compass,116.567,0.448,23.024,-1.043,-0.224,-10.26,0.0,0.22999464173613876,-60.0,338.875,0.049,23585.031,False,0.024198377801576517,0.02383369520337246,0.45,-0.051,-0.395,-9.875,0.061,338.875,169.078,True,0,1,0,0
-0.701,-0.112,-0.775,compass,116.567,0.448,23.024,-1.043,-0.224,-10.26,0.0,0.22999464173613876,-60.0,338.875,0.049,23585.031,False,0.024198377801576517,0.02383369520337246,0.45,-0.051,-0.395,-9.875,0.061,338.875,169.078,True,0,1,0,0
-0.769,-0.336,-0.774,compass,135.002,0.448,44.037,-1.063,-0.336,-10.26,0.0,0.2181164522353445,-60.0,338.855,0.054,23585.231,False,0.02161137303385223,0.026677174094322673,0.46,-0.051,-0.355,-9.84,0.061,338.855,169.078,True,0,1,0,0
-0.769,-0.336,-0.774,compass,135.002,0.448,44.037,-1.063,-0.336,-10.26,0.0,0.2181164522353445,-60.0,338.855,0.054,23585.231,False,0.02161137303385223,0.026677174094322673,0.46,-0.051,-0.355,-9.84,0.061,338.855,169.078,True,0,1,0,0
-0.841,0.112,-0.777,compass,71.564,0.448,55.871,-1.089,-0.336,-10.24,0.0,0.20114309074882036,-60.0,338.791,0.111,23585.432,False,0.03869244107950133,0.0541993901435157,0.46,-0.051,-0.395,-9.875,0.062,338.791,169.078,True,0,1,0,0
-0.841,0.112,-0.777,compass,71.564,0.448,55.871,-1.089,-0.336,-10.24,0.0,0.20114309074882036,-60.0,338.791,0.111,23585.432,False,0.03869244107950133,0.0541993901435157,0.46,-0.051,-0.395,-9.875,0.062,338.791,169.078,True,0,1,0,0
-0.925,0.0,-0.785,compass,90.0,0.56,47.962,-1.098,-0.112,-10.22,0.0,0.17045187226054725,-60.0,338.779,0.115,23585.632,False,0.06366166493099684,0.05607912038853721,0.46,-0.051,-0.395,-9.875,0.065,338.779,169.078,True,0,1,0,0
-0.945,-0.112,-0.789,compass,116.566,0.336,47.962,-1.109,-0.224,-10.22,0.0,0.17045187226054725,-60.0,338.779,0.115,23585.632,False,0.06366166493099684,0.05607912038853721,0.46,-0.09,-0.395,-9.918,0.065,338.808,169.078,True,0,1,0,0
-0.953,0.112,-0.794,compass,44.999,0.56,48.175,-1.104,-0.112,-10.26,0.0,0.15027247710683633,-60.0,338.83,0.076,23585.832,False,0.045335465541452756,0.037128130123469785,0.46,-0.051,-0.395,-9.875,0.046,338.83,169.078,True,0,1,0,0
-0.975,0.112,-0.794,compass,44.999,0.56,48.175,-1.102,-0.112,-10.26,0.0,0.15027247710683633,-60.0,338.83,0.076,23585.832,False,0.045335465541452756,0.037128130123469785,0.46,-0.09,-0.395,-9.879,0.046,338.83,169.078,True,0,1,0,0
-0.982,0.112,-0.805,compass,44.999,0.448,46.426,-1.104,-0.112,-10.28,0.0,0.14356843385124335,-60.0,338.951,0.078,23586.032,False,0.05038281747044867,0.03822346576651996,0.46,-0.09,-0.395,-9.879,0.031,338.951,169.078,True,0,1,0,0
-0.989,0.112,-0.811,compass,44.999,0.56,46.426,-1.107,0.112,-10.28,0.0,0.14356843385124335,-60.0,338.951,0.078,23586.032,False,0.05038281747044867,0.03822346576651996,0.46,-0.09,-0.355,-9.875,0.031,339.029,169.078,True,0,1,0,0
-0.981,-0.112,-0.816,compass,-135.001,0.783,31.393,-1.115,0.112,-10.24,0.0,0.15702186951942676,-60.0,339.128,0.122,23586.233,False,0.10217718742652075,0.060530870916909285,0.46,-0.051,-0.434,-9.875,0.047,339.128,169.078,True,0,1,0,0
-0.981,-0.112,-0.816,compass,-135.001,0.783,31.393,-1.115,0.112,-10.24,0.0,0.15702186951942676,-60.0,339.128,0.122,23586.233,False,0.10217718742652075,0.060530870916909285,0.46,-0.051,-0.434,-9.875,0.047,339.128,169.078,True,0,1,0,0
-0.961,0.112,-0.825,compass,-44.999,0.671,16.716,-1.124,0.112,-10.26,0.0,0.1707687718208635,-60.0,339.462,0.115,23586.433,False,0.10894681646645937,0.057268320451605875,0.46,-0.09,-0.395,-9.84,0.033,339.462,169.078,True,0,1,0,0
-0.953,0.112,-0.829,compass,-44.998,0.671,10.577,-1.132,0.112,-10.26,0.0,0.17730635361019279,-59.932,339.576,0.115,23586.533,False,0.11225721279323923,0.057465235805475204,0.46,-0.051,-0.434,-9.914,0.033,339.576,169.078,True,0,1,0,0
-0.933,0.112,-0.832,compass,-44.998,0.671,5.193,-1.131,0.112,-10.26,0.0,0.18393546173602068,-59.777,339.731,0.122,23586.633,False,0.1217331515584726,0.061647468810218285,0.46,-0.09,-0.395,-9.879,0.033,339.731,169.078,True,0,1,0,0
-0.914,0.0,-0.834,compass,-90.0,0.56,-0.877,-1.123,0.224,-10.2,0.0,0.19571128697730275,-59.649,339.859,0.122,23586.733,False,0.022847869895197805,0.0618850813142963,0.46,-0.09,-0.355,-9.875,0.051,339.859,169.078,True,0,1,0,0
-0.894,0.0,-0.836,compass,-0.0,0.671,-2.681,-1.122,0.0,-10.2,0.0,0.16293402937099388,-59.508,340.0,0.047,23586.833,False,0.02337357498300377,0.023674362442042317,0.46,-0.09,-0.469,-9.918,0.051,340.0,169.078,True,0,1,0,0
-0.875,0.224,-0.837,compass,-26.563,0.671,-7.113,-1.115,0.112,-10.2,0.0,0.16683587662545332,-59.358,340.15,0.047,23586.933,False,-0.024039375663991593,0.023779100589117884,0.46,-0.09,-0.395,-9.879,0.051,340.15,169.078,True,0,1,0,0
-0.848,0.112,-0.838,compass,-63.433,0.895,-10.907,-1.113,0.224,-10.26,0.0,0.18005011297252158,-59.195,340.313,0.097,23587.033,False,-0.09519286409605725,0.04977737722876898,0.47,-0.09,-0.434,-9.918,0.026,340.313,169.078,True,0,1,0,0
-0.821,0.112,-0.837,compass,-44.998,0.783,-13.384,-1.112,0.112,-10.26,0.0,0.17945188174711724,-59.039,340.469,0.097,23587.133,False,-0.08756328345513384,0.05000453264770242,0.47,-0.09,-0.469,-9.918,0.026,340.469,169.078,True,0,1,0,0
-0.802,0.112,-0.836,compass,-44.997,0.895,-18.164,-1.104,0.112,-10.26,0.0,0.16151096978619028,-58.912,340.596,0.014,23587.233,False,-0.00837236803051629,0.007026587042365367,0.47,-0.09,-0.395,-9.879,0.026,340.596,169.078,True,0,1,0,0
-0.745,0.0,-0.833,compass,-90.0,1.231,-23.63,-1.114,0.112,-10.2,0.0,0.14170105857605436,-58.644,340.864,0.014,23587.333,False,-0.004448428635544886,0.007081018381036142,0.47,-0.09,-0.469,-9.918,0.043,340.864,169.078,True,0,1,0,0
-0.716,-0.112,-0.83,compass,-139.575,1.343,-33.344,-1.126,0.224,-10.2,2.13,0.6169404823659783,-58.503,341.005,0.099,23587.433,False,-0.0170364030587362,0.05179806864855912,0.47,-0.09,-0.469,-9.918,0.043,341.005,169.078,True,0,1,0,0
-0.693,0.112,-0.826,compass,-137.488,1.231,-44.109,-1.14,0.224,-10.26,2.13,0.9624302206465196,-58.362,341.146,0.099,23587.533,False,-0.01021730774969873,0.05200567297406626,0.47,-0.09,-0.434,-9.879,0.008,341.146,169.078,True,0,1,0,0
-0.67,-0.112,-0.821,compass,-143.209,1.231,-55.732,-1.161,-0.112,-10.26,2.209,1.23910912941986,-58.2,341.308,0.027,23587.633,False,-0.002853736937727993,0.014341718442459248,0.47,-0.09,-0.469,-9.879,0.008,341.308,169.078,True,0,1,0,0
-0.66,-0.112,-0.816,compass,-140.78,1.679,-66.89,-1.184,0.112,-10.26,2.209,1.4703983015844162,-58.037,341.471,0.027,23587.733,False,-0.003877668788735151,0.01440732090182817,0.47,-0.09,-0.469,-9.879,0.007,341.471,169.078,True,0,1,0,0
-0.651,-0.112,-0.811,compass,-140.786,1.455,-77.299,-1.207,0.112,-10.26,2.269,1.6640473912248122,-57.868,341.64,0.014,23587.834,False,-0.0027328148713252373,0.007237790340823077,0.47,-0.09,-0.469,-9.879,0.007,341.64,169.078,True,0,1,0,0
-0.642,-0.112,-0.806,compass,-144.393,1.455,-86.863,-1.223,-0.224,-10.22,2.269,1.7904264508219412,-57.706,341.802,0.014,23587.934,False,-0.0036782021584587294,0.007270281663133313,0.47,-0.09,-0.508,-9.918,0.026,341.802,169.078,True,0,1,0,0
-0.64,-0.224,-0.801,compass,-144.968,1.567,-95.044,-1.248,-0.224,-10.22,2.448,1.9289630284457289,-57.543,341.965,0.111,23588.034,False,-0.037166086674278884,0.059466646962284916,0.47,-0.09,-0.434,-9.879,0.026,341.965,169.078,True,0,1,0,0
-0.637,-0.112,-0.796,compass,-142.996,1.455,-102.246,-1.272,-0.112,-10.26,2.448,2.0326665273323443,-57.382,342.126,0.111,23588.134,False,-0.044137491438864654,0.059730165255670556,0.47,-0.09,-0.469,-9.918,0.004,342.126,169.078,True,0,1,0,0
-0.645,0.112,-0.792,compass,-143.446,1.679,-108.92,-1.276,-0.336,-10.26,2.588,2.1171754800310723,-57.232,342.276,0.019,23588.234,False,-0.008994981105012827,0.010521667960757278,0.47,-0.09,-0.469,-9.918,0.004,342.276,169.078,True,0,1,0,0
-0.654,0.0,-0.788,compass,-143.158,1.679,-114.624,-1.277,-0.224,-10.26,2.588,2.201645593648836,-56.927,342.581,0.019,23588.334,False,-0.010049552740067441,0.01060851017151017,0.47,-0.09,-0.434,-9.879,0.004,342.581,169.078,True,0,1,0,0
-0.671,0.112,-0.784,compass,-155.926,1.79,-119.758,-1.269,-0.224,-10.26,2.568,2.243536523414947,-56.771,342.737,0.103,23588.434,False,-0.05866944257162126,0.05645964235348001,0.47,-0.09,-0.434,-9.879,0.004,342.737,169.078,True,0,1,0,0
-0.688,0.112,-0.781,compass,-155.926,1.567,-124.569,-1.26,-0.224,-10.26,2.568,2.2751531895422925,-56.622,342.886,0.103,23588.534,False,-0.06387986620063851,0.05668338654482709,0.47,-0.051,-0.434,-9.914,0.004,342.886,169.078,True,0,1,0,0
-0.703,-0.112,-0.779,compass,-157.03,1.79,-129.068,-1.259,-0.224,-10.22,2.568,2.3257150964826656,-56.481,343.027,0.089,23588.634,False,-0.059697171369165115,0.049381546690570245,0.47,-0.051,-0.434,-9.875,0.017,343.027,169.078,True,0,1,0,0
-0.728,0.224,-0.777,compass,-155.336,1.79,-133.005,-1.244,-0.224,-10.22,2.568,2.3280277340491544,-56.352,343.156,0.089,23588.734,False,-0.06334173558207241,0.04954847201348196,0.47,-0.012,-0.395,-9.918,0.017,343.156,169.078,True,0,1,0,0
-0.747,0.112,-0.776,compass,-155.925,1.567,-136.47,-1.214,-0.224,-10.26,2.568,2.3419550885189624,-56.224,343.284,0.087,23588.834,False,-0.06501342525743568,0.04863466633363883,0.47,-0.051,-0.395,-9.875,-0.005,343.284,169.078,True,0,1,0,0
-0.779,0.0,-0.777,compass,-156.489,1.455,-139.503,-1.193,-0.224,-10.26,2.568,2.364730781751503,-56.096,343.412,0.087,23588.934,False,-0.06759827570356018,0.048796486639852046,0.47,-0.051,-0.395,-9.875,-0.005,343.412,169.078,True,0,1,0,0
-0.798,0.112,-0.777,compass,-155.85,1.455,-142.145,-1.17,-0.224,-10.26,2.667,2.3951182793182983,-55.968,343.54,0.07,23589.034,False,-0.05581797805263712,0.03916727771862183,0.47,-0.051,-0.395,-9.875,-0.005,343.54,169.078,True,0,1,0,0
-0.823,0.112,-0.779,compass,-155.85,1.455,-144.377,-1.148,-0.224,-10.26,2.667,2.418687496513558,-55.832,343.676,0.07,23589.134,False,-0.05722971721590622,0.03930424402283223,0.47,-0.051,-0.395,-9.875,-0.005,343.676,169.078,True,0,1,0,0
-0.872,0.112,-0.781,compass,-120.555,1.567,-144.655,-1.118,-0.112,-10.26,2.747,2.4683249238181877,-55.563,343.945,0.025,23589.234,False,-0.020656321969206144,0.01429139724255828,0.47,-0.051,-0.395,-9.875,-0.005,343.945,169.078,True,0,1,0,0
-0.896,0.112,-0.785,compass,-121.232,1.679,-143.664,-1.103,-0.224,-10.26,2.747,2.495930115408423,-55.421,344.087,0.025,23589.334,False,-0.020363051058158572,0.014343067667890931,0.47,-0.051,-0.434,-9.914,-0.005,344.087,169.078,True,0,1,0,0
-0.92,0.0,-0.789,compass,-121.657,1.567,-141.819,-1.088,-0.112,-10.22,2.787,2.538447505871866,-55.265,344.243,0.07,23589.434,False,-0.05493091232283785,0.03987600524924933,0.47,-0.051,-0.395,-9.875,0.009,344.243,169.078,True,0,1,0,0
-0.93,0.224,-0.793,compass,-118.208,1.567,-139.491,-1.071,0.112,-10.22,2.787,2.582249526688942,-55.116,344.392,0.07,23589.534,False,-0.053050319388083904,0.04002532547200371,0.47,-0.051,-0.395,-9.914,0.009,344.392,169.078,True,0,1,0,0
-0.94,0.224,-0.797,compass,-119.416,1.343,-137.279,-1.061,-0.112,-10.22,2.747,2.5928122942192027,-54.974,344.534,0.006,23589.634,False,-0.004266148874218203,0.003347274086052203,0.47,-0.012,-0.395,-9.918,0.008,344.534,169.078,True,0,1,0,0
-0.941,0.112,-0.802,compass,-120.554,1.455,-135.119,-1.057,-0.112,-10.22,2.747,2.607763735517533,-54.839,344.669,0.006,23589.734,False,-0.004109893533419751,0.0033584868348799112,0.47,-0.051,-0.355,-9.879,0.008,344.669,169.078,True,0,1,0,0
-0.943,0.112,-0.806,compass,-119.098,1.455,-132.829,-1.046,0.112,-10.22,2.488,2.5806925735988515,-54.698,344.81,0.051,23589.834,False,-0.03413114124531145,0.029208328495676936,0.48,-0.051,-0.395,-9.875,0.008,344.81,169.078,True,0,1,0,0
-0.945,-0.112,-0.81,compass,-122.185,1.679,-130.872,-1.041,0.0,-10.2,2.488,2.561805827759528,-54.564,344.944,0.051,23589.934,False,-0.032819965723536994,0.02930517168816029,0.48,-0.051,-0.395,-9.875,0.014,344.944,169.078,True,0,1,0,0
-0.946,-0.112,-0.814,compass,-121.479,1.79,-129.149,-1.037,0.112,-10.2,2.408,2.540397577974172,-54.437,345.071,0.056,23590.035,False,-0.035289402979529566,0.0327880903126797,0.48,-0.051,-0.395,-9.875,0.014,345.071,169.078,True,0,1,0,0
-0.933,-0.224,-0.818,compass,-122.655,1.567,-127.735,-1.041,0.112,-10.28,2.408,2.5307973130889674,-54.155,345.353,0.056,23590.135,False,-0.03408951484564956,0.03301319277203065,0.48,-0.051,-0.395,-9.875,-0.027,345.353,169.078,True,0,1,0,0
-0.925,0.0,-0.821,compass,-120.248,1.567,-126.395,-1.05,0.112,-10.28,2.329,2.4909676768104707,-54.007,345.501,0.066,23590.235,False,-0.038726270991754116,0.03884347745572821,0.48,-0.051,-0.355,-9.84,-0.027,345.501,169.078,True,0,1,0,0
-0.911,-0.112,-0.824,compass,-121.495,1.679,-125.279,-1.058,0.112,-10.28,2.329,2.4667907676225527,-53.852,345.656,0.066,23590.335,False,-0.037670798008514195,0.03898794588886943,0.48,-0.051,-0.395,-9.836,-0.027,345.656,169.078,True,0,1,0,0
-0.897,-0.224,-0.826,compass,-113.523,1.567,-124.157,-1.066,0.224,-10.22,2.369,2.4777278325301118,-53.705,345.803,0.025,23590.435,False,-0.013994962057608168,0.014959507751422386,0.48,-0.051,-0.395,-9.875,-0.005,345.803,169.078,True,0,1,0,0
-0.876,-0.112,-0.827,compass,-112.249,1.79,-122.87,-1.074,0.224,-10.22,2.369,2.4812091498787656,-53.543,345.965,0.025,23590.535,False,-0.013515532178427938,0.015016960805122688,0.48,-0.09,-0.395,-9.84,-0.005,345.965,169.078,True,0,1,0,0
-0.854,0.112,-0.828,compass,-109.334,1.455,-121.27,-1.081,0.336,-10.24,2.528,2.5192886247844135,-53.396,346.112,0.058,23590.635,False,-0.029803745630308427,0.03477548372787187,0.48,-0.051,-0.434,-9.875,-0.014,346.112,169.078,True,0,1,0,0
-0.832,-0.112,-0.828,compass,-112.234,1.455,-119.8,-1.095,0.224,-10.24,2.528,2.546159658055546,-53.256,346.252,0.058,23590.735,False,-0.028516013075842117,0.03488972860142519,0.49,-0.051,-0.434,-9.875,-0.014,346.252,169.078,True,0,1,0,0
-0.805,0.112,-0.828,compass,-110.233,1.455,-118.193,-1.095,0.112,-10.24,2.528,2.542256556824476,-53.108,346.4,0.097,23590.835,False,-0.045132507668007325,0.05834933224878635,0.49,-0.051,-0.434,-9.875,-0.014,346.4,169.078,True,0,1,0,0
-0.792,0.224,-0.827,compass,-108.949,1.343,-116.663,-1.096,0.112,-10.26,2.528,2.535113702240775,-52.96,346.548,0.097,23590.935,False,-0.04281760962696421,0.05855010374186028,0.49,-0.051,-0.469,-9.914,-0.019,346.548,169.078,True,0,1,0,0
-0.766,0.0,-0.825,compass,-111.543,1.455,-115.702,-1.086,0.112,-10.26,2.787,2.6003722127447055,-52.651,346.857,0.033,23591.035,False,-0.013992913283642022,0.020049294580369522,0.49,-0.051,-0.469,-9.914,-0.019,346.857,169.078,True,0,1,0,0
-0.748,0.224,-0.822,compass,-110.084,1.567,-114.807,-1.073,-0.112,-10.17,2.787,2.6168616169071237,-52.475,347.033,0.033,23591.135,False,-0.013526768770755364,0.020129954243202276,0.49,-0.09,-0.469,-9.918,0.028,347.033,169.078,True,0,1,0,0
-0.742,0.0,-0.82,compass,-113.947,1.343,-113.868,-1.069,-0.448,-10.17,2.906,2.6235327928914183,-52.298,347.21,0.105,23591.235,False,-0.04139897727218765,0.06419784579225328,0.49,-0.09,-0.434,-9.918,0.028,347.21,169.078,True,0,1,0,0
-0.729,0.112,-0.817,compass,-111.322,1.455,-113.094,-1.072,-0.112,-10.26,2.906,2.660611792840316,-52.109,347.399,0.105,23591.335,False,-0.04008180661074289,0.06447149499296073,0.49,-0.051,-0.469,-9.914,-0.02,347.399,169.078,True,0,1,0,0
-0.722,-0.112,-0.814,compass,-114.133,1.455,-112.902,-1.075,-0.224,-10.26,2.826,2.6756548087977325,-51.934,347.574,0.027,23591.435,False,-0.010309544602700935,0.016780722671735977,0.49,-0.051,-0.434,-9.914,-0.02,347.574,169.078,True,0,1,0,0
-0.738,0.0,-0.812,compass,-113.473,1.455,-112.784,-1.073,-0.336,-10.22,2.826,2.6697459898170526,-51.771,347.737,0.027,23591.535,False,-0.010263959155122983,0.01684142758469328,0.49,-0.051,-0.434,-9.914,0.001,347.737,169.078,True,0,1,0,0
-0.76,0.112,-0.811,compass,-112.285,1.567,-111.981,-1.071,-0.336,-10.22,2.608,2.601958739749448,-51.609,347.899,0.161,23591.636,False,-0.058781095914630786,0.10020324752959649,0.49,-0.051,-0.434,-9.914,0.001,347.899,169.078,True,0,1,0,0
-0.782,-0.112,-0.81,compass,-116.144,1.79,-111.501,-1.07,-0.56,-10.22,2.608,2.535161313205726,-51.447,348.061,0.161,23591.736,False,-0.057541940930273344,0.1005617148537733,0.49,-0.051,-0.395,-9.914,0.001,348.061,169.078,True,0,1,0,0
-0.833,-0.112,-0.81,compass,-115.69,1.231,-111.6,-1.068,-0.448,-10.17,2.488,2.474087194826063,-51.122,348.386,0.087,23591.836,False,-0.03116909860700853,0.054908020213270334,0.49,-0.051,-0.395,-9.914,0.018,348.386,169.078,True,0,1,0,0
-0.855,0.0,-0.812,compass,-113.099,1.567,-111.651,-1.066,-0.224,-10.17,2.488,2.4452738189455725,-50.988,348.52,0.087,23591.936,False,-0.031320318044597735,0.05506717940743356,0.49,-0.051,-0.316,-9.918,0.018,348.52,169.078,True,0,1,0,0
-0.892,0.112,-0.814,compass,-112.956,1.119,-111.351,-1.058,-0.448,-10.17,2.329,2.3549056449879657,-50.868,348.64,0.128,23592.036,False,-0.04542296471744753,0.0809733952148648,0.49,-0.051,-0.395,-9.875,0.018,348.64,169.078,True,0,1,0,0
-0.928,0.112,-0.818,compass,-112.321,1.231,-111.074,-1.049,-0.336,-10.17,2.329,2.2968087926140623,-50.769,348.739,0.128,23592.136,False,-0.044963238909327935,0.0811462322233213,0.49,-0.051,-0.395,-9.914,0.016,348.739,169.078,True,0,1,0,0
-0.957,0.224,-0.822,compass,-110.196,1.231,-110.433,-1.047,-0.224,-10.17,2.289,2.24735739653902,-50.67,348.838,0.175,23592.236,False,-0.05961047156998688,0.11088710362310264,0.49,-0.051,-0.355,-9.918,0.016,348.838,169.078,True,0,1,0,0
-0.986,0.112,-0.827,compass,-111.713,1.343,-109.899,-1.037,-0.224,-10.28,2.289,2.2136187257872852,-50.578,348.93,0.175,23592.336,False,-0.05818983271825978,0.1111054502818929,0.49,-0.051,-0.395,-9.875,-0.041,348.93,169.078,True,0,1,0,0
-1.008,0.112,-0.832,compass,-111.122,1.231,-109.716,-1.041,-0.112,-10.28,2.269,2.1989766780200513,-50.507,349.001,0.124,23592.437,False,-0.041105557418234684,0.07912661828208419,0.49,-0.09,-0.355,-9.875,-0.041,349.001,169.078,True,0,1,0,0
-1.022,0.112,-0.838,compass,-111.122,1.119,-109.523,-1.036,-0.112,-10.28,2.269,2.1876324304249697,-50.45,349.058,0.124,23592.537,False,-0.040810886784528766,0.07922156988570772,0.49,-0.09,-0.355,-9.875,-0.041,349.058,169.078,True,0,1,0,0
-1.037,0.112,-0.844,compass,-111.715,1.343,-109.542,-1.032,-0.224,-10.2,2.309,2.177493612256524,-50.387,349.121,0.091,23592.637,False,-0.030048520660918926,0.05825574629502392,0.52,-0.09,-0.395,-9.879,-0.01,349.121,169.078,True,0,1,0,0
-1.05,-0.112,-0.85,compass,-112.805,1.455,-109.647,-1.041,0.112,-10.2,2.309,2.2166884940656213,-50.345,349.163,0.091,23592.737,False,-0.0302705575298014,0.05830791844657244,0.52,-0.09,-0.395,-9.84,-0.01,349.163,169.078,True,0,1,0,0
-1.056,-0.112,-0.856,compass,-115.297,1.343,-109.841,-1.064,-0.336,-10.2,2.309,2.198227981994254,-50.261,349.247,0.091,23592.837,False,-0.030562016347335498,0.058410840440978225,0.52,-0.051,-0.395,-9.836,-0.01,349.247,169.078,True,0,1,0,0
-1.048,0.0,-0.862,compass,-110.924,1.343,-109.954,-1.078,0.224,-10.32,2.309,2.2401399653325376,-50.205,349.303,0.091,23592.937,False,-0.030764795841015043,0.05847945810924488,0.52,-0.012,-0.355,-9.836,-0.049,349.303,169.078,True,0,1,0,0
-1.04,-0.112,-0.867,compass,-103.126,1.343,-109.64,-1.093,0.112,-10.32,2.309,2.2653950928159645,-50.156,349.352,0.08,23593.037,False,-0.026456071249451308,0.0510663643091399,0.52,-0.012,-0.355,-9.836,-0.049,349.352,169.078,True,0,1,0,0
-1.033,0.0,-0.872,compass,-101.695,1.119,-108.971,-1.093,0.112,-10.32,2.309,2.282769127434414,-50.121,349.387,0.08,23593.137,False,-0.02561402063670816,0.051103435769088226,0.52,-0.012,-0.395,-9.879,-0.049,349.387,169.078,True,0,1,0,0
-1.019,-0.112,-0.877,compass,-103.126,0.783,-108.061,-1.092,0.112,-10.24,2.309,2.2980406824864024,-50.087,349.421,0.105,23593.237,False,-0.032192669354008434,0.06735563117071112,0.52,-0.012,-0.395,-9.879,-0.017,349.421,169.078,True,0,1,0,0
-0.999,-0.112,-0.88,compass,-102.494,0.895,-107.144,-1.084,0.336,-10.24,2.309,2.3363791353024714,-50.051,349.457,0.105,23593.337,False,-0.030618773906517075,0.06740524525918623,0.52,-0.012,-0.355,-9.875,-0.017,349.457,169.078,True,0,1,0,0
-0.985,0.0,-0.883,compass,-101.687,0.783,-106.424,-1.076,0.112,-10.26,2.249,2.3271681029769216,-50.01,349.498,0.056,23593.437,False,-0.01577213191247915,0.03623058268934981,0.53,-0.012,-0.355,-9.875,-0.026,349.498,169.078,True,0,1,0,0
-0.966,0.112,-0.886,compass,-99.693,0.56,-105.606,-1.061,0.336,-10.26,2.249,2.344005571030938,-49.988,349.52,0.056,23593.537,False,-0.015019493745742369,0.03624681293911626,0.53,-0.051,-0.355,-9.879,-0.026,349.52,169.078,True,0,1,0,0
-0.946,0.0,-0.888,compass,-101.106,0.671,-104.69,-1.045,0.336,-10.26,2.249,2.358421177373341,-49.996,349.512,0.084,23593.637,False,-0.02103548775283553,0.053736783715128564,0.53,-0.051,-0.395,-9.914,-0.026,349.512,169.078,True,0,1,0,0
-0.908,0.224,-0.888,compass,-98.481,0.448,-103.723,-1.007,0.224,-10.24,2.249,2.3522862208031476,-49.967,349.541,0.084,23593.737,False,-0.019670550335421866,0.05376881896946079,0.53,-0.051,-0.395,-9.914,-0.016,349.541,169.078,True,0,1,0,0
-0.881,0.0,-0.888,compass,-101.091,0.671,-102.988,-0.998,0.336,-10.24,2.209,2.357082189058731,-49.939,349.569,0.07,23593.837,False,-0.01559846941660304,0.04504159864809957,0.53,-0.051,-0.395,-9.875,-0.016,349.569,169.078,True,0,1,0,0
-0.854,0.224,-0.887,compass,-98.205,0.224,-102.225,-0.982,0.336,-10.24,2.209,2.356555250496773,-49.905,349.603,0.07,23593.937,False,-0.014685738922454589,0.04507408474374242,0.53,-0.051,-0.395,-9.875,-0.016,349.603,169.078,True,0,1,0,0
-0.828,0.112,-0.885,compass,-99.634,0.56,-101.533,-0.966,0.336,-10.28,2.19,2.3537808821755295,-49.876,349.632,0.074,23594.037,False,-0.01463081202556428,0.04760624120966772,0.53,-0.051,-0.395,-9.875,-0.028,349.632,169.078,True,0,1,0,0
-0.801,0.224,-0.883,compass,-98.173,0.224,-100.861,-0.95,0.336,-10.28,2.19,2.3497089155402353,-49.869,349.639,0.074,23594.137,False,-0.013804690801874624,0.04761306039247412,0.53,-0.051,-0.395,-9.914,-0.028,349.639,169.078,True,0,1,0,0
-0.767,0.112,-0.879,compass,-99.394,0.336,-100.176,-0.933,0.448,-10.24,2.19,2.3609864957106335,-49.869,349.639,0.099,23594.237,False,-0.017394542083549278,0.06390157266891486,0.53,-0.051,-0.434,-9.914,-0.005,349.639,169.078,True,0,1,0,0
-0.747,0.112,-0.875,compass,-99.394,0.224,-99.608,-0.924,0.448,-10.24,2.19,2.3698431013960466,-49.884,349.624,0.099,23594.337,False,-0.016472479610249113,0.06388217081507476,0.53,-0.051,-0.434,-9.875,-0.005,349.624,169.078,True,0,1,0,0
-0.719,0.0,-0.871,compass,-100.768,0.224,-99.604,-0.928,0.448,-10.24,2.11,2.364264364231847,-49.905,349.603,0.021,23594.437,False,-0.003561384928053874,0.013772400505979896,0.53,-0.012,-0.434,-9.918,-0.005,349.603,169.078,True,0,1,0,0
-0.691,-0.112,-0.865,compass,-102.537,0.112,-99.717,-0.924,0.336,-10.22,2.11,2.3494830875240877,-49.941,349.567,0.021,23594.537,False,-0.003614596252252449,0.013762177320336381,0.53,-0.051,-0.469,-9.914,0.002,349.567,169.078,True,0,1,0,0
-0.634,0.112,-0.858,compass,-99.655,-0.112,-98.681,-0.932,0.336,-10.22,2.209,2.3485458111059643,-49.998,349.51,0.226,23594.638,False,-0.03425203989837046,0.1449574955440192,0.53,-0.012,-0.434,-9.918,0.002,349.51,169.078,True,0,1,0,0
-0.612,-0.224,-0.851,compass,-104.652,-0.0,-98.037,-0.936,0.112,-10.26,2.209,2.329415174275752,-50.02,349.488,0.226,23594.738,False,-0.03176325798033433,0.14489130196283706,0.53,-0.051,-0.469,-9.914,-0.018,349.488,169.078,True,0,1,0,0
-0.59,-0.224,-0.843,compass,-104.629,-0.224,-97.759,-0.948,0.112,-10.26,2.229,2.3185026733023055,-50.041,349.467,0.216,23594.838,False,-0.029368900190841304,0.13858399207637037,0.53,-0.051,-0.469,-9.914,-0.018,349.467,169.078,True,0,1,0,0
-0.574,-0.224,-0.835,compass,-104.629,-0.112,-97.666,-0.967,0.112,-10.26,2.229,2.309551193588499,-50.071,349.437,0.216,23594.938,False,-0.029057536941381603,0.1384997628129268,0.53,-0.051,-0.434,-9.914,-0.018,349.437,169.078,True,0,1,0,0
-0.558,-0.112,-0.827,compass,-110.369,-0.224,-98.51,-0.986,0.224,-10.22,2.289,2.3285909301005665,-50.106,349.402,0.122,23595.038,False,-0.018301547586370145,0.07854977808640129,0.53,-0.09,-0.469,-9.918,-0.003,349.402,169.078,True,0,1,0,0
-0.556,0.0,-0.819,compass,-109.495,-0.448,-99.399,-1.006,0.112,-10.22,2.289,2.3258512756242427,-50.149,349.359,0.122,23595.138,False,-0.020210135203776052,0.07847934952831227,0.53,-0.09,-0.469,-9.918,-0.003,349.359,169.078,True,0,1,0,0
-0.554,-0.112,-0.811,compass,-111.947,-0.224,-100.163,-1.025,-0.112,-10.22,2.329,2.3093784309155287,-50.205,349.303,0.165,23595.238,False,-0.029499872002457805,0.10576034293415598,0.53,-0.09,-0.434,-9.879,-0.003,349.303,169.078,True,0,1,0,0
-0.565,0.0,-0.796,compass,-110.488,-0.336,-102.138,-1.052,-0.112,-10.26,2.508,2.3229551453210227,-50.29,349.218,0.107,23595.438,False,-0.022724948949615877,0.06831071373393476,0.54,-0.09,-0.469,-9.879,-0.016,349.218,169.078,True,0,1,0,0
-0.565,0.0,-0.796,compass,-110.488,-0.336,-102.138,-1.052,-0.112,-10.26,2.508,2.3229551453210227,-50.29,349.218,0.107,23595.438,False,-0.022724948949615877,0.06831071373393476,0.54,-0.09,-0.469,-9.879,-0.016,349.218,169.078,True,0,1,0,0
-0.606,0.112,-0.784,compass,-109.607,-0.56,-103.86,-1.062,-0.224,-10.26,2.389,2.309187523040951,-50.367,349.141,0.132,23595.638,False,-0.031957303190034335,0.08432157979291724,0.54,-0.09,-0.469,-9.879,-0.015,349.141,169.078,True,0,1,0,0
-0.606,0.112,-0.784,compass,-109.607,-0.56,-103.86,-1.062,-0.224,-10.26,2.389,2.309187523040951,-50.367,349.141,0.132,23595.638,False,-0.031957303190034335,0.08432157979291724,0.54,-0.09,-0.469,-9.879,-0.015,349.141,169.078,True,0,1,0,0
-0.641,0.224,-0.775,compass,-108.088,-0.448,-104.314,-1.058,-0.224,-10.24,2.329,2.240353974273993,-50.366,349.142,0.204,23595.838,False,-0.050739196363671954,0.1302041655952383,0.54,-0.051,-0.469,-9.875,-0.006,349.142,169.078,True,0,1,0,0
-0.663,0.224,-0.772,compass,-108.088,-0.56,-104.314,-1.046,-0.224,-10.24,2.329,2.240353974273993,-50.366,349.142,0.204,23595.838,False,-0.050739196363671954,0.1302041655952383,0.54,-0.051,-0.469,-9.875,-0.006,349.129,169.078,True,0,1,0,0
-0.678,0.224,-0.769,compass,-108.499,-0.671,-104.56,-1.033,-0.336,-10.22,2.19,2.154199330799126,-50.4,349.108,0.109,23596.038,False,-0.02750156544121083,0.06939193621881846,0.54,-0.051,-0.434,-9.914,0.004,349.108,169.078,True,0,1,0,0
-0.708,0.224,-0.767,compass,-109.075,-0.783,-104.833,-1.021,-0.448,-10.22,2.19,2.095563617919562,-50.4,349.108,0.109,23596.038,False,-0.02750156544121083,0.06939193621881846,0.54,-0.051,-0.434,-9.914,0.004,349.087,169.078,True,0,1,0,0
-0.73,0.112,-0.766,compass,-110.77,-0.895,-104.909,-1.001,-0.448,-10.28,2.19,2.0520245741846934,-50.455,349.053,0.146,23596.238,False,-0.037717026754431136,0.09282921554212255,0.54,-0.051,-0.434,-9.875,-0.026,349.053,169.078,True,0,1,0,0
-0.759,-0.112,-0.766,compass,-114.047,-0.671,-105.222,-0.989,-0.448,-10.28,2.19,2.02769017439502,-50.496,349.012,0.146,23596.338,False,-0.03852099427971224,0.09274724596925106,0.55,-0.09,-0.395,-9.918,-0.026,349.012,169.078,True,0,1,0,0
-0.815,0.0,-0.767,compass,-111.719,-0.783,-105.607,-0.993,-0.336,-10.28,2.249,2.029155893441902,-50.587,348.921,0.14,23596.438,False,-0.038002037885793455,0.08886676400589072,0.55,-0.09,-0.434,-9.918,-0.026,348.921,169.078,True,0,1,0,0
-0.842,-0.112,-0.77,compass,-112.016,-0.783,-106.024,-1.001,-0.112,-10.24,2.249,2.0598891169892237,-50.635,348.873,0.14,23596.539,False,-0.03899524139236605,0.08877516974201542,0.55,-0.09,-0.395,-9.879,-0.01,348.873,169.078,True,0,1,0,0
-0.861,0.112,-0.772,compass,-110.141,-0.895,-106.393,-1.016,-0.336,-10.24,2.329,2.068247941613395,-50.692,348.816,0.121,23596.639,False,-0.03434370085576644,0.07635353810211941,0.55,-0.09,-0.355,-9.875,-0.01,348.816,169.078,True,0,1,0,0
-0.88,0.0,-0.776,compass,-111.076,-0.783,-106.719,-1.038,-0.224,-10.24,2.329,2.0919511931204346,-50.748,348.76,0.121,23596.739,False,-0.03501684592570682,0.07626147714271406,0.55,-0.09,-0.395,-9.879,-0.01,348.76,169.078,True,0,1,0,0
-0.899,-0.112,-0.779,compass,-98.704,-0.783,-105.937,-1.053,-0.112,-10.24,2.329,2.1208575878339215,-50.812,348.696,0.204,23596.839,False,-0.056672007838374464,0.12897767723562337,0.55,-0.129,-0.395,-9.879,-0.009,348.696,169.078,True,0,1,0,0
-0.91,-0.112,-0.783,compass,-98.265,-0.56,-104.895,-1.081,0.112,-10.24,2.329,2.1714596089822207,-50.875,348.633,0.204,23596.939,False,-0.053130301066068426,0.12880162224659883,0.55,-0.129,-0.395,-9.879,-0.009,348.633,169.078,True,0,1,0,0
-0.916,-0.112,-0.787,compass,-98.504,-0.671,-104.421,-1.094,0.0,-10.24,2.289,2.1959131852791147,-50.953,348.555,0.066,23597.039,False,-0.016695591899292792,0.04163784849193851,0.55,-0.129,-0.395,-9.879,-0.009,348.555,169.078,True,0,1,0,0
-0.92,-0.224,-0.791,compass,-99.997,-0.783,-103.84,-1.12,0.0,-10.26,2.289,2.2173976579106034,-51.044,348.464,0.066,23597.139,False,-0.016075319188238842,0.04155568211656386,0.55,-0.129,-0.355,-9.875,-0.015,348.464,169.078,True,0,1,0,0
-0.909,0.112,-0.795,compass,-95.21,-0.783,-102.557,-1.146,0.224,-10.26,2.289,2.2530989739056015,-51.136,348.372,0.152,23597.239,False,-0.033627237601231354,0.09514448302888168,0.55,-0.129,-0.434,-9.879,-0.015,348.372,169.078,True,0,1,0,0
-0.875,-0.112,-0.797,compass,-98.079,-0.783,-101.39,-1.195,0.224,-10.2,2.289,2.2845847805575734,-51.321,348.187,0.152,23597.339,False,-0.030834475168317395,0.09476355306846251,0.55,-0.129,-0.395,-9.879,0.016,348.187,169.078,True,0,1,0,0
-0.859,-0.112,-0.799,compass,-97.882,-0.895,-100.917,-1.213,0.336,-10.2,2.289,2.325735761512672,-51.399,348.109,0.041,23597.439,False,-0.007961238525768839,0.025469912502052543,0.55,-0.129,-0.434,-9.918,0.016,348.109,169.078,True,0,1,0,0
-0.859,-0.112,-0.799,compass,-97.882,-0.895,-100.917,-1.213,0.336,-10.2,2.289,2.325735761512672,-51.399,348.109,0.041,23597.439,False,-0.007961238525768839,0.025469912502052543,0.55,-0.129,-0.434,-9.918,0.016,348.109,169.078,True,0,1,0,0
-0.8,0.0,-0.8,compass,-82.401,-1.119,-99.149,-1.232,0.224,-10.28,2.289,2.368436883480087,-51.513,347.995,0.054,23597.639,False,-0.008916813750618426,0.03387504536128369,0.55,-0.129,-0.434,-9.879,-0.011,347.995,169.078,True,0,1,0,0
-0.8,0.0,-0.8,compass,-82.401,-1.119,-99.149,-1.232,0.224,-10.28,2.289,2.368436883480087,-51.513,347.995,0.054,23597.639,False,-0.008916813750618426,0.03387504536128369,0.55,-0.129,-0.434,-9.879,-0.011,347.995,169.078,True,0,1,0,0
-0.733,-0.224,-0.797,compass,-94.756,-0.671,-96.087,-1.258,0.224,-10.26,2.309,2.402088361267641,-51.621,347.887,0.078,23597.84,False,-0.00857362832532671,0.048278625408561066,0.55,-0.129,-0.469,-9.918,-0.001,347.887,169.078,True,0,1,0,0
-0.71,0.0,-0.795,compass,-91.854,-0.783,-94.978,-1.269,0.336,-10.26,2.309,2.4214965169143574,-51.671,347.837,0.078,23597.94,False,-0.007056905485206511,0.04822535465417204,0.55,-0.09,-0.434,-9.918,-0.001,347.837,169.078,True,0,1,0,0
-0.673,-0.112,-0.791,compass,-93.517,-0.671,-94.141,-1.285,0.112,-10.26,2.15,2.3755407107303457,-51.707,347.801,0.07,23598.04,False,-0.005305858251722425,0.043367811776745535,0.55,-0.09,-0.469,-9.879,-0.001,347.801,169.078,True,0,1,0,0
-0.673,-0.112,-0.791,compass,-93.517,-0.671,-94.141,-1.285,0.112,-10.26,2.15,2.3755407107303457,-51.707,347.801,0.07,23598.04,False,-0.005305858251722425,0.043367811776745535,0.55,-0.09,-0.469,-9.879,-0.001,347.801,169.078,True,0,1,0,0
-0.607,0.0,-0.781,compass,-59.115,-0.783,-91.583,-1.304,-0.112,-10.22,2.03,2.2609167102914434,-51.821,347.687,0.031,23598.24,False,-0.0009677182549793066,0.019226139017750856,0.55,-0.09,-0.469,-9.879,0.013,347.687,169.078,True,0,1,0,0
-0.593,0.112,-0.775,compass,-59.392,-0.895,-88.824,-1.302,0.112,-10.2,2.03,2.2299466723448127,-51.856,347.652,0.031,23598.34,False,0.0005387942805774069,0.01921089015046211,0.55,-0.09,-0.469,-9.879,0.022,347.652,169.078,True,0,1,0,0
-0.585,-0.112,-0.769,compass,-60.649,-0.783,-85.599,-1.3,-0.112,-10.2,2.03,2.1711627284310615,-51.906,347.602,0.052,23598.44,False,0.00386137136261816,0.03238268326579393,0.55,-0.09,-0.469,-9.879,0.022,347.602,169.078,True,0,1,0,0
-0.585,0.112,-0.764,compass,-59.392,-0.783,-82.33,-1.298,0.112,-10.24,2.03,2.1624852557621663,-51.976,347.532,0.052,23598.54,False,0.006826762327533329,0.03233199199288483,0.55,-0.09,-0.434,-9.879,-0.001,347.532,169.078,True,0,1,0,0
-0.585,-0.224,-0.758,compass,153.44,-0.671,-66.959,-1.296,-0.112,-10.24,0.0,1.743666067626544,-52.053,347.455,0.126,23598.64,False,-0.10517091480015192,0.07770203866012135,0.55,-0.09,-0.434,-9.879,-0.001,347.455,169.078,True,0,1,0,0
-0.577,0.0,-0.753,compass,90.0,-0.783,-52.326,-1.294,-0.112,-10.24,0.0,1.4013574283011985,-52.131,347.377,0.126,23598.74,False,-0.12288245147288784,0.07756748143583397,0.55,-0.09,-0.469,-9.918,-0.001,347.377,169.078,True,0,1,0,0
-0.585,-0.112,-0.748,compass,135.006,-0.56,-38.856,-1.286,-0.112,-10.24,0.0,1.1488738952201312,-52.222,347.286,0.177,23598.84,False,-0.11791102880442379,0.10837101624348632,0.55,-0.051,-0.469,-9.914,-0.001,347.286,169.078,True,0,1,0,0
-0.591,0.0,-0.743,compass,-0.0,-0.671,-30.728,-1.284,0.0,-10.24,0.0,0.9351377152612244,-52.32,347.188,0.177,23598.941,False,-0.037760128912818686,0.10813177681133859,0.55,-0.09,-0.434,-9.918,-0.001,347.188,169.078,True,0,1,0,0
-0.605,0.112,-0.739,compass,44.994,-0.671,-21.662,-1.284,-0.112,-10.24,0.0,0.774544588209937,-52.412,347.096,0.126,23599.041,False,0.017453226381626708,0.0770768300594232,0.55,-0.051,-0.469,-9.914,-0.001,347.096,169.078,True,0,1,0,0
-0.627,-0.112,-0.736,compass,135.005,-0.671,-12.614,-1.261,-0.112,-10.15,0.0,0.6459208828117582,-52.594,346.914,0.126,23599.141,False,0.047012941919505016,0.07675800406727362,0.52,-0.09,-0.434,-9.918,0.029,346.914,169.078,True,0,1,0,0
-0.649,0.0,-0.733,compass,90.0,-0.671,0.818,-1.248,-0.224,-10.15,0.0,0.5346044452135347,-52.664,346.844,0.033,23599.241,False,0.014604668239485084,0.02004325102684944,0.52,-0.09,-0.434,-9.918,0.029,346.844,169.078,True,0,1,0,0
-0.671,0.224,-0.731,compass,44.995,-0.671,11.325,-1.235,-0.224,-10.15,0.0,0.4589926481980077,-52.727,346.781,0.033,23599.341,False,0.016329887464033747,0.020014488781378376,0.52,-0.09,-0.434,-9.918,0.029,346.781,169.078,True,0,1,0,0
-0.694,0.112,-0.73,compass,-44.996,-0.671,12.401,-1.215,0.112,-10.24,0.0,0.39380643664922155,-52.796,346.712,0.086,23599.441,False,0.054268741211009684,0.05171963154242372,0.52,-0.09,-0.434,-9.918,-0.004,346.712,169.078,True,0,1,0,0
-0.73,0.112,-0.73,compass,71.563,-0.783,16.112,-1.204,-0.336,-10.24,0.0,0.36427926429467405,-52.872,346.636,0.086,23599.541,False,0.05956021371257798,0.05162874634581056,0.52,-0.09,-0.434,-9.918,-0.004,346.636,169.078,True,0,1,0,0
-0.759,0.224,-0.731,compass,44.996,-0.448,21.144,-1.191,-0.224,-10.2,0.0,0.3250554941303019,-52.963,346.545,0.019,23599.641,False,0.013916420428757776,0.011709339979633691,0.52,-0.09,-0.434,-9.918,0.016,346.545,169.078,True,0,1,0,0
-0.797,0.224,-0.733,compass,63.432,-1.007,26.326,-1.166,-0.448,-10.2,0.0,0.3161362307516706,-53.039,346.469,0.019,23599.741,False,0.013908433265318121,0.01168872212670683,0.52,-0.09,-0.434,-9.879,0.016,346.469,169.078,True,0,1,0,0
-0.82,0.224,-0.736,compass,44.997,-0.895,30.375,-1.146,-0.224,-10.2,0.0,0.2858183586003695,-53.123,346.385,0.01,23599.841,False,0.006951122250887559,0.0058329379463903175,0.52,-0.051,-0.434,-9.875,0.016,346.385,169.078,True,0,1,0,0
-0.843,0.224,-0.739,compass,63.433,-0.56,34.492,-1.126,-0.448,-10.26,0.0,0.2840083360028502,-53.207,346.301,0.01,23599.941,False,0.006833903934081441,0.005821613852815617,0.52,-0.051,-0.395,-9.875,-0.006,346.301,169.078,True,0,1,0,0
-0.896,0.112,-0.744,compass,71.564,-0.671,35.128,-1.087,-0.336,-10.26,0.0,0.2770787173288483,-53.339,346.169,0.091,23600.041,False,0.06630197739172664,0.05455444198465065,0.52,-0.051,-0.395,-9.875,-0.006,346.169,169.078,True,0,1,0,0
-0.926,0.112,-0.749,compass,63.434,-0.671,34.773,-1.069,-0.224,-10.22,0.0,0.2596851007512161,-53.394,346.114,0.091,23600.141,False,0.06870183737923972,0.05448334211048552,0.48,-0.051,-0.395,-9.875,0.015,346.114,169.078,True,0,1,0,0
-0.947,-0.112,-0.755,compass,108.436,-0.783,38.654,-1.07,-0.336,-10.22,0.0,0.25120464168760237,-53.436,346.072,0.064,23600.241,False,0.04640501508958806,0.03821629945763418,0.48,-0.051,-0.395,-9.875,0.015,346.072,169.078,True,0,1,0,0
-0.968,-0.224,-0.761,compass,135.001,-0.56,44.022,-1.072,-0.224,-10.2,0.0,0.2371924874142762,-53.486,346.022,0.064,23600.341,False,0.04301327054964007,0.03817206969528802,0.48,-0.051,-0.355,-9.879,0.023,346.022,169.078,True,0,1,0,0
-0.988,-0.336,-0.768,compass,146.311,-0.671,53.185,-1.074,-0.224,-10.2,0.0,0.23247708705302964,-53.527,345.981,0.043,23600.441,False,0.0238081056034867,0.025423220584479368,0.48,-0.051,-0.355,-9.879,0.023,345.981,169.078,True,0,1,0,0
-1.0,0.0,-0.775,compass,90.0,-0.671,58.036,-1.088,-0.224,-10.2,0.0,0.20832634209631296,-53.59,345.918,0.043,23600.541,False,0.021177851625515564,0.025385132802576652,0.48,-0.051,-0.355,-9.879,0.023,345.918,169.078,True,0,1,0,0
-1.006,-0.112,-0.782,compass,-135.001,-0.56,50.118,-1.094,0.112,-10.24,0.0,0.19540679231745542,-53.668,345.84,0.078,23600.641,False,0.048048016241505044,0.046069423224463446,0.48,-0.09,-0.355,-9.875,0.008,345.84,169.078,True,0,1,0,0
-1.018,-0.336,-0.789,compass,161.566,-0.448,50.355,-1.108,-0.112,-10.24,0.0,0.20225273954094378,-53.746,345.762,0.078,23600.742,False,0.048262654214175,0.04598486163088863,0.48,-0.09,-0.355,-9.875,0.008,345.762,169.078,True,0,1,0,0
-1.022,-0.112,-0.796,compass,-135.001,-0.671,41.222,-1.128,0.112,-10.24,0.0,0.20054776442760694,-53.845,345.663,0.115,23600.842,False,0.0850430193950527,0.06766739009366969,0.48,-0.09,-0.355,-9.875,0.008,345.663,169.078,True,0,1,0,0
-1.011,0.0,-0.803,compass,-90.0,-0.448,31.762,-1.151,0.224,-10.22,0.0,0.20836418276787766,-54.043,345.465,0.115,23600.942,False,0.09691952292486411,0.06734764802143269,0.48,-0.09,-0.355,-9.875,0.013,345.465,169.078,True,0,1,0,0
-0.996,-0.112,-0.808,compass,-74.565,-0.448,21.295,-1.155,0.224,-10.22,2.03,0.6546249261877878,-54.135,345.373,0.111,23601.042,False,-0.020815790635362225,0.06492011561652916,0.43,-0.051,-0.355,-9.879,0.013,345.373,169.078,True,0,1,0,0
-0.981,0.224,-0.814,compass,-70.485,-0.448,10.627,-1.158,0.336,-10.24,2.03,1.0260156765187611,-54.227,345.281,0.111,23601.142,False,-0.0976212255078532,0.06477537921789023,0.43,-0.051,-0.355,-9.879,0.002,345.281,169.078,True,0,1,0,0
-0.968,0.336,-0.818,compass,-69.572,-0.783,0.23,-1.141,0.448,-10.24,2.03,1.3209736586542289,-54.333,345.175,0.056,23601.242,False,-0.055617242707933334,0.032871438655173016,0.43,-0.051,-0.355,-9.879,0.002,345.175,169.078,True,0,1,0,0
-0.942,0.112,-0.822,compass,-71.961,-0.56,-9.512,-1.121,0.336,-10.24,2.03,1.5286855595197355,-54.432,345.076,0.056,23601.342,False,-0.04493199973009392,0.032792274893369694,0.43,-0.051,-0.395,-9.875,0.002,345.076,169.078,True,0,1,0,0
-0.924,0.112,-0.825,compass,-71.513,-0.448,-18.532,-1.096,0.224,-10.24,2.249,1.719408307501023,-54.516,344.992,0.017,23601.442,False,-0.009429091597894223,0.01015605264051407,0.43,-0.051,-0.434,-9.875,0.002,344.992,169.078,True,0,1,0,0
-0.89,0.112,-0.827,compass,-72.808,-0.56,-26.631,-1.076,0.56,-10.24,2.249,1.9060994033261376,-54.594,344.914,0.017,23601.542,False,-0.005372785144533276,0.01013658828563551,0.43,-0.051,-0.395,-9.875,0.002,344.914,169.078,True,0,1,0,0
-0.856,0.0,-0.828,compass,-104.299,-0.56,-35.175,-1.063,0.224,-10.2,2.448,2.0559064363174753,-54.665,344.843,0.045,23601.642,False,-0.00669799453408631,0.025859731639450743,0.43,-0.051,-0.434,-9.875,0.022,344.843,169.078,True,0,1,0,0
-0.823,-0.112,-0.828,compass,-105.251,-0.671,-43.714,-1.05,0.336,-10.2,2.448,2.1877641953063263,-54.721,344.787,0.045,23601.742,False,-0.0025328473998372128,0.025823648555357872,0.43,-0.051,-0.434,-9.914,0.022,344.787,169.078,True,0,1,0,0
-0.752,-0.112,-0.825,compass,-105.245,-0.448,-51.768,-1.046,0.336,-10.2,2.508,2.3034930377889324,-54.829,344.679,0.06,23601.842,False,-0.000519306484004367,0.03471318055810429,0.43,-0.051,-0.434,-9.914,0.022,344.679,169.078,True,0,1,0,0
-0.723,-0.224,-0.822,compass,-106.482,-0.56,-59.252,-1.048,0.336,-10.26,2.508,2.3961892873418296,-54.871,344.637,0.06,23601.942,False,0.0005313677883410524,0.034676984906590214,0.4,-0.051,-0.434,-9.914,-0.0,344.637,169.078,True,0,1,0,0
-0.694,0.0,-0.818,compass,-104.34,-0.448,-65.88,-1.051,0.224,-10.26,2.608,2.469724999674998,-54.9,344.608,0.07,23602.042,False,0.0006166327110462228,0.040240907410046954,0.4,-0.051,-0.469,-9.875,-0.0,344.608,169.078,True,0,1,0,0
-0.672,-0.112,-0.814,compass,-105.919,-0.448,-71.773,-1.054,0.112,-10.26,2.608,2.516801267548123,-54.929,344.579,0.07,23602.142,False,-0.00026550074629829514,0.04021184078746573,0.4,-0.051,-0.469,-9.914,-0.0,344.579,169.078,True,0,1,0,0
-0.658,-0.112,-0.809,compass,-105.926,-0.56,-77.046,-1.059,0.112,-10.24,2.588,2.5485489463831836,-54.957,344.551,0.047,23602.242,False,-0.0011856989866651042,0.026789192572385535,0.4,-0.09,-0.469,-9.918,0.006,344.551,169.078,True,0,1,0,0
-0.643,0.112,-0.804,compass,-103.082,-0.56,-81.468,-1.063,0.224,-10.24,2.588,2.579314306152836,-55.0,344.508,0.047,23602.342,False,-0.0022325138367575285,0.026760613601257515,0.4,-0.09,-0.469,-9.918,0.006,344.508,169.078,True,0,1,0,0
-0.621,0.112,-0.799,compass,-104.007,-0.448,-85.102,-1.066,-0.112,-10.24,2.548,2.555171421214425,-55.05,344.458,0.062,23602.443,False,-0.004271175755269806,0.035636449125780144,0.4,-0.09,-0.434,-9.879,0.006,344.458,169.078,True,0,1,0,0
-0.612,-0.112,-0.793,compass,-106.313,-0.224,-88.282,-1.077,0.0,-10.24,2.548,2.555869627257099,-55.107,344.401,0.062,23602.543,False,-0.005657977171257719,0.035585885005018636,0.4,-0.09,-0.469,-9.918,0.006,344.401,169.078,True,0,1,0,0
-0.611,0.0,-0.788,compass,-105.361,-0.448,-90.892,-1.083,-0.112,-10.24,2.568,2.5437506220480923,-55.178,344.33,0.078,23602.643,False,-0.008611952970433347,0.04440289536194292,0.4,-0.09,-0.434,-9.918,0.006,344.33,169.078,True,0,1,0,0
-0.615,0.0,-0.783,compass,-105.002,-0.671,-93.086,-1.094,0.0,-10.24,2.568,2.5470305057712013,-55.341,344.167,0.078,23602.743,False,-0.01011936259069096,0.044221728802885364,0.4,-0.09,-0.469,-9.918,0.005,344.167,169.078,True,0,1,0,0
-0.622,0.112,-0.778,compass,-103.295,-0.448,-94.794,-1.093,-0.224,-10.24,2.528,2.511677040781173,-55.44,344.068,0.08,23602.843,False,-0.01150142974705621,0.04521414665883988,0.4,-0.051,-0.469,-9.914,0.005,344.068,169.078,True,0,1,0,0
-0.628,0.112,-0.773,compass,-103.295,-0.448,-96.153,-1.092,-0.224,-10.24,2.528,2.484087809010356,-55.524,343.984,0.08,23602.943,False,-0.012402007394435838,0.045116768724823876,0.38,-0.051,-0.469,-9.875,0.005,343.984,169.078,True,0,1,0,0
-0.635,0.224,-0.769,compass,-101.455,-0.783,-97.32,-1.091,-0.112,-10.24,2.408,2.4474093904351775,-55.608,343.9,0.045,23603.043,False,-0.007432875776852196,0.025255354031002854,0.38,-0.09,-0.434,-9.918,0.005,343.9,169.078,True,0,1,0,0
-0.65,-0.112,-0.766,compass,-106.196,-0.56,-98.406,-1.084,-0.224,-10.24,2.408,2.415277407723006,-55.678,343.83,0.045,23603.143,False,-0.007929038109405383,0.025210340054919157,0.38,-0.051,-0.469,-9.875,0.005,343.83,169.078,True,0,1,0,0
-0.671,0.112,-0.763,compass,-102.934,-0.56,-99.085,-1.079,-0.112,-10.15,2.448,2.404478231485329,-55.742,343.766,0.074,23603.243,False,-0.013519902905169582,0.04158384978618276,0.38,-0.051,-0.434,-9.875,0.049,343.766,169.078,True,0,1,0,0
-0.685,0.112,-0.76,compass,-103.27,-0.671,-99.605,-1.08,-0.224,-10.15,2.448,2.383066028640957,-55.798,343.71,0.074,23603.343,False,-0.013827089509235752,0.041523944505660555,0.38,-0.051,-0.434,-9.875,0.049,343.71,169.078,True,0,1,0,0
-0.714,0.224,-0.759,compass,-102.451,-0.671,-99.643,-1.068,-0.448,-10.15,2.448,2.3364135046606425,-55.861,343.647,0.126,23603.443,False,-0.023276991262590415,0.07091354710119495,0.38,-0.051,-0.434,-9.875,0.049,343.647,169.078,True,0,1,0,0
-0.765,0.112,-0.759,compass,-103.624,-0.56,-99.723,-1.052,-0.336,-10.22,2.448,2.3160253932703405,-55.973,343.535,0.126,23603.543,False,-0.02317509082214446,0.07070961529343954,0.38,-0.051,-0.434,-9.875,0.022,343.535,169.078,True,0,1,0,0
-0.795,0.0,-0.76,compass,-102.925,-0.56,-99.998,-1.041,-0.336,-10.22,2.528,2.3213257463157686,-56.015,343.493,0.089,23603.643,False,-0.0165872780672162,0.049986484332947216,0.38,-0.051,-0.434,-9.875,0.022,343.493,169.078,True,0,1,0,0
-0.818,0.112,-0.762,compass,-101.777,-0.671,-100.13,-1.03,-0.448,-10.24,2.528,2.3096761637863286,-56.035,343.473,0.089,23603.743,False,-0.016581688176732574,0.04996035376474958,0.38,-0.051,-0.395,-9.875,0.009,343.473,169.078,True,0,1,0,0
-0.839,0.0,-0.764,compass,-102.909,-0.56,-100.424,-1.026,-0.336,-10.24,2.568,2.325889521734269,-56.056,343.452,0.058,23603.843,False,-0.011002391748245766,0.032564807335633335,0.37,-0.051,-0.395,-9.875,0.009,343.452,169.078,True,0,1,0,0
-0.868,0.0,-0.767,compass,-102.909,-0.448,-100.656,-1.022,-0.336,-10.32,2.568,2.338543247820561,-56.076,343.432,0.058,23603.944,False,-0.011150800809173711,0.032547691486171884,0.37,-0.051,-0.395,-9.875,-0.031,343.432,169.078,True,0,1,0,0
-0.896,0.0,-0.771,compass,-102.596,-0.336,-100.677,-1.026,-0.224,-10.32,2.548,2.356479443134688,-56.097,343.411,0.087,23604.044,False,-0.016661269151653942,0.048795662044511426,0.37,-0.051,-0.395,-9.875,-0.031,343.411,169.078,True,0,1,0,0
-0.924,0.0,-0.776,compass,-102.596,-0.671,-100.684,-1.023,-0.224,-10.32,2.548,2.3704982257931184,-56.118,343.39,0.087,23604.144,False,-0.016596128817801755,0.048768694006045575,0.37,-0.051,-0.395,-9.875,-0.031,343.39,169.078,True,0,1,0,0
-0.945,-0.112,-0.781,compass,-104.831,-0.448,-100.989,-1.026,-0.448,-10.22,2.448,2.3375964313397564,-56.125,343.383,0.045,23604.244,False,-0.008677992804215513,0.024921903250392192,0.37,-0.051,-0.395,-9.875,0.005,343.383,169.078,True,0,1,0,0
-0.967,0.0,-0.787,compass,-102.621,-0.56,-101.21,-1.021,-0.224,-10.22,2.369,2.334745748966818,-56.152,343.356,0.072,23604.344,False,-0.008829190802838352,0.024904230328757555,0.37,-0.051,-0.395,-9.875,0.005,343.356,169.078,True,0,1,0,0
-0.982,-0.112,-0.792,compass,-105.815,-0.336,-101.367,-1.016,-0.112,-10.22,2.369,2.3308725091798186,-56.194,343.314,0.072,23604.444,False,-0.014388816554723877,0.04001930677028553,0.37,-0.051,-0.395,-9.875,0.005,343.314,169.078,True,0,1,0,0
-0.989,-0.112,-0.804,compass,-105.846,-0.783,-101.672,-1.009,-0.112,-10.2,2.329,2.325827650782236,-56.243,343.265,0.099,23604.644,False,-0.020294080342683075,0.0550909632603927,0.37,-0.051,-0.355,-9.879,0.011,343.265,169.078,True,0,1,0,0
-0.989,-0.112,-0.804,compass,-105.846,-0.783,-101.672,-1.009,-0.112,-10.2,2.329,2.325827650782236,-56.243,343.265,0.099,23604.644,False,-0.020294080342683075,0.0550909632603927,0.37,-0.051,-0.355,-9.879,0.011,343.265,169.078,True,0,1,0,0
-0.99,-0.112,-0.815,compass,-105.013,-0.783,-102.003,-1.0,0.112,-10.22,2.428,2.3630411741840613,-56.335,343.173,0.089,23604.845,False,-0.018826978716914432,0.049570664822847214,0.37,-0.051,-0.355,-9.879,0.004,343.173,169.078,True,0,1,0,0
-0.99,-0.112,-0.815,compass,-105.013,-0.783,-102.003,-1.0,0.112,-10.22,2.428,2.3630411741840613,-56.335,343.173,0.089,23604.845,False,-0.018826978716914432,0.049570664822847214,0.37,-0.051,-0.355,-9.879,0.004,343.173,169.078,True,0,1,0,0
-0.982,-0.112,-0.825,compass,-112.236,-0.56,-102.51,-1.004,0.224,-10.22,2.488,2.448150792949348,-56.448,343.06,0.122,23605.045,False,-0.026885058078245278,0.06768916356601472,0.37,-0.051,-0.395,-9.875,0.004,343.06,169.078,True,0,1,0,0
-0.982,-0.112,-0.825,compass,-112.236,-0.56,-102.51,-1.004,0.224,-10.22,2.488,2.448150792949348,-56.448,343.06,0.122,23605.045,False,-0.026885058078245278,0.06768916356601472,0.37,-0.051,-0.395,-9.875,0.004,343.06,169.078,True,0,1,0,0
-0.954,0.0,-0.833,compass,-111.042,-0.224,-104.082,-0.997,0.224,-10.2,2.608,2.5230262276167945,-56.562,342.946,0.041,23605.245,False,-0.010059713718883178,0.022495261110170743,0.37,-0.051,-0.395,-9.875,0.01,342.946,169.078,True,0,1,0,0
-0.954,0.0,-0.833,compass,-111.042,-0.224,-104.082,-0.997,0.224,-10.2,2.608,2.5230262276167945,-56.562,342.946,0.041,23605.245,False,-0.010059713718883178,0.022495261110170743,0.37,-0.051,-0.395,-9.875,0.01,342.946,169.078,True,0,1,0,0
-0.873,-0.112,-0.837,compass,-111.765,-0.783,-105.876,-1.011,0.336,-10.24,2.707,2.6392904836660507,-56.72,342.788,0.054,23605.445,False,-0.015095722852541313,0.029868450987074083,0.37,-0.051,-0.395,-9.875,-0.011,342.788,169.078,True,0,1,0,0
-0.873,-0.112,-0.837,compass,-111.765,-0.783,-105.876,-1.011,0.336,-10.24,2.707,2.6392904836660507,-56.72,342.788,0.054,23605.445,False,-0.015095722852541313,0.029868450987074083,0.37,-0.051,-0.395,-9.875,-0.011,342.788,169.078,True,0,1,0,0
-0.807,-0.112,-0.836,compass,-111.777,-0.671,-107.296,-1.027,0.336,-10.22,2.866,2.7687027148215946,-56.813,342.695,0.027,23605.645,False,-0.008183082684786947,0.014897134001951922,0.37,-0.051,-0.395,-9.875,0.0,342.695,169.078,True,0,1,0,0
-0.807,-0.112,-0.836,compass,-111.777,-0.671,-107.296,-1.027,0.336,-10.22,2.866,2.7687027148215946,-56.813,342.695,0.027,23605.645,False,-0.008183082684786947,0.014897134001951922,0.37,-0.051,-0.395,-9.875,0.0,342.695,169.078,True,0,1,0,0
-0.75,-0.224,-0.832,compass,-112.796,-0.56,-108.579,-1.023,0.336,-10.24,2.986,2.93422379613896,-56.942,342.566,0.023,23605.845,False,-0.007514554187404292,0.012725181796042926,0.37,-0.012,-0.395,-9.918,-0.006,342.566,169.078,True,0,1,0,0
-0.75,-0.224,-0.832,compass,-112.796,-0.56,-108.579,-1.023,0.336,-10.24,2.986,2.93422379613896,-56.942,342.566,0.023,23605.845,False,-0.007514554187404292,0.012725181796042926,0.37,-0.012,-0.395,-9.918,-0.006,342.566,169.078,True,0,1,0,0
-0.702,0.0,-0.825,compass,-110.378,-0.783,-109.386,-1.004,0.448,-10.24,2.986,3.0340271787754527,-57.126,342.382,0.041,23606.045,False,-0.013724101335269504,0.022158859314213394,0.37,-0.012,-0.434,-9.918,-0.006,342.382,169.078,True,0,1,0,0
-0.702,0.0,-0.825,compass,-110.378,-0.783,-109.386,-1.004,0.448,-10.24,2.986,3.0340271787754527,-57.126,342.382,0.041,23606.045,False,-0.013724101335269504,0.022158859314213394,0.37,-0.012,-0.434,-9.918,-0.006,342.382,169.078,True,0,1,0,0
-0.668,-0.112,-0.816,compass,-112.195,-1.119,-109.751,-0.987,0.224,-10.17,3.065,3.086969525753668,-57.353,342.155,0.056,23606.245,False,-0.019341406808267528,0.03041273585923691,0.37,-0.012,-0.469,-9.918,0.018,342.155,169.078,True,0,1,0,0
-0.668,-0.112,-0.816,compass,-112.195,-1.119,-109.751,-0.987,0.224,-10.17,3.065,3.086969525753668,-57.353,342.155,0.056,23606.245,False,-0.019341406808267528,0.03041273585923691,0.37,-0.012,-0.469,-9.918,0.018,342.155,169.078,True,0,1,0,0
-0.623,0.112,-0.805,compass,-110.491,-1.231,-109.7,-0.944,0.112,-10.26,2.966,3.0735150570166927,-57.721,341.787,0.087,23606.445,False,-0.030114607172232258,0.046718428136783854,0.37,-0.051,-0.469,-9.914,-0.028,341.787,169.078,True,0,1,0,0
-0.623,0.112,-0.805,compass,-110.491,-1.231,-109.7,-0.944,0.112,-10.26,2.966,3.0735150570166927,-57.721,341.787,0.087,23606.445,False,-0.030114607172232258,0.046718428136783854,0.37,-0.051,-0.469,-9.914,-0.028,341.787,169.078,True,0,1,0,0
-0.603,0.112,-0.793,compass,-95.878,-1.007,-108.995,-0.928,-0.112,-10.24,2.767,2.9743976375071233,-57.947,341.561,0.031,23606.645,False,-0.01034045716541991,0.0165069004615947,0.37,-0.051,-0.469,-9.914,-0.019,341.561,169.078,True,0,1,0,0
-0.603,0.112,-0.793,compass,-95.878,-1.007,-108.995,-0.928,-0.112,-10.24,2.767,2.9743976375071233,-57.947,341.561,0.031,23606.645,False,-0.01034045716541991,0.0165069004615947,0.37,-0.051,-0.469,-9.914,-0.019,341.561,169.078,True,0,1,0,0
-0.604,0.0,-0.782,compass,-97.163,-0.783,-107.05,-0.917,-0.112,-10.24,2.667,2.8480677030571933,-58.16,341.348,0.016,23606.846,False,-0.00466480589326152,0.008204508263297494,0.37,-0.09,-0.469,-9.918,-0.019,341.348,169.078,True,0,1,0,0
-0.604,0.0,-0.782,compass,-97.163,-0.783,-107.05,-0.917,-0.112,-10.24,2.667,2.8480677030571933,-58.16,341.348,0.016,23606.846,False,-0.00466480589326152,0.008204508263297494,0.37,-0.09,-0.469,-9.918,-0.019,341.348,169.078,True,0,1,0,0
-0.615,-0.112,-0.772,compass,-98.619,-1.007,-104.379,-0.928,-0.112,-10.2,2.448,2.697228499868556,-58.359,341.149,0.128,23607.046,False,-0.03269532697844295,0.06730808653861561,0.37,-0.09,-0.469,-9.879,-0.004,341.149,169.078,True,0,1,0,0
-0.615,-0.112,-0.772,compass,-98.619,-1.007,-104.379,-0.928,-0.112,-10.2,2.448,2.697228499868556,-58.359,341.149,0.128,23607.046,False,-0.03269532697844295,0.06730808653861561,0.37,-0.09,-0.469,-9.879,-0.004,341.149,169.078,True,0,1,0,0
-0.657,0.112,-0.764,compass,-87.295,-0.783,-101.028,-0.965,-0.336,-10.28,2.329,2.502240675222009,-58.635,340.873,0.107,23607.246,False,-0.021245437188796477,0.055650578204920115,0.37,-0.09,-0.469,-9.879,-0.043,340.873,169.078,True,0,1,0,0
-0.657,0.112,-0.764,compass,-87.295,-0.783,-101.028,-0.965,-0.336,-10.28,2.329,2.502240675222009,-58.635,340.873,0.107,23607.246,False,-0.021245437188796477,0.055650578204920115,0.37,-0.09,-0.469,-9.879,-0.043,340.873,169.078,True,0,1,0,0
-0.707,-0.112,-0.76,compass,-90.685,-0.56,-97.781,-0.999,-0.56,-10.28,2.19,2.297844815059021,-58.742,340.766,0.08,23607.446,False,-0.01125520086581149,0.0413578308264347,0.37,-0.09,-0.469,-9.879,-0.038,340.766,169.078,True,0,1,0,0
-0.738,-0.112,-0.759,compass,-90.643,-0.671,-96.436,-1.025,-0.336,-10.26,2.19,2.23564829499842,-58.798,340.71,0.08,23607.546,False,-0.00935937755215883,0.041290707768559656,0.38,-0.09,-0.469,-9.879,-0.025,340.71,169.078,True,0,1,0,0
-0.763,-0.112,-0.76,compass,-90.681,-0.783,-95.412,-1.042,-0.448,-10.26,2.17,2.168799822513795,-58.855,340.653,0.049,23607.646,False,-0.0048232456251224905,0.025136378616040247,0.38,-0.09,-0.469,-9.879,-0.025,340.653,169.078,True,0,1,0,0
-0.787,-0.112,-0.76,compass,-90.681,-0.671,-94.491,-1.067,-0.448,-10.26,2.17,2.1167622177250136,-58.884,340.624,0.049,23607.746,False,-0.004011456203060136,0.025115385485597056,0.38,-0.129,-0.434,-9.879,-0.025,340.624,169.078,True,0,1,0,0
-0.811,0.0,-0.762,compass,-88.822,-0.671,-92.405,-1.091,-0.56,-10.22,2.01,2.034652165949091,-58.919,340.589,0.208,23607.846,False,-0.009521297616582982,0.1073825683767912,0.38,-0.129,-0.434,-9.879,-0.009,340.589,169.078,True,0,1,0,0
-0.841,-0.112,-0.764,compass,-90.832,-0.448,-90.783,-1.124,-0.448,-10.22,2.01,1.9840202945490446,-58.947,340.561,0.208,23607.946,False,-0.0035380991168112164,0.10729615859678858,0.38,-0.09,-0.395,-9.879,-0.009,340.561,169.078,True,0,1,0,0
-0.865,-0.112,-0.767,compass,-109.288,-0.56,-91.521,-1.149,-0.336,-10.17,2.05,1.965112269246493,-58.976,340.532,0.045,23608.046,False,-0.0013211041956809018,0.02304434859779671,0.38,-0.09,-0.395,-9.879,0.017,340.532,169.078,True,0,1,0,0
-0.912,-0.112,-0.772,compass,-109.288,-0.56,-92.763,-1.199,-0.336,-10.17,2.05,1.9498550414703142,-59.019,340.489,0.045,23608.046,False,-0.002286327090332831,0.023015742586667814,0.38,-0.09,-0.355,-9.875,0.017,340.489,169.078,True,0,1,0,0
-0.946,-0.112,-0.777,compass,108.436,-0.224,-81.787,-1.211,-0.336,-10.2,0.0,1.5736216847779216,-59.039,340.469,0.06,23608.246,False,0.00845639033848367,0.031002846151428474,0.38,-0.09,-0.355,-9.875,0.0,340.469,169.078,True,0,1,0,0
-0.966,0.0,-0.782,compass,90.0,-0.448,-67.603,-1.215,-0.224,-10.2,0.0,1.2673284371457603,-59.061,340.447,0.06,23608.346,False,-0.05048311949738801,0.030983374642912075,0.38,-0.09,-0.355,-9.875,0.0,340.447,169.078,True,0,1,0,0
-0.988,0.112,-0.789,compass,-105.249,-0.112,-61.499,-1.211,-0.224,-10.2,2.03,1.4073057084455178,-59.088,340.42,0.008,23608.446,False,-0.004278054861935237,0.003994695677153779,0.38,-0.09,-0.355,-9.875,0.0,340.42,169.078,True,0,1,0,0
-1.01,0.0,-0.795,compass,-106.488,-0.112,-59.945,-1.207,-0.112,-10.22,2.03,1.5327390750352592,-59.116,340.392,0.008,23608.546,False,-0.002433746187201097,0.003991396838681739,0.39,-0.09,-0.355,-9.875,-0.006,340.392,169.078,True,0,1,0,0
-1.031,0.0,-0.802,compass,-64.322,-0.224,-59.114,-1.203,-0.112,-10.22,2.229,1.6782465021311466,-59.145,340.363,0.029,23608.646,False,-0.003457999615437664,0.014955362669077439,0.39,-0.09,-0.355,-9.875,-0.006,340.363,169.078,True,0,1,0,0
-1.04,0.112,-0.809,compass,-63.6,-0.224,-58.8,-1.197,0.0,-10.28,2.229,1.8095024533963942,-59.172,340.336,0.029,23608.746,False,0.0009016127629398561,0.014943424268847589,0.39,-0.051,-0.355,-9.879,-0.036,340.336,169.078,True,0,1,0,0
-1.041,0.224,-0.816,compass,-62.997,-0.448,-58.876,-1.189,0.112,-10.28,2.309,1.9442390511433754,-59.207,340.301,0.008,23608.847,False,0.0011009094418763209,0.003980775253576447,0.39,-0.051,-0.355,-9.879,-0.036,340.301,169.078,True,0,1,0,0
-1.035,0.0,-0.823,compass,-66.215,-0.224,-59.27,-1.181,0.224,-10.26,2.309,2.049921191845634,-59.229,340.279,0.008,23608.947,False,0.0017204702456569232,0.003978232097663034,0.39,-0.09,-0.395,-9.879,-0.022,340.279,169.078,True,0,1,0,0
