imu.roll,imu.pitchrate,imu.heel,ap.mode,ap.wind_angle,imu.headingrate,ap.true_wind_angle,imu.pitch,imu.rollrate,rudder.angle,wind.speed,ap.true_wind_speed,ap.heading_error,ap.heading,gps.speed,timestamp,ap.enabled,ap.vmg,ap.cmg,sow.speed,imu.accel_X,imu.accel_Y,imu.accel_Z,rudder.speed,imu.heading,gps.track,perf.quality_flag,perf.boat_config.Main,perf.boat_config.jib,perf.boat_config.spi,perf.boat_config.weight
-1.194,0.0,-1.235,compass,-61.491,-0.112,-50.077,-1.142,0.224,-10.26,2.229,1.8907119568829613,-53.074,346.434,0.054,24025.631,False,0.005072937334581992,0.016351012941236406,0.41,-0.09,-0.316,-9.875,-0.021,346.434,169.078,True,0,1,0,0
-1.15,0.0,-1.23,compass,-62.115,0.112,-54.074,-1.157,0.336,-10.2,2.309,2.109897328931579,-53.089,346.419,0.054,24025.832,False,0.016963522625062528,0.03269072170882896,0.41,-0.09,-0.395,-9.879,0.001,346.419,169.078,True,0,1,0,0
-1.15,0.0,-1.23,compass,-62.115,0.112,-54.074,-1.157,0.336,-10.2,2.309,2.109897328931579,-53.089,346.419,0.017,24025.832,False,0.016963522625062528,0.03269072170882896,0.41,-0.09,-0.395,-9.879,0.001,346.419,169.078,True,0,1,0,0
-1.093,0.112,-1.223,compass,-60.856,-0.56,-56.801,-1.158,0.336,-10.2,2.389,2.268719480797225,-53.09,346.418,0.017,24026.032,False,0.006663118544402195,0.010507303943384474,0.41,0.027,-0.316,-9.84,0.001,346.418,169.078,True,0,1,0,0
-1.093,0.112,-1.223,compass,-60.856,-0.56,-56.801,-1.158,0.336,-10.2,2.389,2.268719480797225,-53.09,346.418,0.029,24026.032,False,0.006663118544402195,0.010507303943384474,0.41,0.027,-0.316,-9.84,0.001,346.418,169.078,True,0,1,0,0
-1.0,0.448,-1.212,compass,-48.61,-0.448,-57.495,-1.055,0.336,-10.17,2.548,2.456411597715925,-53.097,346.411,0.029,24026.232,False,0.0127458216900473,0.01750952398813591,0.41,-0.051,-0.395,-9.875,0.011,346.411,169.078,True,0,1,0,0
-1.0,0.448,-1.212,compass,-48.61,-0.448,-57.495,-1.055,0.336,-10.17,2.548,2.456411597715925,-53.097,346.411,0.041,24026.232,False,0.0127458216900473,0.01750952398813591,0.41,-0.051,-0.395,-9.875,0.011,346.411,169.078,True,0,1,0,0
-0.956,0.448,-1.197,compass,-48.549,-0.112,-56.187,-0.951,0.336,-10.3,2.428,2.5843163357373773,-53.096,346.412,0.041,24026.432,False,0.020292107083588893,0.024514097622258764,0.41,-0.051,-0.434,-9.875,-0.059,346.412,169.078,True,0,1,0,0
-0.956,0.448,-1.197,compass,-48.549,-0.112,-56.187,-0.951,0.336,-10.3,2.428,2.5843163357373773,-53.096,346.412,0.062,24026.432,False,0.020292107083588893,0.024514097622258764,0.41,-0.051,-0.434,-9.875,-0.059,346.412,169.078,True,0,1,0,0
-0.915,0.112,-1.181,compass,-47.907,-0.112,-54.174,-0.883,-0.112,-10.3,2.349,2.5637322753461174,-53.102,346.406,0.062,24026.632,False,0.034229428048541996,0.037349442482122824,0.41,-0.051,-0.434,-9.953,-0.059,346.406,169.078,True,0,1,0,0
-0.915,0.112,-1.181,compass,-47.907,-0.112,-54.174,-0.883,-0.112,-10.3,2.349,2.5637322753461174,-53.102,346.406,0.052,24026.632,False,0.034229428048541996,0.037349442482122824,0.41,-0.051,-0.434,-9.953,-0.059,346.406,169.078,True,0,1,0,0
-0.869,0.112,-1.163,compass,-62.379,-0.112,-53.152,-0.856,0.112,-10.26,2.369,2.53202774072999,-53.102,346.406,0.066,24026.833,False,0.03825182910125374,0.03968368757596502,0.41,-0.051,-0.434,-9.914,-0.04,346.406,169.078,True,0,1,0,0
-0.869,0.112,-1.163,compass,-62.379,-0.112,-53.152,-0.856,0.112,-10.26,2.369,2.53202774072999,-53.102,346.406,0.066,24026.833,False,0.03825182910125374,0.03968368757596502,0.41,-0.051,-0.434,-9.914,-0.04,346.406,169.078,True,0,1,0,0
-0.845,-0.112,-1.145,compass,-62.973,0.112,-54.164,-0.875,-0.224,-10.22,2.329,2.4294859142535112,-53.096,346.412,0.017,24027.033,False,0.010019494628543684,0.01050603187930106,0.41,-0.129,-0.508,-9.957,-0.022,346.412,169.078,True,0,1,0,0
-0.838,-0.112,-1.136,compass,-61.456,0.448,-54.953,-0.938,-0.448,-10.22,2.329,2.3560953750363938,-53.027,346.481,0.017,24027.133,False,0.00988434295760114,0.0105228439777396,0.41,-0.09,-0.508,-9.957,-0.022,346.481,169.078,True,0,1,0,0
-0.848,-0.224,-1.127,compass,-63.679,0.56,-55.596,-0.976,-0.336,-10.28,2.369,2.3194668072231015,-52.964,346.544,0.068,24027.233,False,0.037996043474030274,0.04098165198372083,0.41,-0.051,-0.395,-9.875,-0.05,346.544,169.078,True,0,1,0,0
-0.865,-0.224,-1.119,compass,-63.679,0.56,-56.301,-1.015,-0.336,-10.28,2.369,2.290677094198235,-52.901,346.607,0.068,24027.333,False,0.03744611981626076,0.0410411745236392,0.41,-0.051,-0.355,-9.879,-0.05,346.607,169.078,True,0,1,0,0
-0.89,-0.224,-1.112,compass,-62.134,0.112,-56.897,-1.039,-0.56,-10.28,2.289,2.227076563037499,-52.866,346.642,0.07,24027.433,False,0.0380043223968278,0.04224829916414997,0.41,-0.051,-0.395,-9.914,-0.05,346.642,169.078,True,0,1,0,0
-0.937,-0.224,-1.107,compass,-62.134,0.224,-57.429,-1.067,-0.56,-10.26,2.289,2.17738896370203,-52.831,346.677,0.07,24027.533,False,0.03753344917692892,0.042282288522966484,0.42,-0.051,-0.316,-9.879,-0.038,346.677,169.078,True,0,1,0,0
-0.977,-0.336,-1.103,compass,-64.498,0.224,-57.952,-1.086,-0.448,-10.26,2.289,2.145764292324541,-52.802,346.706,0.082,24027.633,False,0.0432216640129682,0.04936209710612651,0.42,-0.012,-0.316,-9.875,-0.038,346.706,169.078,True,0,1,0,0
-1.025,-0.112,-1.101,compass,-62.219,0.112,-58.403,-1.099,-0.336,-10.26,2.289,2.144986903010291,-52.794,346.714,0.082,24027.733,False,0.04270528157060695,0.0493705619704921,0.42,-0.051,-0.316,-9.879,-0.038,346.714,169.078,True,0,1,0,0
-1.073,-0.224,-1.1,compass,-60.45,0.224,-58.844,-1.104,-0.336,-10.24,2.01,2.072307181533682,-52.794,346.714,0.043,24027.834,False,0.022097024412140603,0.025861164671128187,0.42,-0.051,-0.316,-9.879,-0.028,346.714,169.078,True,0,1,0,0
-1.122,-0.224,-1.101,compass,-60.451,0.224,-59.135,-1.11,-0.336,-10.24,2.01,2.015648762460444,-52.792,346.716,0.043,24027.934,False,0.021918298727875544,0.025862043541327154,0.42,-0.051,-0.355,-9.879,-0.028,346.716,169.078,True,0,1,0,0
-1.165,-0.112,-1.103,compass,116.565,0.112,-49.838,-1.108,-0.224,-10.24,0.0,1.6129130862924164,-52.785,346.723,0.051,24028.034,False,0.03258368258680335,0.030569613200068253,0.42,-0.012,-0.277,-9.84,-0.025,346.723,169.078,True,0,1,0,0
-1.223,-0.112,-1.106,compass,134.999,-0.112,-37.357,-1.094,-0.112,-10.24,0.0,1.288012324678685,-52.784,346.724,0.051,24028.134,False,-0.02258139948511018,0.030570432084149654,0.42,-0.012,-0.277,-9.84,-0.025,346.724,169.078,True,0,1,0,0
-1.252,-0.112,-1.111,compass,134.998,-0.0,-23.57,-1.083,-0.112,-10.24,0.0,1.0318185238662043,-52.783,346.725,0.045,24028.234,False,-0.043086232991999034,0.027043473651987567,0.42,-0.051,-0.355,-9.879,-0.025,346.725,169.078,True,0,1,0,0
-1.284,0.112,-1.116,compass,63.437,-0.112,-11.017,-1.052,-0.224,-10.24,0.0,0.8422062173226617,-52.768,346.74,0.045,24028.334,False,-0.04198616352706262,0.027052740395810616,0.42,-0.09,-0.355,-9.914,-0.022,346.74,169.078,True,0,1,0,0
-1.308,0.112,-1.122,compass,63.437,-0.224,-2.123,-1.027,-0.224,-10.24,0.0,0.7011911530652718,-52.746,346.762,0.086,24028.434,False,-0.05636240176088895,0.05177972914021348,0.42,-0.012,-0.316,-9.875,-0.022,346.762,169.078,True,0,1,0,0
-1.318,0.112,-1.127,compass,45.003,-0.0,3.376,-1.0,-0.112,-10.24,0.0,0.581138194364858,-52.724,346.784,0.086,24028.534,False,-0.025596294331777188,0.05180519406313088,0.42,-0.012,-0.355,-9.914,-0.022,346.784,169.078,True,0,1,0,0
-1.328,0.224,-1.133,compass,26.568,-0.112,8.451,-0.981,-0.112,-10.24,0.0,0.4976928308327695,-52.695,346.813,0.082,24028.634,False,0.0005240087157411706,0.04948335470934421,0.42,-0.051,-0.316,-9.918,-0.02,346.813,169.078,True,0,1,0,0
-1.336,0.112,-1.14,compass,45.004,0.336,11.279,-0.968,-0.112,-10.24,0.0,0.4221889137227388,-52.667,346.841,0.082,24028.734,False,0.02163952663982865,0.04951522867748292,0.42,-0.012,-0.316,-9.914,-0.02,346.841,169.078,True,0,1,0,0
-1.345,0.0,-1.146,compass,90.0,-0.0,18.078,-0.955,-0.336,-10.24,0.0,0.37685514795055314,-52.653,346.855,0.052,24028.834,False,0.02007774533273454,0.031841582538152335,0.42,-0.051,-0.316,-9.918,-0.02,346.855,169.078,True,0,1,0,0
-1.353,-0.112,-1.152,compass,134.996,0.112,24.004,-0.949,-0.112,-10.22,0.0,0.3187083677877091,-52.646,346.862,0.052,24028.934,False,0.024178166459476527,0.03184679537671441,0.42,-0.051,-0.277,-9.875,-0.011,346.862,169.078,True,0,1,0,0
-1.347,0.0,-1.158,compass,-90.0,-0.112,23.118,-0.934,0.112,-10.22,0.0,0.2705613806154071,-52.666,346.842,0.045,24029.034,False,0.026791122063174914,0.027115919150715904,0.42,-0.051,-0.316,-9.879,-0.011,346.842,169.078,True,0,1,0,0
-1.354,0.112,-1.164,compass,-45.004,0.112,20.515,-0.934,0.112,-10.2,0.0,0.23937771886652143,-52.687,346.821,0.045,24029.134,False,0.03218639449058947,0.02710303948098802,0.42,-0.051,-0.316,-9.879,-0.0,346.821,169.078,True,0,1,0,0
-1.353,-0.112,-1.169,compass,134.996,-0.0,21.136,-0.941,-0.112,-10.2,0.0,0.21830167765493558,-52.701,346.807,0.07,24029.234,False,0.054069944487110035,0.042408531272279365,0.42,-0.09,-0.316,-9.875,-0.0,346.807,169.078,True,0,1,0,0
-1.352,0.0,-1.175,compass,-90.0,0.112,17.699,-0.955,0.112,-10.28,0.0,0.19874204681393146,-52.716,346.792,0.07,24029.334,False,0.059385737027899246,0.04239400935259926,0.42,-0.051,-0.316,-9.918,-0.04,346.792,169.078,True,0,1,0,0
-1.343,0.0,-1.18,compass,-90.0,0.224,12.488,-0.968,0.112,-10.28,0.0,0.17734601879401812,-52.723,346.785,0.041,24029.434,False,0.03741092774331545,0.024725710750832332,0.42,-0.051,-0.316,-9.879,-0.04,346.785,169.078,True,0,1,0,0
-1.328,0.112,-1.184,compass,-63.438,0.224,6.14,-0.973,0.224,-10.28,0.0,0.17685188001953672,-52.737,346.771,0.041,24029.534,False,-0.002817710528291663,0.024717661964259424,0.42,-0.09,-0.316,-9.875,-0.04,346.771,169.078,True,0,1,0,0
-1.32,-0.112,-1.188,compass,-134.997,0.448,-1.789,-0.986,0.112,-10.28,0.0,0.16599128878144354,-52.745,346.763,0.051,24029.634,False,-0.041841690526855116,0.030597704625316132,0.42,-0.051,-0.316,-9.879,-0.036,346.763,169.078,True,0,1,0,0
-1.318,-0.112,-1.192,compass,-134.997,0.112,-10.825,-0.999,0.112,-10.28,0.0,0.15539483100902146,-52.767,346.741,0.051,24029.734,False,-0.05044888963911379,0.030582326651091406,0.42,-0.051,-0.277,-9.836,-0.036,346.741,169.078,True,0,1,0,0
-1.303,0.0,-1.196,compass,-55.981,0.336,-22.259,-1.012,0.112,-10.17,1.99,0.5721327695942018,-52.774,346.734,0.019,24029.834,False,-0.017083597700200945,0.011760439795407973,0.42,-0.051,-0.355,-9.918,0.023,346.734,169.078,True,0,1,0,0
-1.288,0.112,-1.198,compass,-54.591,0.336,-30.762,-1.017,0.112,-10.17,1.99,0.9049606318467547,-52.781,346.727,0.019,24029.934,False,-0.012903036296007355,0.011758479550668607,0.42,-0.051,-0.355,-9.918,0.023,346.727,169.078,True,0,1,0,0
-1.275,0.0,-1.201,compass,-90.0,0.112,-34.716,-1.009,0.112,-10.22,0.0,0.7227243339475825,-52.76,346.748,0.027,24030.034,False,-0.010788049064324921,0.016469732600333933,0.42,-0.051,-0.316,-9.879,-0.005,346.748,169.078,True,0,1,0,0
-1.268,-0.112,-1.203,compass,-180.0,0.112,-42.087,-1.008,0.0,-10.22,0.0,0.5784306445162074,-52.746,346.762,0.027,24030.135,False,-0.006316415929768817,0.016475257206789398,0.42,-0.051,-0.355,-9.918,-0.005,346.762,169.078,True,0,1,0,0
-1.254,0.0,-1.204,compass,-50.113,0.224,-50.973,-1.006,0.112,-10.22,2.01,0.9043565040873288,-52.739,346.769,0.021,24030.235,False,-0.003276367711588187,0.012946854656617969,0.42,-0.051,-0.355,-9.918,-0.005,346.769,169.078,True,0,1,0,0
-1.241,0.112,-1.205,compass,-47.721,0.112,-56.199,-0.998,0.0,-10.24,2.01,1.1579367782169905,-52.732,346.776,0.021,24030.335,False,-0.001310532380731269,0.012948902854910897,0.43,-0.051,-0.355,-9.957,-0.011,346.776,169.078,True,0,1,0,0
-1.234,-0.112,-1.206,compass,134.998,0.224,-48.119,-0.997,-0.112,-10.24,0.0,0.9321474342239132,-52.725,346.783,0.049,24030.435,False,0.010748486081097113,0.029433953054759533,0.43,-0.051,-0.395,-9.953,-0.011,346.783,169.078,True,0,1,0,0
-1.241,0.112,-1.207,compass,45.002,0.112,-39.515,-0.998,-0.112,-10.24,0.0,0.7566357560985327,-52.725,346.783,0.049,24030.535,False,-0.03797276411528674,0.029434013680442284,0.43,-0.051,-0.316,-9.879,-0.011,346.783,169.078,True,0,1,0,0
-1.226,-0.112,-1.208,compass,-180.0,0.224,-35.85,-1.01,0.0,-10.28,0.0,0.6181980915309079,-52.726,346.782,0.078,24030.635,False,-0.033252450823190824,0.04709394580819221,0.43,-0.051,-0.355,-9.918,-0.023,346.782,169.078,True,0,1,0,0
-1.218,-0.224,-1.208,compass,-180.0,0.224,-38.959,-1.016,0.0,-10.28,0.0,0.5173059823537768,-52.733,346.775,0.078,24030.735,False,-0.014780388792205881,0.04708620397704412,0.43,-0.051,-0.355,-9.918,-0.023,346.775,169.078,True,0,1,0,0
-1.217,0.0,-1.208,compass,-0.0,0.112,-30.897,-1.024,0.0,-10.26,0.0,0.41381005123418124,-52.726,346.782,0.047,24030.835,False,-0.04338576262379426,0.028256138769027106,0.43,-0.051,-0.355,-9.918,-0.011,346.782,169.078,True,0,1,0,0
-1.216,-0.112,-1.209,compass,134.998,-0.0,-26.836,-1.031,-0.112,-10.26,0.0,0.3517198607742358,-52.705,346.803,0.047,24030.935,False,-0.04212329409807494,0.028269555971240385,0.43,-0.051,-0.355,-9.918,-0.011,346.803,169.078,True,0,1,0,0
-1.216,-0.112,-1.209,compass,134.998,0.224,-18.525,-1.031,-0.112,-10.26,0.0,0.2998650670509841,-52.684,346.824,0.031,24031.035,False,-0.016930744626186725,0.01885537009960439,0.43,-0.051,-0.316,-9.879,-0.011,346.824,169.078,True,0,1,0,0
-1.23,0.112,-1.209,compass,45.002,0.112,-10.992,-1.033,-0.112,-10.22,0.0,0.2592070285748819,-52.67,346.838,0.031,24031.135,False,-0.0050838443291506275,0.01886179452498108,0.43,-0.09,-0.316,-9.875,0.004,346.838,169.078,True,0,1,0,0
-1.237,0.112,-1.21,compass,45.002,0.112,-4.291,-1.034,-0.112,-10.22,0.0,0.2272870289108358,-52.649,346.859,0.031,24031.235,False,0.00441078424272696,0.01887082956544166,0.43,-0.051,-0.355,-9.879,0.004,346.859,169.078,True,0,1,0,0
-1.245,0.112,-1.211,compass,-0.0,0.224,-0.418,-1.028,0.0,-10.26,0.0,0.19713074335591002,-52.635,346.873,0.031,24031.335,False,0.012258386080465273,0.018876920994992257,0.43,-0.051,-0.316,-9.879,-0.017,346.873,169.078,True,0,1,0,0
-1.253,0.224,-1.213,compass,26.567,-0.0,3.708,-1.015,-0.112,-10.26,0.0,0.18918588671795225,-52.634,346.874,0.027,24031.435,False,0.01516500416847128,0.016517438042329115,0.43,-0.051,-0.316,-9.84,-0.017,346.874,169.078,True,0,1,0,0
-1.261,0.224,-1.214,compass,26.567,0.112,7.098,-1.009,-0.112,-10.26,0.0,0.18295399627894338,-52.626,346.882,0.027,24031.535,False,0.018209746541681553,0.016520445907444038,0.43,-0.051,-0.355,-9.879,-0.017,346.882,169.078,True,0,1,0,0
-1.263,0.112,-1.216,compass,45.003,0.112,9.145,-0.995,-0.112,-10.28,0.0,0.17257040416925903,-52.634,346.874,0.054,24031.635,False,0.04104926541574727,0.0330352358648142,0.43,-0.051,-0.316,-9.879,-0.022,346.874,169.078,True,0,1,0,0
-1.274,0.224,-1.217,compass,45.003,0.224,12.37,-0.961,-0.224,-10.28,0.0,0.18280174951557857,-52.633,346.875,0.054,24031.735,False,0.04332261935351049,0.03303578570962465,0.43,-0.051,-0.316,-9.879,-0.022,346.875,169.078,True,0,1,0,0
-1.282,0.224,-1.219,compass,26.568,0.336,15.517,-0.948,-0.112,-10.22,0.0,0.17614903065345533,-52.632,346.876,0.019,24031.836,False,0.01593710026579192,0.011798802960094343,0.43,-0.051,-0.316,-9.879,0.011,346.876,169.078,True,0,1,0,0
-1.291,0.224,-1.221,compass,-26.568,-0.0,15.527,-0.935,0.112,-10.22,0.0,0.17133028089766533,-52.625,346.883,0.019,24031.936,False,0.016718961002002826,0.011800767841831357,0.43,-0.051,-0.316,-9.879,0.011,346.883,169.078,True,0,1,0,0
-1.299,0.224,-1.224,compass,-26.568,-0.112,13.746,-0.922,0.112,-10.22,0.0,0.16605403320217332,-52.639,346.869,0.012,24032.036,False,0.010522891443295367,0.007078137774662752,0.43,-0.051,-0.355,-9.918,0.011,346.869,169.078,True,0,1,0,0
-1.314,0.112,-1.226,compass,45.004,-0.0,13.832,-0.916,-0.112,-10.22,0.0,0.1508803780512283,-52.659,346.849,0.012,24032.136,False,0.010734458999185546,0.007074812856943469,0.43,-0.051,-0.355,-9.918,0.009,346.849,169.078,True,0,1,0,0
-1.314,0.112,-1.229,compass,45.004,0.112,13.354,-0.916,-0.112,-10.22,0.0,0.150772925464086,-52.694,346.814,0.068,24032.236,False,0.0637308268613141,0.04123693952988605,0.43,-0.012,-0.316,-9.875,0.009,346.814,169.078,True,0,1,0,0
-1.32,-0.112,-1.232,compass,134.996,0.224,16.047,-0.923,-0.112,-10.22,0.0,0.14839264985788297,-52.716,346.792,0.068,24032.336,False,0.06325936008916429,0.041216454110530924,0.43,-0.051,-0.316,-9.918,0.009,346.792,169.078,True,0,1,0,0
-1.32,-0.112,-1.234,compass,-49.177,-0.0,18.063,-0.922,-0.112,-10.26,2.07,0.5654391419100983,-52.751,346.757,0.068,24032.436,False,0.06291886584708323,0.041183629003246895,0.43,-0.051,-0.316,-9.918,-0.004,346.757,169.078,True,0,1,0,0
-1.332,-0.224,-1.237,compass,-50.531,-0.0,16.042,-0.937,-0.112,-10.26,2.15,0.8836168259199384,-52.807,346.701,0.043,24032.536,False,0.06419285774784515,0.041130243090193995,0.43,-0.051,-0.316,-9.918,-0.004,346.701,169.078,True,0,1,0,0
-1.345,-0.336,-1.241,compass,-48.495,-0.0,11.763,-0.952,-0.224,-10.2,2.15,1.1248059172510245,-52.814,346.694,0.043,24032.636,False,0.04143437393376882,0.02584912205322597,0.43,-0.051,-0.355,-9.918,0.028,346.694,169.078,True,0,1,0,0
-1.343,-0.336,-1.244,compass,-51.828,-0.0,6.132,-0.966,0.112,-10.2,2.209,1.3435602961031867,-52.807,346.701,0.047,24032.736,False,0.0020025323668525826,0.025853105919236875,0.43,-0.051,-0.277,-9.875,0.028,346.701,169.078,True,0,1,0,0
-1.334,-0.112,-1.246,compass,-50.231,-0.0,0.026,-0.987,0.224,-10.2,2.209,1.5549682437399277,-52.787,346.721,0.047,24032.836,False,-0.037033079724910524,0.028216605601498794,0.43,-0.051,-0.316,-9.879,0.028,346.721,169.078,True,0,1,0,0
-1.326,0.0,-1.249,compass,-48.056,-0.0,-5.973,-0.993,0.112,-10.26,2.249,1.7181341404604504,-52.773,346.735,0.062,24032.936,False,-0.04652004943797092,0.02822547553790217,0.43,-0.051,-0.355,-9.918,0.005,346.735,169.078,True,0,1,0,0
-1.325,-0.112,-1.251,compass,-47.083,-0.0,-11.522,-1.0,-0.112,-10.26,2.249,1.8280843565478935,-52.767,346.741,0.062,24033.036,False,-0.05023927131015541,0.03763986487157581,0.43,-0.051,-0.316,-9.918,0.005,346.741,169.078,True,0,1,0,0
-1.318,-0.112,-1.253,compass,-49.186,0.112,-16.669,-1.0,0.112,-10.26,2.289,1.9332950063154717,-52.752,346.756,0.025,24033.137,False,-0.031006644693013608,0.03765249400746821,0.43,-0.051,-0.316,-9.879,0.005,346.756,169.078,True,0,1,0,0
-1.311,-0.112,-1.255,compass,-49.148,0.112,-21.437,-0.999,0.112,-10.22,2.289,2.017133202119347,-52.738,346.77,0.025,24033.237,False,-0.005234299253641482,0.015301171506410494,0.43,-0.09,-0.316,-9.875,0.018,346.77,169.078,True,0,1,0,0
-1.297,0.0,-1.256,compass,-49.94,-0.0,-25.698,-0.997,0.336,-10.22,2.329,2.1113908659109657,-52.738,346.77,0.066,24033.337,False,0.0006573094165231847,0.01530110810536249,0.43,-0.09,-0.316,-9.875,0.018,346.77,169.078,True,0,1,0,0
-1.284,0.0,-1.257,compass,-47.003,0.112,-29.16,-0.996,0.0,-10.22,2.329,2.1705127518234293,-52.738,346.77,0.066,24033.437,False,0.0135623813029007,0.04001811727833308,0.43,-0.051,-0.355,-9.918,0.018,346.77,169.078,True,0,1,0,0
-1.263,0.112,-1.258,compass,-57.887,0.112,-35.165,-0.987,-0.112,-10.24,2.269,2.2429449212678256,-52.69,346.818,0.029,24033.637,False,0.012346948427125174,0.01767468525877923,0.43,-0.051,-0.355,-9.879,0.009,346.818,169.078,True,0,1,0,0
-1.263,0.112,-1.258,compass,-57.887,0.112,-35.165,-0.987,-0.112,-10.24,2.269,2.2429449212678256,-52.69,346.818,0.029,24033.637,False,0.012346948427125174,0.01767468525877923,0.43,-0.051,-0.355,-9.879,0.009,346.818,169.078,True,0,1,0,0
-1.259,0.112,-1.258,compass,-59.461,-0.0,-40.76,-0.966,0.112,-10.26,2.269,2.2925846495108444,-52.647,346.861,0.084,24033.837,False,0.04323518519247717,0.0507170624223446,0.43,-0.051,-0.355,-9.879,0.002,346.861,169.078,True,0,1,0,0
-1.26,0.0,-1.258,compass,-60.752,0.112,-43.225,-0.96,0.112,-10.26,2.269,2.3108308398860244,-52.612,346.896,0.084,24033.937,False,0.04514364196222898,0.05075841585665403,0.43,-0.051,-0.355,-9.918,0.002,346.896,169.078,True,0,1,0,0
-1.254,0.112,-1.258,compass,-57.85,0.112,-45.334,-0.953,-0.112,-10.15,2.229,2.2999080349180203,-52.562,346.946,0.084,24034.038,False,0.04639799500926195,0.05081574409098414,0.43,-0.051,-0.355,-9.879,0.057,346.946,169.078,True,0,1,0,0
-1.247,0.112,-1.258,compass,-59.452,-0.336,-47.23,-0.953,0.112,-10.15,2.229,2.313920003439965,-52.534,346.974,0.084,24034.138,False,0.04704411290403226,0.050847831375026534,0.43,-0.051,-0.316,-9.879,0.057,346.974,169.078,True,0,1,0,0
-1.247,-0.112,-1.257,compass,-60.637,-0.0,-49.222,-0.953,-0.112,-10.15,2.09,2.2487965133502734,-52.506,347.002,0.017,24034.238,False,0.009822170283348518,0.0106494964800684,0.43,-0.012,-0.355,-9.875,0.057,347.002,169.078,True,0,1,0,0
-1.246,-0.224,-1.257,compass,-62.171,-0.0,-51.039,-0.961,-0.112,-10.22,2.09,2.1915317773626093,-52.485,347.023,0.017,24034.338,False,0.009735262836911854,0.010654514750369529,0.43,-0.051,-0.316,-9.879,0.028,347.023,169.078,True,0,1,0,0
-1.244,-0.112,-1.257,compass,-59.764,0.112,-52.22,-0.982,-0.224,-10.22,2.09,2.1494544173118317,-52.436,347.072,0.08,24034.438,False,0.044338245365909246,0.048591329781840935,0.43,-0.051,-0.355,-9.879,0.028,347.072,169.078,True,0,1,0,0
-1.244,-0.224,-1.256,compass,-62.97,0.224,-53.377,-0.983,0.0,-10.17,2.09,2.133417533671968,-52.415,347.093,0.08,24034.538,False,0.04403082254149008,0.0486143133475179,0.43,-0.051,-0.355,-9.879,0.051,347.093,169.078,True,0,1,0,0
-1.25,0.0,-1.256,compass,-59.14,-0.112,-54.455,-0.991,-0.112,-10.17,2.07,2.113220879003087,-52.394,347.114,0.043,24034.638,False,0.023387565691251527,0.026098035510704685,0.43,-0.051,-0.316,-9.879,0.051,347.114,169.078,True,0,1,0,0
-1.257,-0.112,-1.256,compass,-63.027,-0.224,-55.489,-0.999,0.224,-10.17,2.07,2.1259908147714377,-52.387,347.121,0.043,24034.738,False,0.02307326446811677,0.026102121972699076,0.43,-0.051,-0.355,-9.879,0.051,347.121,169.078,True,0,1,0,0
-1.256,-0.112,-1.256,compass,-60.656,0.112,-56.021,-1.005,-0.112,-10.26,2.03,2.098201697804661,-52.395,347.113,0.095,24034.838,False,0.05121027646943803,0.058127222581482264,0.43,-0.051,-0.316,-9.918,0.016,347.113,169.078,True,0,1,0,0
-1.255,-0.112,-1.256,compass,-62.317,-0.112,-56.561,-1.012,0.112,-10.26,2.03,2.099851261549325,-52.402,347.106,0.095,24034.938,False,0.050895122422675514,0.05811789987127942,0.43,-0.051,-0.355,-9.879,0.016,347.106,169.078,True,0,1,0,0
-1.255,0.112,-1.256,compass,-59.416,-0.224,-57.179,-1.012,0.112,-10.2,2.09,2.121518315005804,-52.429,347.079,0.047,24035.038,False,0.024659814351505806,0.028447973686192906,0.43,-0.051,-0.355,-9.918,0.044,347.079,169.078,True,0,1,0,0
-1.254,-0.112,-1.256,compass,-62.252,-0.112,-57.744,-1.018,0.112,-10.2,2.09,2.125339409031252,-52.451,347.057,0.047,24035.138,False,0.02439619000935324,0.02843392460980483,0.43,-0.051,-0.355,-9.918,0.044,347.057,169.078,True,0,1,0,0
-1.253,0.112,-1.256,compass,-57.682,-0.112,-58.107,-1.025,-0.112,-10.28,2.07,2.112427215532883,-52.486,347.022,0.031,24035.238,False,0.016157692231926372,0.01894093717685283,0.43,-0.051,-0.355,-9.918,0.0,347.022,169.078,True,0,1,0,0
-1.253,0.0,-1.256,compass,-60.002,-0.0,-58.386,-1.023,0.0,-10.28,2.07,2.1068858318038863,-52.556,346.952,0.031,24035.338,False,0.01606362048604033,0.018910662125586206,0.43,-0.051,-0.316,-9.879,0.0,346.952,169.078,True,0,1,0,0
-1.247,0.224,-1.255,compass,-57.149,-0.112,-58.542,-1.015,0.0,-10.24,2.05,2.110312001468058,-52.585,346.923,0.016,24035.438,False,0.008016854496298518,0.009449177104091116,0.43,-0.051,-0.316,-9.879,0.02,346.923,169.078,True,0,1,0,0
-1.254,0.112,-1.255,compass,-56.718,-0.112,-58.527,-1.009,-0.224,-10.24,2.05,2.0833333976394504,-52.605,346.903,0.016,24035.538,False,0.008038430220470523,0.009444730420881347,0.43,-0.051,-0.355,-9.918,0.02,346.903,169.078,True,0,1,0,0
-1.248,-0.112,-1.255,compass,-61.524,-0.224,-58.261,-1.001,0.0,-10.24,2.01,2.071811184940966,-52.626,346.882,0.089,24035.638,False,0.04665737312538475,0.05428140047930634,0.43,-0.051,-0.316,-9.879,0.02,346.882,169.078,True,0,1,0,0
-1.255,0.112,-1.255,compass,-57.612,-0.0,-57.969,-1.001,-0.112,-10.24,2.01,2.0649538103170944,-52.641,346.867,0.089,24035.738,False,0.047114466750795815,0.05426328356247653,0.43,-0.051,-0.355,-9.918,0.018,346.867,169.078,True,0,1,0,0
-1.256,0.112,-1.255,compass,-57.636,-0.0,-58.025,-0.994,-0.112,-10.24,2.03,2.0555291686862835,-52.662,346.846,0.021,24035.838,False,0.011260193097116258,0.012969857068722364,0.43,-0.051,-0.355,-9.918,0.018,346.846,169.078,True,0,1,0,0
-1.263,-0.112,-1.255,compass,-59.756,0.112,-58.111,-0.994,-0.224,-10.22,2.03,2.022861663971598,-52.682,346.826,0.021,24035.939,False,0.011241700246609133,0.012963698539501013,0.42,-0.051,-0.316,-9.918,0.027,346.826,169.078,True,0,1,0,0
-1.263,-0.112,-1.256,compass,-60.663,-0.0,-58.221,-0.994,-0.112,-10.22,2.01,2.0055163268933134,-52.704,346.804,0.029,24036.039,False,0.015291358341453605,0.017669008486051695,0.42,-0.051,-0.355,-9.918,0.027,346.804,169.078,True,0,1,0,0
-1.269,-0.112,-1.256,compass,-60.663,0.112,-58.37,-1.001,-0.112,-10.22,2.01,1.9919614642960173,-52.732,346.776,0.029,24036.139,False,0.015231659701811255,0.017657740687774415,0.42,-0.051,-0.316,-9.918,0.027,346.776,169.078,True,0,1,0,0
-1.268,0.0,-1.256,compass,-58.176,-0.0,-58.373,-1.008,-0.224,-10.28,2.01,1.97766551910303,-52.761,346.747,0.037,24036.239,False,0.019296345242476188,0.02235173343404768,0.42,-0.051,-0.355,-9.918,0.004,346.747,169.078,True,0,1,0,0
-1.274,-0.112,-1.257,compass,-60.663,0.224,-58.443,-1.016,-0.112,-10.28,2.01,1.97118557287551,-52.761,346.747,0.037,24036.339,False,0.019273968605168366,0.02235171435687504,0.42,-0.051,-0.355,-9.918,0.004,346.747,169.078,True,0,1,0,0
-1.287,-0.112,-1.258,compass,-53.35,-0.0,-58.293,-1.024,-0.224,-10.28,2.09,1.9703855190085686,-52.767,346.741,0.019,24036.439,False,0.010192602069415932,0.011762198639559013,0.42,-0.051,-0.355,-9.918,0.004,346.741,169.078,True,0,1,0,0
-1.293,-0.112,-1.259,compass,-53.35,0.112,-57.941,-1.031,-0.224,-10.28,2.09,1.9698287407655868,-52.781,346.727,0.019,24036.539,False,0.010296304140229508,0.01175843573751505,0.42,-0.051,-0.316,-9.879,0.004,346.727,169.078,True,0,1,0,0
-1.3,0.112,-1.26,compass,-51.707,-0.112,-57.421,-1.032,-0.112,-10.28,2.13,2.0048279960237805,-52.802,346.706,0.017,24036.639,False,0.009401063754459853,0.0105775464542089,0.42,-0.051,-0.316,-9.879,0.004,346.706,169.078,True,0,1,0,0
-1.301,0.0,-1.261,compass,-51.99,-0.112,-56.822,-1.025,-0.224,-10.28,2.13,2.0134186720427,-52.824,346.684,0.017,24036.739,False,0.009554975485033522,0.01057231024471107,0.42,-0.051,-0.316,-9.879,0.004,346.684,169.078,True,0,1,0,0
-1.309,0.112,-1.263,compass,-51.617,-0.0,-56.16,-1.018,-0.112,-10.26,2.05,2.0222240973899646,-52.851,346.657,0.023,24036.839,False,0.012963413697406612,0.014087469105762045,0.42,-0.051,-0.316,-9.879,0.01,346.657,169.078,True,0,1,0,0
-1.309,0.0,-1.264,compass,-51.908,-0.0,-55.522,-1.011,-0.224,-10.26,2.05,2.010369175092612,-52.88,346.628,0.023,24036.939,False,0.013176895953125108,0.014078227156326123,0.42,-0.051,-0.316,-9.879,0.01,346.628,169.078,True,0,1,0,0
-1.317,0.0,-1.266,compass,-54.003,-0.112,-55.066,-1.004,0.0,-10.22,1.99,2.0085094076890972,-52.9,346.608,0.017,24037.039,False,0.009998046692977151,0.01055364870271039,0.42,-0.051,-0.316,-9.879,0.029,346.608,169.078,True,0,1,0,0
-1.333,0.112,-1.268,compass,-50.425,-0.0,-54.543,-0.984,-0.224,-10.22,1.99,1.9941624154894153,-52.97,346.538,0.017,24037.139,False,0.010119588542075826,0.010536660657379246,0.42,-0.051,-0.316,-9.879,0.029,346.538,169.078,True,0,1,0,0
-1.335,0.112,-1.27,compass,-53.636,-0.112,-53.854,-0.97,0.112,-10.24,2.01,2.028936168938939,-52.991,346.517,0.087,24037.239,False,0.05146569909505885,0.05265820712965268,0.42,-0.051,-0.316,-9.879,0.016,346.517,169.078,True,0,1,0,0
-1.329,0.112,-1.272,compass,-53.636,-0.112,-53.336,-0.962,0.112,-10.24,2.01,2.0560419510498193,-53.005,346.503,0.087,24037.339,False,0.05211817129288434,0.052640311354888294,0.42,-0.051,-0.316,-9.879,0.016,346.503,169.078,True,0,1,0,0
-1.329,0.112,-1.273,compass,-58.555,-0.336,-53.509,-0.954,0.0,-10.24,2.05,2.0638108118995593,-53.026,346.482,0.016,24037.439,False,0.009228816741103032,0.009353787162066632,0.42,-0.051,-0.316,-9.879,0.016,346.482,169.078,True,0,1,0,0
-1.323,0.112,-1.275,compass,-60.217,-0.112,-53.924,-0.946,0.224,-10.22,2.05,2.0928115396890585,-53.047,346.461,0.016,24037.539,False,0.009138602996262471,0.009349276836099514,0.42,-0.051,-0.316,-9.918,0.021,346.461,169.078,True,0,1,0,0
-1.323,-0.112,-1.276,compass,-62.296,-0.0,-54.495,-0.946,0.112,-10.22,2.05,2.092555238140201,-53.054,346.454,0.029,24037.639,False,0.01690488343167943,0.017527069639465247,0.42,-0.051,-0.316,-9.879,0.021,346.454,169.078,True,0,1,0,0
-1.315,-0.112,-1.277,compass,-61.495,-0.112,-55.144,-0.952,0.0,-10.22,2.05,2.080483784486882,-53.069,346.439,0.029,24037.74,False,0.016636718437968077,0.017520997447345893,0.42,-0.051,-0.355,-9.918,0.021,346.439,169.078,True,0,1,0,0
-1.308,0.0,-1.278,compass,-60.003,-0.0,-55.861,-0.951,0.0,-10.26,2.15,2.0965406402838895,-53.083,346.425,0.006,24037.84,False,0.003267476908251831,0.003503062242743444,0.42,-0.051,-0.316,-9.918,0.006,346.425,169.078,True,0,1,0,0
-1.301,0.112,-1.279,compass,-58.621,-0.112,-56.425,-0.957,0.0,-10.26,2.15,2.115884040182024,-53.076,346.432,0.006,24037.94,False,0.0032214057997313945,0.00350361000248719,0.42,-0.051,-0.316,-9.918,0.006,346.432,169.078,True,0,1,0,0
-1.291,0.0,-1.279,compass,-60.003,-0.224,-56.663,-0.977,0.0,-10.2,2.07,2.1134215942052887,-53.083,346.425,0.06,24038.04,False,0.03308240469170739,0.0361977376933135,0.42,-0.051,-0.316,-9.918,0.034,346.425,169.078,True,0,1,0,0
-1.283,0.112,-1.28,compass,-59.411,-0.224,-56.886,-0.983,0.112,-10.2,2.07,2.129748467729166,-53.084,346.424,0.06,24038.14,False,0.03289405474680436,0.036197556251993966,0.42,-0.051,-0.316,-9.918,0.034,346.424,169.078,True,0,1,0,0
-1.289,-0.112,-1.28,compass,-69.563,-0.112,-57.67,-0.998,0.0,-10.2,2.09,2.1205624013923483,-53.084,346.424,0.037,24038.24,False,0.019739532850797735,0.02218551389988973,0.42,-0.051,-0.355,-9.918,0.034,346.424,169.078,True,0,1,0,0
-1.288,-0.112,-1.28,compass,-68.319,-0.112,-58.605,-1.005,-0.224,-10.24,2.09,2.088275843583766,-53.098,346.41,0.037,24038.34,False,0.01922411120752939,0.022178289510570794,0.42,-0.051,-0.355,-9.918,0.017,346.41,169.078,True,0,1,0,0
-1.288,0.0,-1.28,compass,-68.609,-0.224,-59.444,-1.004,0.112,-10.24,2.09,2.1091618713014437,-53.112,346.396,0.074,24038.44,False,0.037516693445939726,0.04434225912440906,0.42,-0.051,-0.355,-9.879,0.017,346.396,169.078,True,0,1,0,0
-1.287,-0.112,-1.28,compass,-68.319,-0.0,-60.261,-1.011,-0.224,-10.24,2.09,2.083059192623291,-53.112,346.396,0.074,24038.54,False,0.036613799999554185,0.044342127882733035,0.42,-0.051,-0.355,-9.879,0.017,346.396,169.078,True,0,1,0,0
-1.287,-0.112,-1.281,compass,-69.366,-0.0,-61.275,-1.011,0.0,-10.17,2.389,2.1507991289053234,-53.112,346.396,0.052,24038.64,False,0.02520936165338292,0.031506248758784,0.42,-0.051,-0.316,-9.879,0.038,346.396,169.078,True,0,1,0,0
-1.28,0.0,-1.281,compass,-68.535,0.112,-62.195,-1.01,0.112,-10.17,2.389,2.220807349664349,-53.112,346.396,0.052,24038.74,False,0.02447044180289705,0.03150618244478197,0.42,-0.012,-0.316,-9.875,0.038,346.396,169.078,True,0,1,0,0
-1.272,-0.112,-1.28,compass,-69.332,-0.112,-63.206,-1.016,0.0,-10.17,2.448,2.2677687997798657,-53.12,346.388,0.017,24038.84,False,0.00788173220812142,0.01050010865629296,0.42,-0.051,-0.316,-9.918,0.038,346.388,169.078,True,0,1,0,0
-1.267,0.0,-1.28,compass,-68.522,-0.112,-64.063,-1.001,0.112,-10.2,2.448,2.3216570037734052,-53.147,346.361,0.017,24038.941,False,0.007642534258147996,0.01049336367520174,0.42,-0.051,-0.316,-9.879,0.025,346.361,169.078,True,0,1,0,0
-1.275,0.112,-1.28,compass,-66.142,-0.224,-64.611,-0.995,-0.112,-10.2,2.468,2.3497075628073034,-53.168,346.34,0.029,24039.041,False,0.012482166031236698,0.01748054386995413,0.42,-0.051,-0.316,-9.879,0.025,346.34,169.078,True,0,1,0,0
-1.275,-0.112,-1.28,compass,-69.812,-0.112,-65.17,-0.988,0.112,-10.2,2.468,2.3862926609901045,-53.183,346.325,0.029,24039.141,False,0.012223951649349751,0.017474598918538392,0.42,-0.051,-0.355,-9.879,0.025,346.325,169.078,True,0,1,0,0
-1.276,0.112,-1.28,compass,-66.707,-0.336,-65.328,-0.98,0.0,-10.24,2.468,2.417278396636457,-53.196,346.312,0.08,24039.241,False,0.03321171635189688,0.04774857949075338,0.42,-0.051,-0.316,-9.879,0.009,346.312,169.078,True,0,1,0,0
-1.271,0.0,-1.279,compass,-67.462,-0.336,-65.436,-0.966,-0.112,-10.24,2.468,2.4239529368327144,-53.203,346.305,0.08,24039.341,False,0.033080553032906856,0.04774103225278974,0.42,-0.051,-0.355,-9.918,0.009,346.305,169.078,True,0,1,0,0
-1.279,0.112,-1.279,compass,-75.174,-0.224,-66.126,-0.959,-0.112,-10.24,2.329,2.3958363304167514,-53.21,346.298,0.027,24039.441,False,0.010998661038864706,0.016299256618491183,0.42,-0.051,-0.316,-9.879,0.009,346.298,169.078,True,0,1,0,0
-1.28,-0.112,-1.279,compass,-78.466,-0.0,-67.112,-0.952,0.0,-10.28,2.329,2.380626202074775,-53.21,346.298,0.027,24039.541,False,0.010572295676350003,0.016299305111155224,0.42,-0.051,-0.316,-9.879,-0.006,346.298,169.078,True,0,1,0,0
-1.28,-0.112,-1.279,compass,-78.559,-0.0,-68.11,-0.945,0.0,-10.28,2.19,2.339647099751989,-53.224,346.284,0.049,24039.641,False,0.01809267227283583,0.029096554877411574,0.42,-0.051,-0.316,-9.879,-0.006,346.284,169.078,True,0,1,0,0
-1.274,0.112,-1.279,compass,-75.055,-0.0,-68.991,-0.937,-0.112,-10.28,2.19,2.3006825325332465,-53.231,346.277,0.049,24039.741,False,0.017398076774742994,0.02909129698027233,0.42,-0.051,-0.316,-9.879,-0.006,346.277,169.078,True,0,1,0,0
-1.281,0.112,-1.279,compass,-80.375,-0.112,-69.808,-0.938,0.0,-10.22,2.11,2.2670187507556823,-53.216,346.292,0.086,24039.841,False,0.029504489185635377,0.051218390676317865,0.42,-0.051,-0.355,-9.879,0.015,346.292,169.078,True,0,1,0,0
-1.281,-0.112,-1.279,compass,-83.819,-0.0,-70.882,-0.938,0.112,-10.22,2.11,2.2497056008121237,-53.216,346.292,0.086,24039.941,False,0.02799902705871862,0.051218390676317865,0.42,-0.051,-0.316,-9.918,0.015,346.292,169.078,True,0,1,0,0
-1.28,0.0,-1.279,compass,-82.001,-0.112,-72.13,-0.945,0.0,-10.17,2.03,2.2046603354924166,-53.23,346.278,0.052,24040.042,False,0.016089518435403995,0.031419184525749114,0.42,-0.051,-0.355,-9.879,0.039,346.278,169.078,True,0,1,0,0
-1.286,-0.112,-1.28,compass,-83.304,-0.112,-73.338,-0.953,-0.224,-10.17,2.03,2.141093349205944,-53.245,346.263,0.052,24040.142,False,0.015026127571823138,0.03140834919596223,0.42,-0.051,-0.355,-9.918,0.039,346.263,169.078,True,0,1,0,0
-1.293,0.112,-1.28,compass,-79.677,-0.112,-74.467,-0.953,-0.224,-10.17,2.01,2.0896492488042524,-53.259,346.249,0.027,24040.242,False,0.007273901309203355,0.01628055853321476,0.42,-0.051,-0.316,-9.879,0.039,346.249,169.078,True,0,1,0,0
-1.292,-0.112,-1.28,compass,-83.526,-0.0,-75.557,-0.96,-0.112,-10.24,2.01,2.0587437012360676,-53.273,346.235,0.027,24040.342,False,0.006772029808713577,0.016275224260765192,0.42,-0.051,-0.316,-9.879,0.012,346.235,169.078,True,0,1,0,0
-1.298,-0.112,-1.281,compass,-83.169,-0.0,-76.418,-0.974,-0.224,-10.24,2.249,2.0750775335459326,-53.302,346.206,0.052,24040.442,False,0.012281156078432515,0.03136679930863539,0.42,-0.051,-0.316,-9.918,0.012,346.206,169.078,True,0,1,0,0
-1.297,-0.224,-1.281,compass,-84.948,-0.112,-77.295,-0.981,-0.112,-10.24,2.249,2.099554204481472,-53.337,346.171,0.052,24040.542,False,0.011484421905069101,0.03134120353720516,0.42,-0.051,-0.316,-9.918,0.012,346.171,169.078,True,0,1,0,0
-1.311,-0.224,-1.282,compass,-84.895,-0.0,-78.189,-0.982,-0.112,-10.2,2.289,2.126832286943843,-53.379,346.129,0.043,24040.642,False,0.008691713342607935,0.025511929877614775,0.42,-0.051,-0.316,-9.918,0.024,346.129,169.078,True,0,1,0,0
-1.323,0.112,-1.283,compass,-80.245,-0.0,-78.784,-0.996,-0.112,-10.2,2.289,2.1533906340356506,-53.456,346.052,0.043,24040.742,False,0.008226456341187849,0.025465608216489577,0.42,-0.051,-0.316,-9.879,0.024,346.052,169.078,True,0,1,0,0
-1.329,-0.224,-1.285,compass,-84.724,0.112,-79.361,-1.003,-0.112,-10.24,2.428,2.1996939890143326,-53.485,346.023,0.049,24040.842,False,0.008871436254955959,0.02891866156091077,0.42,-0.051,-0.316,-9.879,0.001,346.023,169.078,True,0,1,0,0
-1.335,-0.112,-1.286,compass,-83.425,-0.0,-79.86,-1.011,0.0,-10.24,2.428,2.250453257024608,-53.506,346.002,0.049,24040.942,False,0.008463666489471089,0.02890443985331288,0.42,-0.051,-0.316,-9.879,0.001,346.002,169.078,True,0,1,0,0
-1.327,-0.112,-1.287,compass,-83.573,-0.112,-80.489,-1.017,0.112,-10.24,2.448,2.3060642363004016,-53.52,345.988,0.01,24041.042,False,0.0015898987675674059,0.005778965133530106,0.42,-0.051,-0.316,-9.879,0.001,345.988,169.078,True,0,1,0,0
-1.327,0.112,-1.289,compass,-80.824,-0.112,-80.877,-1.016,0.112,-10.26,2.448,2.353091670746499,-53.527,345.981,0.01,24041.142,False,0.0015275353830670538,0.005778018311208658,0.42,-0.051,-0.316,-9.879,-0.006,345.981,169.078,True,0,1,0,0
-1.334,0.0,-1.29,compass,-81.8,-0.0,-81.105,-1.01,-0.112,-10.26,2.468,2.366057198137919,-53.534,345.974,0.017,24041.242,False,0.0026842514852988275,0.010398571436004127,0.42,-0.051,-0.316,-9.879,-0.006,345.974,169.078,True,0,1,0,0
-1.334,0.0,-1.291,compass,-81.8,-0.0,-81.258,-1.01,-0.112,-10.2,2.468,2.3761805684357236,-53.555,345.953,0.017,24041.342,False,0.002637799036665013,0.010393457095676375,0.42,-0.051,-0.316,-9.918,0.025,345.953,169.078,True,0,1,0,0
-1.335,0.112,-1.293,compass,-80.852,-0.224,-81.253,-1.003,0.112,-10.2,2.508,2.421897552692448,-53.576,345.932,0.031,24041.442,False,0.0046919330176931,0.01846821736004236,0.42,-0.051,-0.316,-9.918,0.025,345.932,169.078,True,0,1,0,0
-1.328,-0.112,-1.294,compass,-83.215,-0.0,-81.303,-1.002,-0.112,-10.2,2.508,2.4273555618934552,-53.591,345.917,0.031,24041.542,False,0.004667056917645605,0.018461739032504587,0.42,-0.051,-0.316,-9.918,0.025,345.917,169.078,True,0,1,0,0
-1.324,0.0,-1.295,compass,-82.188,-0.224,-81.36,-0.98,0.112,-10.22,2.528,2.4641090757963893,-53.611,345.897,0.029,24041.642,False,0.004345977408369356,0.017299468198810713,0.42,-0.051,-0.355,-9.918,0.016,345.897,169.078,True,0,1,0,0
-1.326,0.112,-1.296,compass,-80.643,-0.224,-81.327,-0.966,0.0,-10.22,2.528,2.48160115642259,-53.618,345.89,0.029,24041.742,False,0.00436758225306226,0.017296727170769122,0.42,-0.051,-0.316,-9.879,0.016,345.89,169.078,True,0,1,0,0
-1.326,0.112,-1.297,compass,-80.674,-0.112,-81.34,-0.958,0.0,-10.22,2.588,2.507516628079304,-53.639,345.869,0.01,24041.842,False,0.0014532023933038515,0.005762748805822637,0.42,-0.051,-0.355,-9.879,0.016,345.869,169.078,True,0,1,0,0
-1.32,0.112,-1.297,compass,-80.674,-0.0,-81.305,-0.95,0.0,-10.26,2.588,2.5277397880131325,-53.653,345.855,0.01,24041.943,False,0.0014593726544423228,0.005760739852058358,0.42,-0.051,-0.355,-9.879,0.001,345.855,169.078,True,0,1,0,0
-1.314,0.224,-1.298,compass,-79.377,-0.112,-81.218,-0.942,0.0,-10.26,2.608,2.5498535776436597,-53.653,345.855,0.002,24042.043,False,0.0002952501060273729,0.001152149041373387,0.42,-0.051,-0.355,-9.879,0.001,345.855,169.078,True,0,1,0,0
-1.315,0.0,-1.298,compass,-81.612,0.112,-81.181,-0.935,-0.224,-10.24,2.608,2.536329450948104,-53.66,345.848,0.002,24042.143,False,0.00029664613354990916,0.0011519628048638024,0.42,-0.051,-0.355,-9.879,0.011,345.848,169.078,True,0,1,0,0
-1.309,0.112,-1.299,compass,-80.694,-0.0,-81.088,-0.928,0.0,-10.24,2.627,2.5590745995883153,-53.66,345.848,0.012,24042.243,False,0.0018003920741717816,0.006911783445007118,0.42,-0.051,-0.355,-9.879,0.011,345.848,169.078,True,0,1,0,0
-1.309,-0.112,-1.299,compass,-83.158,-0.0,-81.118,-0.928,-0.112,-10.17,2.627,2.5598114370136953,-53.646,345.862,0.012,24042.343,False,0.0017979860670290933,0.006914059361124185,0.42,-0.051,-0.316,-9.879,0.044,345.862,169.078,True,0,1,0,0
-1.301,-0.112,-1.299,compass,-83.457,-0.112,-81.036,-0.934,0.112,-10.17,2.647,2.593325278961469,-53.632,345.876,0.056,24042.443,False,0.008783827682497464,0.033429467136439586,0.42,-0.051,-0.316,-9.879,0.044,345.876,169.078,True,0,1,0,0
-1.293,-0.112,-1.299,compass,-83.307,-0.0,-81.034,-0.941,0.0,-10.3,2.647,2.606129179274508,-53.611,345.897,0.056,24042.543,False,0.008801980418109239,0.033445792832743904,0.42,-0.051,-0.316,-9.879,-0.024,345.897,169.078,True,0,1,0,0
-1.282,-0.224,-1.298,compass,-84.662,0.112,-81.168,-0.975,0.112,-10.3,2.727,2.678009187118052,-53.569,345.939,0.068,24042.743,False,0.01049321164178033,0.04040553967485773,0.42,-0.051,-0.316,-9.879,-0.024,345.939,169.078,True,0,1,0,0
-1.282,-0.224,-1.298,compass,-84.662,0.112,-81.168,-0.975,0.112,-10.3,2.727,2.678009187118052,-53.569,345.939,0.068,24042.743,False,0.01049321164178033,0.04040553967485773,0.42,-0.051,-0.316,-9.879,-0.024,345.939,169.078,True,0,1,0,0
-1.287,-0.112,-1.297,compass,-83.405,-0.0,-81.501,-0.997,0.112,-10.28,2.747,2.708391102368169,-53.528,345.98,0.062,24042.943,False,0.00925054739600259,0.03697832013629923,0.42,-0.051,-0.316,-9.879,-0.015,345.98,169.078,True,0,1,0,0
-1.287,-0.112,-1.297,compass,-83.405,-0.0,-81.501,-0.997,0.112,-10.28,2.747,2.708391102368169,-53.528,345.98,0.062,24042.943,False,0.00925054739600259,0.03697832013629923,0.42,-0.051,-0.316,-9.879,-0.015,345.98,169.078,True,0,1,0,0
-1.29,-0.224,-1.297,compass,-84.435,-0.0,-81.892,-1.027,0.0,-10.22,2.846,2.7718821469891264,-53.486,346.022,0.049,24043.143,False,0.006905306424884934,0.028918008562118985,0.42,-0.051,-0.316,-9.918,0.017,346.022,169.078,True,0,1,0,0
-1.29,-0.224,-1.297,compass,-84.435,-0.0,-81.892,-1.027,0.0,-10.22,2.846,2.7718821469891264,-53.486,346.022,0.049,24043.143,False,0.006905306424884934,0.028918008562118985,0.42,-0.051,-0.316,-9.918,0.017,346.022,169.078,True,0,1,0,0
-1.288,0.0,-1.296,compass,-82.16,-0.0,-82.134,-1.048,0.112,-10.2,2.986,2.881201672901403,-53.472,346.036,0.045,24043.343,False,0.006155726865603012,0.02661303420577811,0.42,-0.051,-0.355,-9.918,0.022,346.036,169.078,True,0,1,0,0
-1.288,0.0,-1.296,compass,-82.16,-0.0,-82.134,-1.048,0.112,-10.2,2.986,2.881201672901403,-53.472,346.036,0.045,24043.343,False,0.006155726865603012,0.02661303420577811,0.42,-0.051,-0.355,-9.918,0.022,346.036,169.078,True,0,1,0,0
-1.291,0.224,-1.296,compass,-64.931,-0.224,-80.21,-1.021,0.0,-10.28,3.045,2.970329671122579,-53.443,346.065,0.039,24043.544,False,0.006642691206452096,0.023157648884182834,0.42,-0.051,-0.355,-9.918,-0.021,346.065,169.078,True,0,1,0,0
-1.291,0.224,-1.296,compass,-64.931,-0.224,-80.21,-1.021,0.0,-10.28,3.045,2.970329671122579,-53.443,346.065,0.039,24043.544,False,0.006642691206452096,0.023157648884182834,0.42,-0.051,-0.355,-9.918,-0.021,346.065,169.078,True,0,1,0,0
-1.296,0.224,-1.296,compass,-65.4,-0.112,-77.109,-0.986,0.112,-10.28,3.045,3.023244613078867,-53.415,346.093,0.041,24043.744,False,0.009140725274815473,0.024331784347025296,0.42,-0.09,-0.355,-9.914,-0.021,346.093,169.078,True,0,1,0,0
-1.296,0.224,-1.296,compass,-65.4,-0.112,-77.109,-0.986,0.112,-10.28,3.045,3.023244613078867,-53.415,346.093,0.041,24043.744,False,0.009140725274815473,0.024331784347025296,0.42,-0.09,-0.355,-9.914,-0.021,346.093,169.078,True,0,1,0,0
-1.292,0.224,-1.296,compass,-64.447,0.112,-73.953,-0.958,-0.112,-10.28,3.045,3.033563613627836,-53.372,346.136,0.051,24043.944,False,0.014022005672651557,0.030155459278601235,0.42,-0.051,-0.355,-9.879,-0.018,346.136,169.078,True,0,1,0,0
-1.292,0.224,-1.296,compass,-64.447,0.112,-73.953,-0.958,-0.112,-10.28,3.045,3.033563613627836,-53.372,346.136,0.051,24043.944,False,0.014022005672651557,0.030155459278601235,0.42,-0.051,-0.355,-9.879,-0.018,346.136,169.078,True,0,1,0,0
-1.295,0.224,-1.296,compass,-64.463,-0.112,-71.256,-0.938,-0.112,-10.24,3.065,3.048894707037337,-53.365,346.143,0.054,24044.144,False,0.0175288509991796,0.03248069228072568,0.42,-0.051,-0.316,-9.879,0.003,346.143,169.078,True,0,1,0,0
-1.295,0.224,-1.296,compass,-64.463,-0.112,-71.256,-0.938,-0.112,-10.24,3.065,3.048894707037337,-53.365,346.143,0.054,24044.144,False,0.0175288509991796,0.03248069228072568,0.42,-0.051,-0.316,-9.879,0.003,346.143,169.078,True,0,1,0,0
-1.283,0.112,-1.295,compass,-81.524,-0.112,-71.292,-0.915,-0.224,-10.2,3.026,3.001084158506076,-53.364,346.144,0.023,24044.344,False,0.007492165046760691,0.013920365311580248,0.41,-0.051,-0.316,-9.918,0.016,346.144,169.078,True,0,1,0,0
-1.283,0.112,-1.295,compass,-81.524,-0.112,-71.292,-0.915,-0.224,-10.2,3.026,3.001084158506076,-53.364,346.144,0.023,24044.344,False,0.007492165046760691,0.013920365311580248,0.41,-0.051,-0.316,-9.918,0.016,346.144,169.078,True,0,1,0,0
-1.299,0.0,-1.295,compass,-81.697,-0.224,-71.829,-0.903,-0.224,-10.2,3.026,2.999274780876747,-53.371,346.137,0.058,24044.444,False,0.018202035794259382,0.03479541511961884,0.41,-0.051,-0.316,-9.879,0.016,346.137,169.078,True,0,1,0,0
-1.299,0.0,-1.295,compass,-82.709,-0.0,-72.622,-0.903,-0.224,-10.2,3.026,2.9824457851343076,-53.364,346.144,0.058,24044.544,False,0.017435379542629845,0.03480125736822175,0.41,-0.051,-0.316,-9.879,0.016,346.144,169.078,True,0,1,0,0
-1.304,-0.112,-1.296,compass,-84.123,0.112,-74.711,-0.917,0.0,-10.3,3.085,3.0151211903876645,-53.392,346.116,0.052,24044.644,False,0.013832343302507275,0.03130059213148628,0.41,-0.051,-0.316,-9.918,-0.018,346.116,169.078,True,0,1,0,0
-1.304,-0.112,-1.296,compass,-84.123,0.112,-74.711,-0.917,0.0,-10.3,3.085,3.0151211903876645,-53.392,346.116,0.052,24044.744,False,0.013832343302507275,0.03130059213148628,0.41,-0.051,-0.316,-9.918,-0.018,346.116,169.078,True,0,1,0,0
-1.303,-0.224,-1.296,compass,-85.168,-0.112,-75.924,-0.931,-0.112,-10.3,3.065,3.0115895083087754,-53.406,346.102,0.027,24044.844,False,0.006610931111451343,0.016224546295749303,0.41,-0.051,-0.316,-9.918,-0.018,346.102,169.078,True,0,1,0,0
-1.291,-0.112,-1.296,compass,-84.229,-0.0,-77.867,-0.964,0.112,-10.24,3.105,3.0461802794565838,-53.456,346.052,0.047,24045.045,False,0.009769232148951191,0.027780704413638335,0.41,-0.051,-0.316,-9.918,0.003,346.052,169.078,True,0,1,0,0
-1.291,-0.112,-1.296,compass,-84.229,-0.0,-77.867,-0.964,0.112,-10.24,3.105,3.0461802794565838,-53.456,346.052,0.047,24045.045,False,0.009769232148951191,0.027780704413638335,0.41,-0.051,-0.316,-9.918,0.003,346.052,169.078,True,0,1,0,0
-1.276,-0.112,-1.295,compass,-84.274,-0.0,-79.715,-1.024,0.224,-10.26,3.264,3.1390261600265656,-53.529,345.979,0.01,24045.245,False,0.0017229892496134164,0.005777780398060858,0.42,-0.051,-0.355,-9.918,-0.004,345.979,169.078,True,0,1,0,0
-1.268,-0.336,-1.294,compass,-86.263,0.112,-80.589,-1.037,0.112,-10.26,3.264,3.176675402169564,-53.529,345.979,0.01,24045.345,False,0.0015795189521090737,0.0057777328415814,0.42,-0.051,-0.355,-9.918,-0.004,345.979,169.078,True,0,1,0,0
-1.265,-0.224,-1.293,compass,-85.242,-0.224,-81.227,-1.058,0.112,-10.26,3.225,3.19931932079251,-53.529,345.979,0.039,24045.445,False,0.0058989508145386,0.02311071989192602,0.42,-0.051,-0.355,-9.918,-0.004,345.979,169.078,True,0,1,0,0
-1.257,-0.336,-1.292,compass,-86.16,-0.0,-81.816,-1.071,-0.112,-10.22,3.225,3.1892705505692476,-53.537,345.971,0.039,24045.545,False,0.005507045665158381,0.023106739692881077,0.42,-0.051,-0.355,-9.879,0.01,345.971,169.078,True,0,1,0,0
-1.255,0.0,-1.291,compass,-81.844,-0.0,-82.023,-1.085,-0.112,-10.22,3.165,3.1733757548844457,-53.544,345.964,0.068,24045.645,False,0.009397284944155836,0.04042991671231418,0.42,-0.051,-0.355,-9.879,0.01,345.964,169.078,True,0,1,0,0
-1.247,0.112,-1.29,compass,-80.738,0.112,-82.029,-1.091,-0.112,-10.22,3.165,3.1631823920596984,-53.551,345.957,0.068,24045.745,False,0.009393546202570009,0.040423072097503385,0.42,-0.051,-0.355,-9.879,0.01,345.957,169.078,True,0,1,0,0
-1.248,0.112,-1.289,compass,-80.77,-0.0,-82.1,-1.084,-0.112,-10.2,3.245,3.1708876017312773,-53.558,345.95,0.021,24045.845,False,0.0029270673532195354,0.012702349500996602,0.42,-0.051,-0.355,-9.879,0.016,345.95,169.078,True,0,1,0,0
-1.249,0.112,-1.287,compass,-80.591,-0.112,-82.05,-1.077,-0.224,-10.2,3.245,3.163752627210804,-53.565,345.943,0.021,24045.945,False,0.0029461273909040906,0.01270030473732106,0.42,-0.051,-0.355,-9.879,0.016,345.943,169.078,True,0,1,0,0
-1.25,0.224,-1.286,compass,-79.166,-0.0,-81.654,-1.063,-0.336,-10.26,3.105,3.119111443293742,-53.579,345.929,0.07,24046.045,False,0.01011494183198119,0.04155040462159022,0.42,-0.051,-0.355,-9.879,-0.015,345.929,169.078,True,0,1,0,0
-1.262,0.224,-1.286,compass,-79.384,-0.112,-81.246,-1.022,-0.224,-10.26,3.105,3.097541470790385,-53.585,345.923,0.07,24046.145,False,0.010612032107750224,0.041544438036045406,0.42,-0.051,-0.316,-9.879,-0.015,345.923,169.078,True,0,1,0,0
-1.273,0.112,-1.285,compass,-80.443,-0.112,-81.046,-0.995,-0.224,-10.17,2.946,3.0414692008099684,-53.585,345.923,0.031,24046.246,False,0.004827520707631739,0.018464459053126582,0.42,-0.051,-0.316,-9.879,0.031,345.923,169.078,True,0,1,0,0
-1.29,0.112,-1.285,compass,-80.643,0.112,-80.879,-0.969,-0.112,-10.17,2.946,3.0109187293516513,-53.591,345.917,0.031,24046.346,False,0.004917736996832914,0.018461727254032174,0.42,-0.051,-0.316,-9.879,0.031,345.917,169.078,True,0,1,0,0
-1.293,0.224,-1.286,compass,-79.39,-0.112,-80.706,-0.948,-0.112,-10.17,2.866,2.9715499684236533,-53.59,345.918,0.023,24046.446,False,0.0037598638356574764,0.013846420332650567,0.42,-0.051,-0.316,-9.879,0.031,345.918,169.078,True,0,1,0,0
-1.308,0.112,-1.286,compass,-80.605,-0.0,-80.574,-0.936,-0.112,-10.2,2.866,2.93852111425143,-53.597,345.911,0.023,24046.546,False,0.003812693054029473,0.013844285130957527,0.42,-0.051,-0.316,-9.918,0.018,345.911,169.078,True,0,1,0,0
-1.316,0.0,-1.287,compass,-81.823,-0.0,-80.458,-0.93,-0.112,-10.2,2.787,2.893946736638021,-53.59,345.918,0.039,24046.646,False,0.00643863775376256,0.023077714350628515,0.42,-0.051,-0.316,-9.879,0.018,345.918,169.078,True,0,1,0,0
-1.324,0.112,-1.288,compass,-80.564,0.224,-80.355,-0.923,-0.112,-10.15,2.787,2.861232129989162,-53.603,345.905,0.039,24046.746,False,0.0065019668901864745,0.023070247805638665,0.42,-0.051,-0.277,-9.875,0.041,345.905,169.078,True,0,1,0,0
-1.324,-0.112,-1.289,compass,-83.224,-0.0,-80.187,-0.923,0.0,-10.15,2.826,2.856276634451723,-53.603,345.905,0.087,24046.846,False,0.014888502946127409,0.051908057562686995,0.42,-0.09,-0.316,-9.875,0.041,345.905,169.078,True,0,1,0,0
-1.33,0.0,-1.29,compass,-82.169,-0.112,-80.105,-0.931,0.112,-10.34,2.826,2.86729898136287,-53.61,345.898,0.087,24046.946,False,0.015007526556723876,0.05189947907369974,0.42,-0.09,-0.316,-9.875,-0.058,345.898,169.078,True,0,1,0,0
-1.333,-0.112,-1.292,compass,-83.19,-0.0,-80.321,-0.959,0.0,-10.34,2.906,2.8761109467273736,-53.646,345.862,0.041,24047.046,False,0.00683475100671517,0.024199118094002204,0.42,-0.051,-0.355,-9.918,-0.058,345.862,169.078,True,0,1,0,0
-1.325,-0.112,-1.293,compass,-83.33,0.112,-80.563,-0.972,0.112,-10.24,2.906,2.8962040002565645,-53.661,345.847,0.041,24047.146,False,0.006663194662635754,0.02419095873546124,0.41,-0.09,-0.316,-9.875,-0.002,345.847,169.078,True,0,1,0,0
-1.315,0.112,-1.293,compass,-81.025,-0.0,-80.739,-0.992,0.112,-10.24,2.966,2.9282470458284062,-53.668,345.84,0.031,24047.246,False,0.004984403404343043,0.01842796833106726,0.41,-0.09,-0.277,-9.879,-0.002,345.84,169.078,True,0,1,0,0
-1.298,0.0,-1.294,compass,-82.463,0.336,-80.906,-1.018,0.336,-10.24,2.966,2.977754649695722,-53.676,345.832,0.031,24047.346,False,0.004896300230288989,0.018424633320882743,0.41,-0.051,-0.316,-9.879,-0.002,345.832,169.078,True,0,1,0,0
-1.274,-0.112,-1.293,compass,-83.562,0.224,-81.117,-1.036,0.336,-10.3,2.966,3.014621531242331,-53.683,345.825,0.029,24047.446,False,0.004485540671562499,0.017269978862851167,0.41,-0.051,-0.316,-9.879,-0.022,345.825,169.078,True,0,1,0,0
-1.252,-0.112,-1.292,compass,-83.684,0.224,-81.346,-1.047,0.448,-10.3,2.966,3.05662436227342,-53.705,345.803,0.029,24047.546,False,0.004365426027641606,0.017260866489142362,0.41,-0.051,-0.355,-9.879,-0.022,345.803,169.078,True,0,1,0,0
-1.236,-0.112,-1.29,compass,-83.416,0.224,-81.481,-1.058,0.224,-10.26,3.006,3.0723995847689745,-53.727,345.781,0.049,24047.646,False,0.007156802915283115,0.028753571245571433,0.41,-0.051,-0.355,-9.879,0.0,345.781,169.078,True,0,1,0,0
-1.207,-0.112,-1.288,compass,-83.542,0.112,-81.624,-1.062,0.336,-10.26,3.006,3.0979470483746074,-53.749,345.759,0.049,24047.746,False,0.007031723495934714,0.028738396243611655,0.41,-0.012,-0.316,-9.875,0.0,345.759,169.078,True,0,1,0,0
-1.179,-0.112,-1.284,compass,-80.844,0.112,-81.653,-1.065,0.448,-10.32,3.065,3.1431182997222673,-53.763,345.745,0.045,24047.846,False,0.006447684278536908,0.026430273082063555,0.41,-0.012,-0.355,-9.875,-0.03,345.745,169.078,True,0,1,0,0
-1.152,-0.112,-1.28,compass,-80.673,-0.112,-81.584,-1.054,0.336,-10.32,3.065,3.165235341525635,-53.784,345.724,0.045,24047.946,False,0.006497984201798591,0.026417022598032386,0.41,-0.012,-0.355,-9.914,-0.03,345.724,169.078,True,0,1,0,0
-1.099,-0.112,-1.275,compass,-80.643,0.112,-81.476,-1.026,0.336,-10.2,3.125,3.1954765430800203,-53.792,345.716,0.041,24048.046,False,0.006013443087997912,0.024115222955901402,0.42,-0.051,-0.395,-9.914,0.033,345.716,169.078,True,0,1,0,0
-1.071,-0.112,-1.269,compass,-80.468,0.112,-81.326,-1.023,0.224,-10.2,3.125,3.2059266074061012,-53.786,345.722,0.041,24048.147,False,0.006131201477533723,0.02411900729883846,0.42,-0.051,-0.395,-9.914,0.033,345.722,169.078,True,0,1,0,0
-1.044,0.112,-1.262,compass,-78.355,-0.112,-81.123,-1.013,0.224,-10.2,3.105,3.213836647298727,-53.764,345.744,0.023,24048.247,False,0.00359501079269961,0.013789343229083382,0.42,-0.051,-0.395,-9.914,0.033,345.744,169.078,True,0,1,0,0
-1.016,-0.112,-1.255,compass,-80.476,0.448,-80.949,-1.016,0.224,-10.24,3.105,3.215097620016326,-53.751,345.757,0.023,24048.347,False,0.0036704577133782725,0.01379373756994073,0.42,-0.051,-0.395,-9.914,0.016,345.757,169.078,True,0,1,0,0
-0.995,0.0,-1.247,compass,-79.225,-0.0,-80.691,-1.014,0.112,-10.24,2.886,3.157652868450309,-53.737,345.771,0.033,24048.447,False,0.00535230386192408,0.0195474604686133,0.42,-0.051,-0.395,-9.914,0.016,345.771,169.078,True,0,1,0,0
-0.974,-0.112,-1.239,compass,-80.188,-0.112,-80.477,-1.011,0.0,-10.26,2.886,3.0973105674253953,-53.738,345.77,0.033,24048.547,False,0.005472819692104713,0.019547338158293178,0.42,-0.051,-0.395,-9.914,0.005,345.77,169.078,True,0,1,0,0
-0.968,0.112,-1.231,compass,-79.025,-0.0,-80.091,-1.004,0.112,-10.26,2.826,3.0571178219826898,-53.738,345.77,0.07,24048.647,False,0.012051278074970967,0.041394421952272206,0.42,-0.051,-0.395,-9.914,0.005,345.77,169.078,True,0,1,0,0
-0.961,0.112,-1.222,compass,-78.792,-0.112,-79.723,-1.003,0.0,-10.26,2.826,3.0127318915522148,-53.752,345.756,0.07,24048.747,False,0.012478776694471198,0.041380667121087546,0.42,-0.051,-0.395,-9.875,0.005,345.756,169.078,True,0,1,0,0
-0.948,0.224,-1.214,compass,-77.743,-0.0,-79.492,-0.994,0.112,-10.24,2.687,2.961287981104996,-53.759,345.749,0.033,24048.847,False,0.006021314967415608,0.019537631075602028,0.42,-0.051,-0.395,-9.875,0.011,345.749,169.078,True,0,1,0,0
-0.942,0.112,-1.206,compass,-78.976,-0.224,-79.294,-0.985,0.112,-10.24,2.687,2.9184730726988555,-53.787,345.721,0.033,24048.947,False,0.006122142454147153,0.019524341474809838,0.42,-0.051,-0.355,-9.879,0.011,345.721,169.078,True,0,1,0,0
-0.936,0.112,-1.198,compass,-78.739,-0.0,-79.026,-0.977,0.0,-10.2,2.707,2.8774708929599857,-53.801,345.707,0.052,24049.047,False,0.009960881590971452,0.030999037286687157,0.42,-0.09,-0.395,-9.918,0.03,345.707,169.078,True,0,1,0,0
-0.936,0.112,-1.19,compass,-78.739,0.112,-78.798,-0.977,0.0,-10.2,2.707,2.8455050181713886,-53.815,345.693,0.052,24049.147,False,0.010163376232789125,0.030988777998476238,0.42,-0.09,-0.395,-9.918,0.03,345.693,169.078,True,0,1,0,0
-0.935,0.112,-1.182,compass,-78.748,-0.224,-78.744,-0.976,0.0,-10.2,2.727,2.8231726960312895,-53.843,345.665,0.021,24049.247,False,0.004155104416680679,0.012616433070419897,0.42,-0.09,-0.395,-9.879,0.03,345.665,169.078,True,0,1,0,0
-0.942,0.112,-1.175,compass,-78.494,-0.112,-78.676,-0.984,-0.112,-10.24,2.727,2.7926653026841506,-53.857,345.651,0.021,24049.347,False,0.004180042721876948,0.012612232056903748,0.42,-0.09,-0.395,-9.879,0.013,345.651,169.078,True,0,1,0,0
-0.948,0.112,-1.168,compass,-78.748,-0.0,-78.491,-0.984,0.0,-10.24,2.727,2.78366303098132,-53.879,345.629,0.051,24049.447,False,0.010036016520185464,0.029795337532347636,0.42,-0.09,-0.395,-9.918,0.013,345.629,169.078,True,0,1,0,0
-0.954,0.112,-1.162,compass,-79.223,0.112,-78.373,-0.992,0.224,-10.24,2.727,2.8028533938931393,-53.9,345.608,0.051,24049.547,False,0.010134461333913138,0.02978045942802521,0.42,-0.09,-0.395,-9.879,0.013,345.608,169.078,True,0,1,0,0
-0.952,0.0,-1.156,compass,-90.0,0.112,-78.902,-1.005,-0.112,-10.22,2.647,2.7566686370982234,-53.936,345.572,0.027,24049.647,False,0.005203853582600565,0.016021864362212705,0.42,-0.09,-0.395,-9.918,0.019,345.572,169.078,True,0,1,0,0
-0.959,-0.112,-1.15,compass,-91.378,0.224,-79.794,-1.012,-0.224,-10.22,2.647,2.7072194727919787,-53.957,345.551,0.027,24049.748,False,0.0047871979351951045,0.016013848247908642,0.42,-0.051,-0.395,-9.914,0.019,345.551,169.078,True,0,1,0,0
-0.974,0.0,-1.144,compass,-90.0,0.112,-80.898,-1.056,-0.112,-10.15,2.667,2.6854150967846753,-54.0,345.508,0.008,24049.848,False,0.0012177819999762095,0.004570651362866426,0.42,-0.051,-0.395,-9.875,0.052,345.508,169.078,True,0,1,0,0
-0.987,-0.112,-1.14,compass,-91.367,0.224,-82.067,-1.065,-0.224,-10.15,2.667,2.655165864903266,-54.0,345.508,0.008,24049.948,False,0.0010636138523636238,0.004570655027585344,0.43,-0.051,-0.395,-9.875,0.052,345.508,169.078,True,0,1,0,0
-1.0,-0.112,-1.136,compass,-74.913,0.336,-82.176,-1.073,-0.112,-10.15,2.687,2.6482219776349485,-53.992,345.516,0.06,24050.048,False,0.008151473676873126,0.035429260945945625,0.43,-0.051,-0.434,-9.875,0.052,345.516,169.078,True,0,1,0,0
-1.007,-0.112,-1.132,compass,-74.913,-0.112,-81.831,-1.074,-0.112,-10.28,2.687,2.6432498883584516,-53.985,345.523,0.06,24050.148,False,0.008528099470050973,0.03543524062701374,0.43,-0.051,-0.395,-9.914,0.003,345.523,169.078,True,0,1,0,0
-1.021,-0.112,-1.128,compass,-79.792,0.112,-81.689,-1.076,-0.224,-10.28,2.767,2.642332959812371,-53.978,345.53,0.012,24050.248,False,0.0016818337520243523,0.006859606019583042,0.43,-0.051,-0.395,-9.914,0.003,345.53,169.078,True,0,1,0,0
-1.035,0.112,-1.126,compass,-76.92,-0.0,-81.36,-1.078,-0.336,-10.24,2.767,2.6339683652965658,-53.964,345.544,0.012,24050.348,False,0.0017513154226845155,0.006861920462163597,0.43,-0.051,-0.395,-9.914,0.023,345.544,169.078,True,0,1,0,0
-1.049,-0.112,-1.123,compass,-79.775,0.336,-80.791,-1.081,-0.224,-10.24,2.826,2.651609886801583,-53.942,345.566,0.074,24050.448,False,0.011838528347515153,0.04348163529785956,0.43,-0.051,-0.355,-9.879,0.023,345.566,169.078,True,0,1,0,0
-1.064,-0.112,-1.121,compass,-79.775,-0.0,-80.323,-1.076,-0.224,-10.24,2.826,2.6654021432502653,-53.928,345.58,0.074,24050.548,False,0.012444405377312067,0.04349643623555414,0.43,-0.051,-0.355,-9.879,0.021,345.58,169.078,True,0,1,0,0
-1.092,0.0,-1.121,compass,-78.509,-0.0,-80.141,-1.072,-0.224,-10.24,2.826,2.6755502885055145,-53.92,345.588,0.016,24050.648,False,0.002668993779465601,0.009158778060011004,0.43,-0.051,-0.355,-9.879,0.021,345.588,169.078,True,0,1,0,0
-1.107,0.0,-1.12,compass,-78.76,0.112,-79.949,-1.067,-0.112,-10.3,2.826,2.696581989068155,-53.934,345.574,0.016,24050.748,False,0.0027160909133747834,0.009155804798405566,0.43,-0.051,-0.355,-9.879,-0.012,345.574,169.078,True,0,1,0,0
-1.123,-0.224,-1.12,compass,-81.2,-0.0,-79.651,-1.055,-0.112,-10.3,2.886,2.7243246785855337,-53.933,345.575,0.068,24050.848,False,0.012229676375246091,0.04005708775911144,0.43,-0.051,-0.355,-9.879,-0.012,345.575,169.078,True,0,1,0,0
-1.138,-0.112,-1.121,compass,-79.758,0.224,-79.405,-1.043,-0.224,-10.3,2.886,2.735013657803801,-53.926,345.582,0.068,24050.948,False,0.012522520214811,0.040064185711791454,0.43,-0.051,-0.355,-9.879,-0.012,345.582,169.078,True,0,1,0,0
-1.147,0.112,-1.122,compass,-77.563,0.112,-79.2,-1.03,-0.112,-10.26,2.886,2.760598493204215,-53.918,345.59,0.047,24051.049,False,0.008753211010097425,0.02747739004946166,0.43,-0.051,-0.355,-9.84,0.003,345.59,169.078,True,0,1,0,0
-1.155,-0.112,-1.123,compass,-80.189,0.112,-79.082,-1.024,0.0,-10.26,2.886,2.788479847266016,-53.897,345.611,0.047,24051.149,False,0.008859049645444917,0.027491812154637627,0.43,-0.051,-0.395,-9.875,0.003,345.611,169.078,True,0,1,0,0
-1.157,-0.112,-1.124,compass,-81.374,-0.0,-79.041,-1.011,0.112,-10.26,2.886,2.824126258023833,-53.875,345.633,0.056,24051.249,False,0.010754368750923057,0.033236033871036984,0.43,-0.051,-0.355,-9.879,0.003,345.633,169.078,True,0,1,0,0
