imu.roll,imu.pitchrate,imu.heel,ap.mode,ap.wind_angle,imu.headingrate,ap.true_wind_angle,imu.pitch,imu.rollrate,rudder.angle,wind.speed,ap.true_wind_speed,ap.heading_error,ap.heading,gps.speed,timestamp,ap.enabled,ap.vmg,ap.cmg,sow.speed,imu.accel_X,imu.accel_Y,imu.accel_Z,rudder.speed,imu.heading,gps.track,perf.quality_flag,perf.boat_config.Main,perf.boat_config.jib,perf.boat_config.spi,perf.boat_config.weight
-0.501,-0.112,-0.114,compass,72.442,-0.224,139.11,-1.205,-0.56,3.98,2.488,3.9983581249958022,-60.0,271.088,4.055,23226.184,False,-3.125511687821682,-2.519978131766373,4.0,-0.164,-0.395,-9.914,-0.13,271.088,271.658,True,0,1,0,0
-0.521,0.112,-0.126,compass,67.086,-0.448,140.337,-1.242,0.112,3.98,2.389,3.9929058270333275,-60.0,270.998,4.047,23226.284,False,-3.1582589319976795,-2.5201006427349686,4.0,-0.164,-0.395,-9.875,-0.13,270.998,272.175,True,0,1,0,0
-0.541,0.224,-0.138,compass,67.423,-0.336,140.68,-1.26,-0.224,3.98,2.389,3.995982769086967,-60.0,270.934,4.047,23226.384,False,-3.1619422471047396,-2.5236605826800793,4.0,-0.129,-0.395,-9.918,-0.13,270.934,272.175,True,0,1,0,0
-0.56,0.448,-0.151,compass,63.354,-0.448,141.438,-1.258,0.0,3.96,2.209,3.982381293245878,-60.0,270.865,4.051,23226.484,False,-3.189197930341841,-2.529890668668833,4.0,-0.09,-0.434,-9.879,-0.123,270.865,273.18,True,0,1,0,0
-0.57,0.448,-0.163,compass,63.355,-0.783,141.986,-1.247,0.0,3.96,2.209,3.9632974369199605,-60.0,270.801,4.051,23226.584,False,-3.206154817123066,-2.533415345201894,4.0,-0.09,-0.395,-9.918,-0.123,270.801,273.18,True,0,1,0,0
-0.559,0.56,-0.175,compass,-38.655,-0.671,148.928,-1.206,0.448,3.96,0.0,3.9203920544929693,-60.0,270.748,4.028,23226.685,False,-3.4578151259909773,-2.521771999088576,4.0,-0.09,-0.395,-9.879,-0.123,270.748,272.933,True,0,1,0,0
-0.554,0.671,-0.187,compass,-18.432,-0.783,154.569,-1.151,0.224,4.02,0.0,3.873937530579741,-60.0,270.694,4.028,23226.785,False,-3.641479631972193,-2.524687388108968,4.0,-0.051,-0.434,-9.801,-0.091,270.694,272.933,True,0,1,0,0
-0.524,0.56,-0.197,compass,-44.996,-0.895,158.909,-1.09,0.56,4.02,0.0,3.8484761289948155,-60.0,270.621,4.166,23226.885,False,-3.887991274134606,-2.6153505588924206,4.0,-0.051,-0.469,-9.801,-0.091,270.621,274.363,True,0,1,0,0
-0.498,0.783,-0.206,compass,-44.997,-1.007,162.542,-1.024,0.783,4.23,0.0,3.7865315518598845,-60.0,270.558,4.166,23226.985,False,-3.9737315260504475,-2.6189227224551352,4.0,-0.012,-0.469,-9.762,0.025,270.558,274.363,True,0,1,0,0
-0.404,0.336,-0.212,compass,-63.433,-1.119,165.907,-0.917,0.671,4.23,0.0,3.7609617171035965,-60.0,270.411,4.071,23227.085,False,-3.94598566573392,-2.5671683215362453,4.0,-0.012,-0.508,-9.723,0.025,270.411,273.685,True,0,1,0,0
-0.339,0.224,-0.216,compass,-75.962,-1.119,168.97,-0.88,0.895,4.23,0.0,3.729521488354997,-60.0,270.322,4.071,23227.185,False,-3.9932203845840344,-2.5720756326104435,4.0,-0.012,-0.547,-9.758,0.025,270.322,273.685,True,0,1,0,0
-0.275,0.112,-0.217,compass,-75.962,-0.783,170.878,-0.873,0.448,4.83,0.0,3.756591914413886,-60.0,270.232,4.059,23227.285,False,-4.005443687054605,-2.569631673438537,4.0,-0.012,-0.547,-9.719,0.22,270.232,274.64,True,0,1,0,0
-0.205,-0.336,-0.217,compass,-126.873,-0.783,172.682,-0.871,0.448,4.83,0.0,3.784531194621722,-60.0,270.142,4.059,23227.385,False,-4.023920479888001,-2.5745614483533377,4.0,-0.012,-0.586,-9.797,0.22,270.142,274.64,True,0,1,0,0
-0.146,-0.224,-0.215,compass,-123.693,-0.895,173.833,-0.899,0.336,5.05,0.0,3.8353605100144614,-60.0,270.061,4.096,23227.485,False,-4.070416816984572,-2.602446968715477,4.0,-0.051,-0.586,-9.836,0.309,270.061,275.026,True,0,1,0,0
-0.106,-0.56,-0.212,compass,-149.04,-0.783,175.169,-0.936,0.336,5.05,0.0,3.887759351234302,-60.0,269.976,4.096,23227.586,False,-4.079884104865837,-2.607173087678814,4.0,-0.09,-0.625,-9.918,0.309,269.976,275.026,True,0,1,0,0
-0.071,-0.448,-0.207,compass,165.966,-0.783,175.799,-0.988,-0.112,5.07,0.0,3.8627630765987107,-60.0,269.894,3.991,23227.686,False,-3.978933420090389,-2.544707420879933,4.0,-0.09,-0.66,-9.996,0.287,269.894,273.708,True,0,1,0,0
-0.051,-0.448,-0.203,compass,128.664,-0.783,175.716,-1.036,-0.56,5.07,0.0,3.806042885436916,-60.0,269.829,3.991,23227.786,False,-3.9785108385307795,-2.54824327676508,3.97,-0.129,-0.66,-10.066,0.287,269.829,273.708,True,0,1,0,0
-0.051,-0.336,-0.198,compass,120.969,-0.671,175.679,-1.132,-0.56,5.07,0.0,3.7684585453062,-60.0,269.712,3.937,23227.886,False,-3.9238561257150195,-2.5196391684805577,3.97,-0.09,-0.625,-10.105,0.287,269.712,271.348,True,0,1,0,0
-0.06,-0.224,-0.194,compass,111.806,-0.895,175.428,-1.18,-0.56,5.36,0.0,3.759663098624264,-60.0,269.661,3.937,23227.986,False,-3.9225743537461386,-2.5223109905293155,3.97,-0.09,-0.625,-10.141,0.358,269.661,271.348,True,0,1,0,0
-0.094,-0.224,-0.191,compass,104.039,-0.56,174.718,-1.213,-0.895,5.36,0.0,3.783637788723013,-60.0,269.612,4.088,23228.086,False,-4.069215423527704,-2.6221942766838846,3.97,-0.09,-0.547,-10.145,0.358,269.612,270.923,True,0,1,0,0
-0.148,-0.112,-0.19,compass,98.132,-1.007,174.298,-1.237,-0.783,5.36,0.0,3.82181000500991,-60.0,269.562,4.088,23228.186,False,-4.066339319777831,-2.6248861466282394,3.97,-0.09,-0.547,-10.102,0.358,269.562,270.923,True,0,1,0,0
-0.217,-0.224,-0.191,compass,74.514,-0.783,167.255,-1.255,-1.007,6.44,2.01,3.8392279842992503,-60.0,269.499,3.96,23228.286,False,-3.858833958674816,-2.545875695543466,3.97,-0.09,-0.469,-10.023,0.677,269.499,270.342,True,0,1,0,0
-0.291,-0.224,-0.194,compass,73.73,-0.895,162.147,-1.269,-0.783,6.44,2.01,3.8544711268392815,-60.0,269.431,3.96,23228.387,False,-3.7642827360259083,-2.5494912272304755,3.97,-0.051,-0.395,-9.992,0.677,269.431,270.342,True,0,1,0,0
-0.365,-0.448,-0.199,compass,74.939,-0.783,158.161,-1.292,-0.56,6.21,2.269,3.8911696807550125,-60.0,269.362,4.045,23228.487,False,-3.7489299099895166,-2.6082635198370836,3.97,-0.012,-0.277,-9.918,0.491,269.362,269.569,True,0,1,0,0
-0.439,-0.448,-0.206,compass,73.76,-1.119,155.587,-1.306,-0.224,6.21,2.269,3.9141171200394056,-60.0,269.294,4.045,23228.587,False,-3.6768408371182666,-2.611947729408684,3.97,-0.012,-0.277,-9.879,0.491,269.294,269.569,True,0,1,0,0
-0.527,-0.56,-0.216,compass,73.588,-1.231,153.466,-1.315,0.112,6.21,2.389,3.940773482811996,-60.0,269.236,4.024,23228.687,False,-3.5929786992268657,-2.601251357230438,3.92,-0.051,-0.277,-9.758,0.491,269.236,271.188,True,0,1,0,0
-0.705,-0.56,-0.23,compass,73.589,-1.119,151.8,-1.323,0.112,7.39,2.389,3.964856694965391,-60.0,269.125,4.024,23228.787,False,-3.5375783299391164,-2.607183565095569,3.92,-0.051,-0.316,-9.723,0.827,269.125,271.188,True,0,1,0,0
-0.734,-0.448,-0.245,compass,89.611,-1.343,150.605,-1.332,0.448,7.39,2.468,3.9914457655915063,-60.0,269.041,3.927,23228.887,False,-3.4121069368374695,-2.54857567652784,3.92,-0.051,-0.355,-9.68,0.827,269.041,270.705,True,0,1,0,0
-0.768,-0.336,-0.261,compass,88.038,-1.679,149.764,-1.335,0.448,8.82,2.468,4.03334954151677,-60.0,268.963,3.927,23228.987,False,-3.383162883042487,-2.552672087572283,3.92,-0.051,-0.355,-9.723,1.49,268.963,270.705,True,0,1,0,0
-0.742,-0.448,-0.29,compass,67.386,-1.455,149.482,-1.346,0.895,8.82,2.508,4.056667243787068,-60.0,268.868,4.01,23229.087,False,-3.4446526074770465,-2.6120287032169274,3.92,-0.051,-0.434,-9.758,1.49,268.764,271.717,True,0,1,0,0
-0.742,-0.448,-0.29,compass,66.705,-1.455,149.343,-1.346,0.895,8.82,2.508,4.056536229061413,-60.0,268.764,4.01,23229.187,False,-3.4389855599063996,-2.617561224420496,3.92,-0.051,-0.434,-9.758,1.49,268.764,271.717,True,0,1,0,0
-0.707,-0.224,-0.303,compass,62.674,-1.79,149.421,-1.338,1.007,8.46,2.468,4.066453483902242,-60.0,268.655,4.152,23229.287,False,-3.562915105130213,-2.7161804447372253,3.92,-0.051,-0.434,-9.758,1.223,268.655,272.023,True,0,1,0,0
-0.652,-0.112,-0.313,compass,61.928,-1.679,149.164,-1.32,0.895,8.46,2.468,4.062857703050395,-60.0,268.535,4.152,23229.388,False,-3.552496860587528,-2.722713981574852,3.92,-0.09,-0.469,-9.84,1.223,268.535,272.023,True,0,1,0,0
-0.498,0.0,-0.326,compass,58.637,-2.014,148.129,-1.267,1.119,8.46,2.468,3.9124601574209317,-60.0,268.242,3.847,23229.588,False,-3.252328001068182,-2.537429835732051,3.92,-0.09,-0.508,-9.918,1.1,268.242,272.044,True,0,1,0,0
-0.498,0.0,-0.326,compass,58.637,-2.014,148.129,-1.267,1.119,8.46,2.468,3.9124601574209317,-60.0,268.242,3.847,23229.588,False,-3.252328001068182,-2.537429835732051,3.92,-0.09,-0.508,-9.918,1.1,268.242,272.044,True,0,1,0,0
-0.196,0.336,-0.324,compass,50.177,-2.686,148.52,-1.144,1.455,8.42,2.369,3.7910373042980265,-60.0,267.695,3.952,23229.788,False,-3.346917398456857,-2.634880953504845,3.92,-0.051,-0.547,-9.918,0.977,267.695,271.332,True,0,1,0,0
-0.196,0.336,-0.324,compass,50.177,-2.686,148.52,-1.144,1.455,8.42,2.369,3.7910373042980265,-60.0,267.695,3.952,23229.788,False,-3.346917398456857,-2.634880953504845,3.92,-0.051,-0.547,-9.918,0.977,267.695,271.332,True,0,1,0,0
0.037,0.224,-0.306,compass,53.506,-2.574,148.654,-1.063,1.231,8.42,2.289,3.7018975702211216,-60.0,267.268,3.987,23229.988,False,-3.3799075954634064,-2.6802987156851064,3.92,-0.051,-0.586,-9.914,0.977,267.268,272.486,True,0,1,0,0
0.037,0.224,-0.306,compass,53.506,-2.574,148.654,-1.063,1.231,8.42,2.289,3.7018975702211216,-60.0,267.268,3.987,23229.988,False,-3.3799075954634064,-2.6802987156851064,3.92,-0.051,-0.586,-9.914,0.977,267.268,272.486,True,0,1,0,0
0.279,0.112,-0.275,compass,54.178,-2.574,149.884,-0.99,1.231,8.51,2.15,3.6684264450042745,-60.0,266.826,4.08,23230.188,False,-3.5033711617616095,-2.7662549590757606,3.92,-0.051,-0.66,-9.875,0.909,266.826,272.505,True,0,1,0,0
0.279,0.112,-0.275,compass,54.178,-2.574,149.884,-0.99,1.231,8.51,2.15,3.6684264450042745,-60.0,266.826,4.08,23230.188,False,-3.5033711617616095,-2.7662549590757606,3.92,-0.051,-0.66,-9.875,0.909,266.826,272.505,True,0,1,0,0
0.522,0.224,-0.231,compass,52.782,-2.798,151.062,-0.944,1.119,8.38,2.03,3.6511321594225388,-60.0,266.378,4.112,23230.388,False,-3.5717017370260002,-2.8108801162964343,3.92,-0.09,-0.738,-9.879,0.775,266.378,272.608,True,0,1,0,0
0.522,0.224,-0.231,compass,52.782,-2.798,151.062,-0.944,1.119,8.38,2.03,3.6511321594225388,-60.0,266.378,4.112,23230.388,False,-3.5717017370260002,-2.8108801162964343,3.92,-0.09,-0.738,-9.879,0.775,266.378,272.608,True,0,1,0,0
0.755,0.0,-0.176,compass,-90.0,-2.014,159.577,-0.917,0.448,8.17,0.0,3.6737075416563316,-60.0,265.96,4.051,23230.588,False,-3.7778116805005952,-2.7912042200371903,3.88,-0.164,-0.816,-9.84,0.593,265.96,271.212,True,0,1,0,0
0.755,0.0,-0.176,compass,-90.0,-2.014,159.577,-0.917,0.448,8.17,0.0,3.6737075416563316,-60.0,265.96,4.051,23230.588,False,-3.7778116805005952,-2.7912042200371903,3.88,-0.164,-0.816,-9.84,0.593,265.96,271.212,True,0,1,0,0
1.01,0.448,-0.108,compass,72.536,-1.455,157.297,-0.933,0.448,6.7,2.07,3.281469852589389,-60.0,265.41,4.119,23230.788,False,-3.777064821105499,-2.866572990401686,3.88,-0.203,-0.852,-9.836,-0.208,265.41,271.763,True,0,1,0,0
1.01,0.448,-0.108,compass,72.536,-1.455,157.297,-0.933,0.448,6.7,2.07,3.281469852589389,-60.0,265.41,4.119,23230.788,False,-3.777064821105499,-2.866572990401686,3.88,-0.203,-0.852,-9.836,-0.208,265.41,271.763,True,0,1,0,0
1.096,0.448,-0.038,compass,75.81,-1.119,151.335,-0.963,-0.336,6.7,2.11,3.2383319514070203,-60.0,265.111,4.119,23230.988,False,-3.589814851434361,-2.8820164578464866,3.88,-0.203,-0.816,-9.84,-0.208,265.111,270.943,True,0,1,0,0
1.096,0.448,-0.038,compass,75.81,-1.119,151.335,-0.963,-0.336,6.7,2.11,3.2383319514070203,-60.0,265.111,4.119,23230.988,False,-3.589814851434361,-2.8820164578464866,3.88,-0.203,-0.816,-9.84,-0.208,265.111,270.943,True,0,1,0,0
1.101,1.007,0.029,compass,71.249,-0.56,144.123,-0.948,-0.783,5.63,2.249,3.380347892602445,-60.0,264.869,4.018,23231.189,False,-3.2312008954077367,-2.8233950558943226,3.88,-0.164,-0.816,-9.918,-0.543,264.869,270.971,True,0,1,0,0
1.101,1.007,0.029,compass,71.249,-0.56,144.123,-0.948,-0.783,5.63,2.249,3.380347892602445,-60.0,264.869,4.018,23231.189,False,-3.2312008954077367,-2.8233950558943226,3.88,-0.164,-0.816,-9.918,-0.543,264.869,270.971,True,0,1,0,0
0.986,1.231,0.088,compass,71.416,-0.112,137.598,-0.893,-1.343,5.69,2.408,3.5721857367833683,-60.0,264.694,3.886,23231.389,False,-2.8473793451940774,-2.738930863127945,3.88,-0.129,-0.777,-9.996,-0.459,264.694,269.346,True,0,1,0,0
0.986,1.231,0.088,compass,71.416,-0.112,137.598,-0.893,-1.343,5.69,2.408,3.5721857367833683,-60.0,264.694,3.886,23231.389,False,-2.8473793451940774,-2.738930863127945,3.88,-0.129,-0.777,-9.996,-0.459,264.694,269.346,True,0,1,0,0
0.593,1.007,0.126,compass,75.159,0.112,131.259,-0.747,-1.79,6.5,2.747,3.9010826566527594,-60.0,264.536,3.874,23231.589,False,-2.534293076564314,-2.738245796784372,3.85,-0.012,-0.738,-10.105,-0.01,264.536,268.229,True,0,1,0,0
0.593,1.007,0.126,compass,75.159,0.112,131.259,-0.747,-1.79,6.5,2.747,3.9010826566527594,-60.0,264.536,3.874,23231.589,False,-2.534293076564314,-2.738245796784372,3.85,-0.012,-0.738,-10.105,-0.01,264.536,268.229,True,0,1,0,0
0.223,0.224,0.138,compass,81.689,-0.0,126.517,-0.685,-2.014,8.44,3.145,4.32300055944102,-60.0,264.504,3.859,23231.789,False,-2.281631310711928,-2.7288026875635754,3.85,0.027,-0.66,-10.062,0.964,264.504,267.312,True,0,1,0,0
0.223,0.224,0.138,compass,81.689,-0.0,126.517,-0.685,-2.014,8.44,3.145,4.32300055944102,-60.0,264.504,3.859,23231.789,False,-2.281631310711928,-2.7288026875635754,3.85,0.027,-0.66,-10.062,0.964,264.504,267.312,True,0,1,0,0
-0.191,-0.56,0.124,compass,86.908,-0.448,123.49,-0.733,-2.238,9.54,3.583,4.784904493789599,-60.0,264.469,3.795,23231.989,False,-2.0833361881315153,-2.685089495533833,3.85,0.062,-0.434,-9.914,1.234,264.469,265.379,True,0,1,0,0
-0.191,-0.56,0.124,compass,86.908,-0.448,123.49,-0.733,-2.238,9.54,3.583,4.784904493789599,-60.0,264.469,3.795,23231.989,False,-2.0833361881315153,-2.685089495533833,3.85,0.062,-0.434,-9.914,1.234,264.469,265.379,True,0,1,0,0
-0.615,-1.567,0.087,compass,93.107,-0.448,122.577,-0.881,-1.902,9.54,3.782,5.166273950464839,-60.0,264.615,3.692,23232.189,False,-1.986946316717581,-2.6055273892307036,3.85,-0.012,-0.277,-9.797,1.234,264.615,265.32,True,0,1,0,0
-0.615,-1.567,0.087,compass,93.107,-0.448,122.577,-0.881,-1.902,9.54,3.782,5.166273950464839,-60.0,264.615,3.692,23232.189,False,-1.986946316717581,-2.6055273892307036,3.85,-0.012,-0.277,-9.797,1.234,264.615,265.32,True,0,1,0,0
-1.03,-1.567,0.026,compass,96.95,-0.895,124.76,-1.108,-1.455,9.4,3.941,5.5781491930707015,-60.0,264.597,4.077,23232.389,False,-2.322514116179485,-2.8780911255784813,3.85,-0.09,-0.203,-9.723,1.064,264.597,263.973,True,0,1,0,0
-1.401,-1.455,-0.016,compass,96.686,-0.783,126.419,-1.328,-0.671,9.4,4.001,5.650266392881373,-60.0,264.575,3.962,23232.489,False,-2.3498807836336866,-2.798192657834004,3.85,-0.09,-0.164,-9.723,0.957,264.575,264.305,True,0,1,0,0
-1.549,-1.231,-0.062,compass,95.105,-0.895,127.859,-1.429,-0.671,9.4,4.001,5.716975006954487,-60.0,264.551,3.962,23232.589,False,-2.4287700096663243,-2.7993542841737864,3.85,-0.129,-0.125,-9.723,0.957,264.551,264.305,True,0,1,0,0
-1.659,-0.895,-0.11,compass,91.248,-0.895,129.494,-1.507,0.112,9.4,3.862,5.640876602705676,-60.0,264.503,3.734,23232.689,False,-2.3712456359955434,-2.640877216529008,3.85,-0.129,-0.086,-9.797,0.957,264.503,264.456,True,0,1,0,0
-1.735,-0.56,-0.159,compass,88.533,-1.119,130.498,-1.56,-0.112,9.25,3.862,5.595506467009262,-60.0,264.434,3.734,23232.789,False,-2.4196150987324536,-2.6440252496864547,3.85,-0.129,-0.125,-9.797,0.811,264.434,264.456,True,0,1,0,0
-1.735,-0.56,-0.159,compass,88.533,-1.119,130.498,-1.56,-0.112,9.25,3.682,5.595506467009262,-60.0,264.434,3.734,23232.789,False,-2.4196150987324536,-2.6440252496864547,3.85,-0.129,-0.125,-9.797,0.811,264.434,264.456,True,0,1,0,0
-1.791,-0.224,-0.255,compass,85.433,-1.567,133.678,-1.61,0.671,9.13,3.682,5.364674581636429,-60.0,264.247,3.802,23232.99,False,-2.61638165051533,-2.700982019943913,3.85,-0.051,-0.164,-9.875,0.67,264.247,264.711,True,0,1,0,0
-1.755,-0.112,-0.3,compass,83.452,-2.014,136.71,-1.611,1.455,9.13,3.105,5.139410204012661,-60.0,264.122,3.756,23233.09,False,-2.7224237635074067,-2.6735786974430034,3.85,-0.051,-0.164,-9.875,0.67,264.122,264.451,True,0,1,0,0
-1.701,-0.224,-0.342,compass,85.203,-1.79,138.74,-1.582,1.231,9.09,3.105,4.97327420494603,-60.0,264.012,3.756,23233.19,False,-2.811066284196552,-2.6786334078213643,3.85,-0.012,-0.242,-9.957,0.584,264.012,264.451,True,0,1,0,0
-1.603,0.0,-0.38,compass,80.223,-2.35,142.912,-1.546,1.679,9.09,2.349,4.743794037293458,-60.0,263.887,3.748,23233.29,False,-2.9772158254439685,-2.67882219809097,3.82,-0.012,-0.277,-9.957,0.584,263.887,264.629,True,0,1,0,0
-1.332,-0.224,-0.408,compass,83.328,-2.35,147.284,-1.472,2.35,9.09,2.349,4.542210662498419,-60.0,263.586,3.748,23233.39,False,-3.136216477658834,-2.6925815238441793,3.82,-0.012,-0.316,-9.953,0.584,263.586,264.629,True,0,1,0,0
-1.163,-0.336,-0.431,compass,-98.532,-2.574,150.177,-1.45,2.238,9.0,0.0,4.225995137380364,-60.0,263.399,3.802,23233.49,False,-3.2814945850691406,-2.7402751997295915,3.82,-0.012,-0.316,-9.992,0.495,263.399,266.035,True,0,1,0,0
-0.991,-0.448,-0.448,compass,-99.464,-3.021,154.052,-1.424,2.686,9.0,0.0,3.827208402976865,-60.0,263.362,3.802,23233.59,False,-3.4063404229131966,-2.74200515532584,3.82,-0.012,-0.355,-9.953,0.495,263.362,266.035,True,0,1,0,0
-0.803,-0.56,-0.458,compass,-102.807,-2.574,81.012,-1.413,2.462,8.67,0.0,3.529019395367131,-60.0,263.323,3.814,23233.69,False,-3.5796578908176424,-2.752173371793428,3.82,-0.012,-0.395,-9.879,0.281,263.323,266.537,True,0,1,0,0
-0.585,-0.671,-0.462,compass,-101.692,-3.021,27.566,-1.41,3.245,8.67,0.0,3.280949356045984,-60.0,263.304,3.814,23233.79,False,-3.7332828974730723,-2.7530520638962535,3.82,-0.012,-0.469,-9.797,0.281,263.304,266.537,True,0,1,0,0
-0.347,-1.007,-0.459,compass,-107.824,-2.686,-13.634,-1.415,3.133,8.67,0.0,3.2634504146805905,-60.0,263.28,4.189,23233.89,False,-4.174656056664974,-3.0251255550363196,3.82,-0.012,-0.508,-9.723,0.281,263.28,266.528,True,0,1,0,0
-0.087,-1.119,-0.448,compass,-107.884,-2.798,-44.751,-1.439,3.469,6.77,0.0,3.3324867795938538,-60.0,263.259,4.189,23233.99,False,-4.1874534837721615,-3.0261653310909655,3.82,-0.051,-0.547,-9.68,-0.382,263.259,266.528,True,0,1,0,0
0.198,-1.119,-0.428,compass,-109.66,-2.574,-69.322,-1.474,3.133,6.77,0.0,3.3897306298077825,-60.0,263.168,3.855,23234.09,False,-3.8306805343545496,-2.78887492133275,3.82,-0.129,-0.66,-9.68,-0.382,263.168,267.442,True,0,1,0,0
0.478,-0.336,-0.401,compass,-96.117,-2.686,-88.912,-1.493,3.133,5.05,0.0,3.4659245014454987,-60.0,263.047,3.855,23234.19,False,-3.8001535685555137,-2.7944630955028233,3.82,-0.129,-0.699,-9.719,-1.208,263.047,267.442,True,0,1,0,0
1.038,0.112,-0.358,compass,-87.954,-2.798,-104.65,-1.445,3.133,5.05,0.0,3.546923272532859,-60.0,262.774,3.935,23234.29,False,-3.853951318692552,-2.86511713880471,3.74,-0.203,-0.816,-9.762,-1.208,262.774,268.526,True,0,1,0,0
1.303,0.56,-0.308,compass,-77.735,-3.021,-117.858,-1.38,2.574,5.05,0.0,3.5988873408733606,-60.0,262.573,3.935,23234.39,False,-3.8447335206891773,-2.8745744234385198,3.74,-0.203,-0.891,-9.84,-1.087,262.573,268.526,True,0,1,0,0
1.546,1.231,-0.252,compass,-62.357,-3.021,-128.034,-1.276,2.35,5.05,0.0,3.634673775729774,-60.0,262.334,3.993,23234.49,False,-3.8925636085573867,-2.9285356979674626,3.74,-0.242,-0.969,-9.875,-1.087,262.334,267.608,True,0,1,0,0
1.757,1.679,-0.192,compass,-46.855,-2.91,-136.424,-1.141,1.79,5.07,0.0,3.6287071357610734,-60.0,262.073,3.993,23234.59,False,-3.892522770551818,-2.940883504330607,3.74,-0.242,-1.043,-9.953,-0.969,262.073,267.608,True,0,1,0,0
1.926,2.238,-0.129,compass,-24.237,-2.798,-142.893,-0.979,1.007,5.07,0.0,3.59088813292525,-60.0,261.814,4.042,23234.69,False,-3.9386555841219,-2.9890035636504115,3.74,-0.242,-1.043,-9.953,-0.969,261.814,266.09,True,0,1,0,0
2.063,2.462,-0.063,compass,-10.31,-2.35,-148.289,-0.808,0.448,5.07,0.0,3.506524110919319,-60.0,261.536,4.042,23234.79,False,-3.943372399302951,-3.0021398266580155,3.74,-0.203,-1.082,-9.992,-0.969,261.536,266.09,True,0,1,0,0
2.151,2.686,0.004,compass,-4.767,-2.126,-152.476,-0.64,0.224,5.03,0.0,3.3852488991032668,-60.0,261.27,4.03,23234.891,False,-3.9351262683492627,-3.0060031832695793,3.74,-0.164,-1.082,-9.992,-0.885,261.27,265.136,True,0,1,0,0
2.195,2.35,0.069,compass,10.792,-1.679,-157.127,-0.491,-0.448,5.03,0.0,3.27655096241627,-60.0,261.022,4.03,23234.991,False,-3.956911036121866,-3.0175542660418957,3.74,-0.129,-1.082,-9.996,-0.885,261.022,265.136,True,0,1,0,0
2.189,1.679,0.133,compass,45.02,-1.007,-83.332,-0.355,-1.679,5.03,0.0,3.1854810293735145,-60.0,260.547,4.137,23235.091,False,-4.098461164102413,-3.1202413908109774,3.74,-0.051,-1.008,-9.992,-0.885,260.547,265.322,True,0,1,0,0
2.081,1.119,0.191,compass,60.961,-0.783,-27.348,-0.303,-2.014,5.11,0.0,3.124299082295017,-60.0,260.427,4.137,23235.191,False,-4.126370007196628,-3.1259418008792683,3.68,-0.012,-0.969,-9.918,-0.769,260.427,265.322,True,0,1,0,0
1.948,0.448,0.244,compass,42.529,0.112,8.822,-0.315,-2.238,5.11,2.19,2.7489241201299035,-60.0,260.324,4.042,23235.291,False,-4.016960382305919,-3.058732874722274,3.68,-0.012,-0.93,-9.914,-0.769,260.324,264.567,True,0,1,0,0
1.746,-0.112,0.289,compass,47.485,0.224,36.636,-0.345,-2.35,5.11,2.19,2.551480123226482,-60.0,260.28,4.042,23235.392,False,-3.907540158287671,-3.0607362524280397,3.68,-0.012,-0.891,-9.914,-0.769,260.28,264.567,True,0,1,0,0
1.514,-0.448,0.326,compass,104.294,0.224,51.237,-0.413,-3.021,5.53,2.627,2.6423050493593228,-60.0,260.251,4.009,23235.492,False,-3.5230481485862737,-3.0370518980445955,3.68,-0.012,-0.891,-9.914,-0.552,260.251,263.343,True,0,1,0,0
1.254,-0.783,0.354,compass,106.189,0.336,64.123,-0.514,-3.245,5.53,2.627,2.946455361576548,-60.0,260.235,4.009,23235.592,False,-3.1730445480196297,-3.0377706426750173,3.68,-0.012,-0.852,-9.957,-0.552,260.235,263.343,True,0,1,0,0
0.972,-1.007,0.372,compass,106.671,0.448,73.132,-0.642,-3.917,5.53,3.722,3.5468115677120133,-60.0,260.234,3.958,23235.692,False,-2.7565225162625846,-2.9995031483930563,3.68,-0.051,-0.816,-9.957,-0.552,260.234,261.82,True,0,1,0,0
0.671,-1.455,0.381,compass,109.09,0.448,81.773,-0.783,-3.805,6.35,3.722,4.155137953791011,-60.0,260.239,3.958,23235.792,False,-2.5107214439240284,-2.9992763106902993,3.68,-0.09,-0.777,-9.957,-0.221,260.239,261.82,True,0,1,0,0
0.361,-1.455,0.381,compass,108.317,0.56,88.775,-0.934,-4.252,6.35,4.419,4.865552487948134,-60.0,260.259,3.886,23235.892,False,-2.2798667218059943,-2.943889002523796,3.68,-0.129,-0.738,-9.957,-0.221,260.259,259.843,True,0,1,0,0
0.041,-1.231,0.37,compass,106.904,0.56,95.059,-1.086,-4.588,6.58,4.419,5.518350352666018,-60.0,260.305,3.886,23235.992,False,-2.1771762591171093,-2.941854970026617,3.68,-0.129,-0.625,-9.918,-0.083,260.305,259.843,True,0,1,0,0
-0.577,-1.119,0.342,compass,88.642,0.783,100.059,-1.365,-4.029,6.58,4.956,6.019599292004287,-60.0,260.424,3.904,23236.092,False,-2.113752029271334,-2.949804734750951,3.68,-0.129,-0.547,-9.953,-0.083,260.424,257.759,True,0,1,0,0
-0.906,-0.895,0.305,compass,87.737,0.783,103.763,-1.473,-4.476,6.52,4.956,6.456412738525687,-60.0,260.507,3.904,23236.192,False,-2.0429526757792837,-2.9460758213505804,3.7,-0.129,-0.434,-9.918,-0.105,260.507,257.759,True,0,1,0,0
-1.221,-0.783,0.259,compass,86.77,0.448,106.117,-1.565,-3.917,6.52,5.414,6.750406555051168,-60.0,260.597,3.561,23236.292,False,-1.784360567307229,-2.6842024255278227,3.7,-0.051,-0.242,-9.914,-0.105,260.597,254.358,True,0,1,0,0
-1.544,-0.671,0.205,compass,86.336,0.448,107.855,-1.633,-4.029,6.52,5.414,6.987836840613581,-60.0,260.682,3.561,23236.392,False,-1.7159805986017271,-2.6807217566207,3.7,-0.051,-0.125,-9.914,-0.105,260.682,254.358,True,0,1,0,0
-1.854,-0.671,0.143,compass,85.959,0.336,109.636,-1.673,-3.133,6.54,5.593,7.1072219902547324,-60.0,260.758,3.701,23236.492,False,-1.7511976317304627,-2.7828564754126526,3.7,-0.012,-0.012,-9.914,-0.088,260.758,253.523,True,0,1,0,0
-2.146,-0.448,0.074,compass,84.96,-0.448,110.984,-1.692,-3.021,6.54,5.593,7.18387115200234,-60.0,260.818,3.701,23236.592,False,-1.7228940521325047,-2.7802770165788364,3.7,0.027,0.105,-9.918,-0.088,260.818,253.523,True,0,1,0,0
-2.436,-0.783,-0.001,compass,86.162,-0.448,111.938,-1.676,-2.462,6.5,5.713,7.200194896368453,-60.0,260.894,3.559,23236.692,False,-1.630774838971159,-2.670561538818326,3.7,0.027,0.219,-9.875,-0.099,260.894,254.008,True,0,1,0,0
-2.665,-0.783,-0.081,compass,85.988,-0.895,112.925,-1.675,-1.902,6.5,5.713,7.1534164874053605,-60.0,260.914,3.559,23236.792,False,-1.621421899072939,-2.669742055346807,3.7,0.027,0.258,-9.836,-0.099,260.914,254.008,True,0,1,0,0
-2.845,-0.56,-0.164,compass,84.25,-1.567,115.147,-1.649,-0.224,6.5,5.553,6.951299903104996,-60.0,260.908,3.822,23236.892,False,-1.8176726183815652,-2.8668486451558333,3.7,0.027,0.336,-9.801,-0.099,260.908,254.89,True,0,1,0,0
-3.078,-0.56,-0.251,compass,83.399,-1.902,117.768,-1.588,1.119,6.46,5.553,6.664193942212185,-60.0,260.843,3.822,23236.992,False,-1.9256085702481298,-2.8697126583494703,3.7,0.027,0.297,-9.68,-0.102,260.843,254.89,True,0,1,0,0
-3.1,-0.448,-0.337,compass,82.643,-2.238,120.824,-1.551,1.455,6.46,4.897,6.333714310645686,-60.0,260.765,3.81,23237.092,False,-2.058541255510816,-2.8643954583372833,3.69,-0.012,0.336,-9.68,-0.102,260.765,257.556,True,0,1,0,0
-3.033,-0.336,-0.418,compass,80.376,-2.238,124.242,-1.515,2.574,6.39,4.897,5.982138145438202,-60.0,260.649,3.81,23237.192,False,-2.218935233069914,-2.8694705969387626,3.69,-0.012,0.258,-9.613,-0.127,260.649,257.556,True,0,1,0,0
-2.932,-0.112,-0.493,compass,76.856,-2.686,129.513,-1.462,2.686,6.39,3.762,5.57252720057134,-60.0,260.514,3.816,23237.292,False,-2.4773254975985344,-2.8797845386410734,3.69,-0.051,0.18,-9.57,-0.127,260.514,258.554,True,0,1,0,0
-2.725,0.0,-0.56,compass,68.173,-2.798,135.73,-1.425,4.141,6.39,3.762,5.1824745453040855,-60.0,260.336,3.816,23237.393,False,-2.760976114793684,-2.887527146706123,3.69,-0.051,0.105,-9.57,-0.127,260.336,258.554,True,0,1,0,0
-2.465,0.112,-0.617,compass,31.981,-2.686,143.488,-1.377,4.141,6.29,2.568,4.835017148376636,-60.0,260.143,3.756,23237.493,False,-3.031441151153056,-2.85020269610204,3.69,-0.051,-0.086,-9.609,-0.148,260.143,260.975,True,0,1,0,0
-2.172,0.224,-0.664,compass,-31.376,-2.574,149.591,-1.31,5.26,6.29,2.568,4.513893777257254,-60.0,259.949,3.756,23237.593,False,-3.242633461217576,-2.8584552435703463,3.69,-0.051,-0.125,-9.609,-0.148,259.949,260.975,True,0,1,0,0
-1.784,0.336,-0.697,compass,-85.915,-3.021,149.394,-1.248,4.7,6.35,0.0,3.927032808200189,-60.0,259.714,4.02,23237.693,False,-3.456545616074742,-3.0703168270879724,3.69,-0.051,-0.355,-9.723,-0.103,259.714,262.357,True,0,1,0,0
-1.366,0.448,-0.717,compass,-84.686,-2.798,77.161,-1.183,4.812,6.35,0.0,3.3715223645417107,-60.0,259.479,4.02,23237.793,False,-3.6744297695596004,-3.0809514758227077,3.69,-0.09,-0.434,-9.762,-0.103,259.479,262.357,True,0,1,0,0
-0.455,0.336,-0.71,compass,-86.347,-2.91,28.321,-1.062,5.26,6.35,0.0,2.938896748449051,-60.0,258.983,3.799,23237.893,False,-3.7242882117508733,-2.932123424453882,3.69,-0.051,-0.625,-9.875,-0.103,258.983,263.551,True,0,1,0,0
0.008,0.448,-0.688,compass,-84.143,-2.686,-10.819,-1.011,4.364,6.21,0.0,2.768012064220375,-60.0,258.748,3.799,23237.993,False,-3.7953333170317864,-2.9420087072981684,3.72,-0.051,-0.699,-9.957,-0.139,258.748,263.551,True,0,1,0,0
0.459,0.0,-0.654,compass,-90.0,-2.462,-40.642,-0.985,4.476,6.21,0.0,2.7516145989777376,-60.0,258.522,3.88,23238.093,False,-3.8632827859278183,-3.0149241071689135,3.72,-0.051,-0.816,-10.023,-0.139,258.522,263.25,True,0,1,0,0
0.897,-0.112,-0.607,compass,-91.736,-2.238,-65.575,-0.973,3.693,6.21,0.0,2.8299911223888756,-60.0,258.31,3.88,23238.193,False,-3.8244612419155835,-3.023916195013256,3.72,-0.09,-0.891,-10.062,-0.139,258.31,263.25,True,0,1,0,0
1.307,-0.224,-0.55,compass,-93.468,-1.902,-84.165,-0.983,3.693,5.57,0.0,2.8919906388145082,-60.0,258.114,3.54,23238.293,False,-3.4347956367589556,-2.7663863082864997,3.72,-0.129,-0.93,-10.062,-0.338,258.114,262.623,True,0,1,0,0
1.659,-0.224,-0.483,compass,-94.762,-2.014,-100.906,-0.999,2.686,5.57,0.0,2.974428767454568,-60.0,257.922,3.54,23238.393,False,-3.417642522887326,-2.773756520706038,3.72,-0.164,-0.969,-10.062,-0.338,257.922,262.623,True,0,1,0,0
1.956,-0.112,-0.41,compass,-92.489,-1.679,-114.902,-1.024,2.574,4.58,0.0,3.155045036402858,-60.0,257.756,4.001,23238.493,False,-3.8634515376870615,-3.141956235242793,3.72,-0.164,-1.008,-10.062,-0.799,257.756,262.769,True,0,1,0,0
2.19,0.0,-0.332,compass,-90.0,-1.343,-127.658,-1.052,1.567,4.58,0.0,3.3097096096067156,-60.0,257.6,4.001,23238.593,False,-3.8953429944491793,-3.148673995669771,3.72,-0.203,-1.008,-10.027,-0.799,257.6,262.769,True,0,1,0,0
2.385,0.448,-0.251,compass,-45.02,-1.343,-60.101,-1.093,0.448,4.58,0.0,3.4072393072677447,-60.0,257.45,3.876,23238.693,False,-3.81663773624369,-3.0570243593521034,3.72,-0.203,-1.043,-9.953,-0.799,257.45,262.714,True,0,1,0,0
2.559,0.56,-0.166,compass,11.319,-0.895,-7.732,-1.11,-0.112,4.37,0.0,3.4664364398798297,-60.0,257.166,3.876,23238.793,False,-3.845741241726712,-3.0687816074392376,3.72,-0.164,-1.082,-9.914,-0.789,257.166,262.714,True,0,1,0,0
2.562,0.783,-0.085,compass,45.023,-1.119,33.38,-1.088,-0.783,4.37,0.0,3.4495730300287493,-60.0,257.033,3.917,23238.893,False,-3.900127325945886,-3.106667470055389,3.72,-0.203,-1.082,-9.875,-0.789,257.033,262.362,True,0,1,0,0
2.513,1.119,-0.007,compass,50.217,-0.783,65.006,-1.042,-1.343,4.37,0.0,3.346547606158617,-60.0,256.901,3.917,23238.993,False,-3.910053215157657,-3.1121342419466083,3.78,-0.203,-1.121,-9.836,-0.789,256.901,262.362,True,0,1,0,0
2.396,1.231,0.065,compass,57.114,-0.336,88.597,-0.971,-1.902,4.39,0.0,3.170089898217325,-60.0,256.803,3.764,23239.093,False,-3.7630991731535244,-2.994049284058695,3.78,-0.203,-1.082,-9.836,-0.704,256.803,261.432,True,0,1,0,0
2.245,1.567,0.131,compass,57.545,-0.336,104.866,-0.909,-2.462,4.39,0.0,2.9830272176479915,-60.0,256.704,3.764,23239.193,False,-3.7577530763654265,-2.9979731952162663,3.78,-0.203,-1.082,-9.836,-0.704,256.704,261.432,True,0,1,0,0
2.063,1.567,0.189,compass,75.194,-0.112,101.835,-0.875,-3.133,4.39,2.528,2.7901337105781256,-60.0,256.594,3.911,23239.293,False,-3.623269339477376,-3.120177887120298,3.78,-0.164,-1.082,-9.875,-0.704,256.594,257.952,True,0,1,0,0
1.79,1.455,0.237,compass,77.044,0.56,100.17,-0.802,-3.805,4.33,2.528,2.841026326593937,-60.0,256.567,3.911,23239.394,False,-3.1588729627042795,-3.1212832309120206,3.78,-0.129,-1.043,-9.918,-0.653,256.567,257.952,True,0,1,0,0
1.498,1.455,0.275,compass,78.654,0.448,97.742,-0.74,-4.364,4.33,3.304,3.157687116956423,-60.0,256.531,3.853,23239.494,False,-2.5681382467799074,-3.076206841539875,3.78,-0.09,-0.969,-9.957,-0.653,256.531,257.197,True,0,1,0,0
1.174,1.007,0.302,compass,81.816,0.671,96.633,-0.688,-5.371,4.33,3.304,3.6013243942652253,-60.0,256.513,3.853,23239.594,False,-2.1090477903129665,-3.076931707763483,3.78,-0.012,-0.852,-9.996,-0.653,256.513,257.197,True,0,1,0,0
0.458,0.783,0.306,compass,82.936,0.56,95.853,-0.622,-5.148,4.23,4.22,4.158900248942823,-60.0,256.483,3.744,23239.694,False,-1.6732181808091726,-2.9911944064204357,3.78,-0.012,-0.816,-10.027,-0.621,256.483,255.956,True,0,1,0,0
0.09,0.336,0.3,compass,84.948,0.448,96.306,-0.625,-5.26,4.23,4.22,4.675695713853225,-60.0,256.478,3.744,23239.794,False,-1.4294309508686698,-2.9913707719510163,3.78,0.027,-0.66,-10.027,-0.621,256.478,255.956,True,0,1,0,0
-0.326,-0.224,0.281,compass,86.975,0.671,97.237,-0.645,-4.924,4.23,5.056,5.20937074454168,-60.0,256.494,3.843,23239.894,False,-1.3042634512753757,-3.0699624401915893,3.78,0.062,-0.434,-9.992,-0.621,256.494,251.996,True,0,1,0,0
-0.735,-0.56,0.251,compass,88.288,0.112,98.909,-0.689,-4.588,4.25,5.056,5.645393705292946,-60.0,256.514,3.843,23239.994,False,-1.235726509902685,-3.0691400912351465,3.78,0.102,-0.316,-10.023,-0.553,256.514,251.996,True,0,1,0,0
-1.114,-1.119,0.21,compass,90.071,-0.336,100.185,-0.764,-4.924,4.25,5.713,6.164437979828595,-60.0,256.533,3.787,23240.094,False,-1.1627009417068215,-3.0233799756104296,3.78,0.062,-0.125,-9.953,-0.553,256.533,249.989,True,0,1,0,0
-1.492,-1.567,0.159,compass,91.829,-0.448,102.096,-0.858,-4.141,4.25,5.713,6.530168501418604,-60.0,256.557,3.787,23240.194,False,-1.1776333026529793,-3.0224141058590597,3.78,0.062,-0.047,-9.918,-0.553,256.557,249.989,True,0,1,0,0
-1.856,-1.79,0.098,compass,92.741,-0.448,104.223,-0.981,-3.133,4.14,5.852,6.769332077197681,-60.0,256.576,3.682,23240.294,False,-1.1948135762568317,-2.9378996466093596,3.78,0.027,0.066,-9.84,-0.534,256.576,250.141,True,0,1,0,0
-2.183,-2.014,0.03,compass,93.849,-0.783,106.592,-1.124,-2.462,4.14,5.852,6.916974619161146,-60.0,256.62,3.682,23240.394,False,-1.2775563015452565,-2.9361935838981204,3.78,0.027,0.105,-9.762,-0.534,256.62,250.141,True,0,1,0,0
-2.463,-2.238,-0.045,compass,95.235,-0.783,109.397,-1.287,-1.007,4.19,5.952,6.922716225619773,-60.0,256.643,3.662,23240.494,False,-1.3903126051172103,-2.9197995692072274,3.78,-0.012,0.18,-9.684,-0.456,256.643,249.704,True,0,1,0,0
-2.851,-2.35,-0.129,compass,96.109,-0.783,112.242,-1.631,-0.336,4.19,5.952,6.883642295677258,-60.0,256.674,3.662,23240.594,False,-1.5210223702203294,-2.918606650886915,3.78,-0.051,0.18,-9.641,-0.456,256.674,249.704,True,0,1,0,0
-2.978,-2.238,-0.215,compass,96.485,-0.895,115.179,-1.78,0.112,4.19,5.613,6.7811635462934445,-60.0,256.686,3.633,23240.694,False,-1.6483574896050275,-2.8949036689618923,3.78,-0.09,0.145,-9.613,-0.41,256.686,251.233,True,0,1,0,0
-3.033,-1.902,-0.299,compass,95.056,-0.895,118.189,-1.906,1.007,4.19,5.613,6.621425397085517,-60.0,256.682,3.633,23240.795,False,-1.7941267722129208,-2.895074436138292,3.78,-0.164,0.145,-9.609,-0.41,256.682,251.233,True,0,1,0,0
-2.995,-1.455,-0.38,compass,75.797,-1.231,121.602,-2.016,1.455,4.19,4.837,6.258565910682196,-60.0,256.626,3.546,23240.895,False,-1.9131150085300959,-2.82744989061033,3.78,-0.164,0.066,-9.613,-0.41,256.626,252.52,True,0,1,0,0
-2.807,-0.448,-0.527,compass,63.918,-1.343,128.293,-2.119,2.35,4.14,3.862,5.471257139022212,-60.0,256.516,3.563,23241.095,False,-2.2354324195662256,-2.84551251310995,3.78,-0.203,-0.012,-9.68,-0.386,256.516,253.356,True,0,1,0,0
-2.807,-0.448,-0.527,compass,63.918,-1.343,128.293,-2.119,2.35,4.14,3.862,5.471257139022212,-60.0,256.516,3.563,23241.095,False,-2.2354324195662256,-2.84551251310995,3.78,-0.203,-0.012,-9.68,-0.386,256.516,253.356,True,0,1,0,0
-2.429,0.895,-0.646,compass,23.399,-0.783,136.892,-2.058,3.581,4.17,2.767,4.651599715345199,-60.0,256.373,3.612,23241.295,False,-2.6473537910928533,-2.8897504463222914,3.78,-0.203,-0.086,-9.801,-0.333,256.373,254.177,True,0,1,0,0
-2.429,0.895,-0.646,compass,23.399,-0.783,136.892,-2.058,3.581,4.17,2.767,4.651599715345199,-60.0,256.373,3.612,23241.295,False,-2.6473537910928533,-2.8897504463222914,3.78,-0.203,-0.086,-9.801,-0.333,256.373,254.177,True,0,1,0,0
-1.584,1.455,-0.718,compass,-69.622,-0.56,142.602,-1.731,3.917,4.04,0.0,3.7388671447102326,-60.0,256.152,3.668,23241.496,False,-2.913748352579852,-2.94333296284938,3.78,-0.164,-0.242,-9.914,-0.365,256.152,255.394,True,0,1,0,0
-1.584,1.455,-0.718,compass,-69.622,-0.56,142.602,-1.731,3.917,4.04,0.0,3.7388671447102326,-60.0,256.152,3.668,23241.496,False,-2.913748352579852,-2.94333296284938,3.78,-0.164,-0.242,-9.914,-0.365,256.152,255.394,True,0,1,0,0
-0.924,1.567,-0.74,compass,-69.271,-1.231,79.589,-1.408,4.141,4.06,0.0,2.8112689519663636,-60.0,255.989,3.69,23241.696,False,-3.4360627577850704,-2.9667400301802416,3.88,-0.051,-0.434,-9.992,-0.322,255.989,258.099,True,0,1,0,0
-0.924,1.567,-0.74,compass,-69.271,-1.231,79.589,-1.408,4.141,4.06,0.0,2.8112689519663636,-60.0,255.989,3.69,23241.696,False,-3.4360627577850704,-2.9667400301802416,3.88,-0.051,-0.434,-9.992,-0.322,255.989,258.099,True,0,1,0,0
-0.239,1.567,-0.721,compass,-68.195,-1.119,-11.229,-1.051,3.917,4.06,0.0,2.4477995046887373,-60.0,255.809,3.711,23241.896,False,-3.708020575012398,-2.990833777404193,3.88,-0.012,-0.625,-10.023,-0.322,255.809,260.066,True,0,1,0,0
-0.239,1.567,-0.721,compass,-68.195,-1.119,-11.229,-1.051,3.917,4.06,0.0,2.4477995046887373,-60.0,255.809,3.711,23241.896,False,-3.708020575012398,-2.990833777404193,3.88,-0.012,-0.625,-10.023,-0.322,255.809,260.066,True,0,1,0,0
0.404,0.895,-0.663,compass,-75.529,-1.231,-67.534,-0.764,3.469,4.23,0.0,2.4460788902414263,-60.0,255.582,3.629,23242.097,False,-3.592507110602545,-2.9335360476781163,3.88,0.027,-0.777,-9.953,-0.233,255.582,262.891,True,0,1,0,0
0.404,0.895,-0.663,compass,-75.529,-1.231,-67.534,-0.764,3.469,4.23,0.0,2.4460788902414263,-60.0,255.582,3.629,23242.097,False,-3.592507110602545,-2.9335360476781163,3.88,0.027,-0.777,-9.953,-0.233,255.582,262.891,True,0,1,0,0
1.182,-0.112,-0.568,compass,-94.085,-1.007,-107.851,-0.557,1.567,5.07,0.0,2.7587083171249764,-60.0,255.222,3.869,23242.297,False,-3.8267958737612435,-3.1410536084899485,3.88,-0.012,-0.852,-9.879,0.062,255.222,260.368,True,0,1,0,0
1.341,-0.336,-0.511,compass,-102.092,-1.119,-122.059,-0.542,1.567,5.07,0.0,2.948405816973641,-60.0,255.11,3.869,23242.397,False,-3.829547104956914,-3.1454496430194325,3.88,-0.051,-0.891,-9.84,0.062,255.11,260.368,True,0,1,0,0
1.449,-0.336,-0.452,compass,-126.862,-0.783,-55.646,-0.569,0.448,5.07,0.0,3.114155380741347,-60.0,255.013,3.744,23242.497,False,-3.7217662956987043,-3.047992009879027,3.88,-0.051,-0.93,-9.84,0.062,255.013,259.688,True,0,1,0,0
1.501,-0.448,-0.393,compass,-134.992,-0.671,-82.888,-0.614,0.448,6.37,0.0,3.2571665739575635,-60.0,254.919,3.744,23242.597,False,-3.730351037190855,-3.051529089953976,3.88,-0.051,-0.93,-9.879,0.5,254.919,259.688,True,0,1,0,0
1.518,-0.448,-0.336,compass,143.122,-1.007,-25.259,-0.671,-0.336,6.37,0.0,3.3336951062368994,-60.0,254.922,3.836,23242.697,False,-3.8276883003339965,-3.1258794821103555,3.91,-0.09,-0.891,-9.875,0.5,254.922,258.792,True,0,1,0,0
1.501,-0.336,-0.281,compass,120.957,-0.783,19.104,-0.73,-0.56,6.37,0.0,3.366264603213487,-60.0,254.955,3.836,23242.797,False,-3.832917096537195,-3.1246061079899,3.91,-0.09,-0.891,-9.836,0.5,254.955,258.792,True,0,1,0,0
1.455,-0.336,-0.229,compass,104.033,-0.783,52.812,-0.797,-1.343,7.68,0.0,3.3064957392787178,-60.0,254.858,3.789,23242.898,False,-3.7888496916455163,-3.09032568766597,3.91,-0.09,-0.891,-9.875,0.879,254.858,257.651,True,0,1,0,0
1.364,-0.112,-0.181,compass,94.085,-1.231,78.072,-0.854,-1.567,7.68,0.0,3.2724943213472413,-60.0,254.743,3.789,23242.998,False,-3.7840698706039166,-3.094703104799249,3.91,-0.09,-0.891,-9.953,0.879,254.743,257.651,True,0,1,0,0
1.212,0.112,-0.139,compass,77.503,-1.231,85.88,-0.875,-2.462,7.68,2.03,3.1471041366458663,-60.0,254.625,3.493,23243.098,False,-3.3417157113927476,-2.857487936894112,3.91,-0.09,-0.891,-9.992,0.879,254.625,257.388,True,0,1,0,0
1.042,0.112,-0.104,compass,78.346,-1.455,91.84,-0.898,-2.91,10.89,2.03,3.1640325228615334,-60.0,254.498,3.493,23243.198,False,-3.08289636323859,-2.8619469820067325,3.91,-0.09,-0.852,-10.023,1.882,254.498,257.388,True,0,1,0,0
0.659,0.224,-0.081,compass,76.702,-1.343,95.103,-0.931,-3.133,10.89,2.747,3.3232401529677684,-60.0,254.224,3.524,23243.298,False,-2.7688477830543707,-2.8970720072796206,3.91,-0.09,-0.852,-10.023,1.882,254.224,254.586,True,0,1,0,0
0.404,0.224,-0.067,compass,77.224,-1.343,97.953,-0.927,-3.469,10.89,2.747,3.532731166205111,-60.0,254.079,3.524,23243.398,False,-2.4593638694021034,-2.9021289914569293,3.91,-0.051,-0.777,-10.027,1.882,254.079,254.586,True,0,1,0,0
0.166,-0.112,-0.06,compass,78.701,-1.902,99.731,-0.936,-3.805,12.52,3.463,3.886268745532073,-60.0,253.913,3.703,23243.498,False,-2.275756577193001,-3.0554790289521137,3.91,-0.051,-0.699,-9.996,2.234,253.913,253.858,True,0,1,0,0
-0.117,0.112,-0.061,compass,76.875,-1.902,101.892,-0.936,-3.357,12.52,3.463,4.164063130955098,-60.0,253.743,3.703,23243.598,False,-2.0573135913870657,-3.0616550700340057,3.88,-0.012,-0.625,-9.996,2.234,253.743,253.858,True,0,1,0,0
-0.369,-0.336,-0.07,compass,85.793,-1.79,103.091,-0.952,-3.917,16.75,4.041,4.5572540720165815,-60.0,253.558,3.699,23243.699,False,-1.849495164688664,-3.0651698818457382,3.88,-0.012,-0.547,-9.914,4.06,253.558,251.337,True,0,1,0,0
-0.625,-0.336,-0.087,compass,85.62,-2.126,104.869,-0.975,-3.469,16.75,4.041,4.864845306073497,-60.0,253.372,3.699,23243.799,False,-1.7317393065526998,-3.071866390715984,3.88,0.027,-0.434,-9.875,4.06,253.372,251.337,True,0,1,0,0
-0.881,-0.336,-0.111,compass,85.301,-2.126,106.163,-0.989,-3.469,16.75,4.479,5.211117445034094,-60.0,253.181,3.697,23243.899,False,-1.631815883939318,-3.0771021721907053,3.88,-0.012,-0.355,-9.758,4.06,253.181,250.899,True,0,1,0,0
-1.133,-0.56,-0.142,compass,86.255,-2.238,107.797,-1.008,-3.021,20.55,4.479,5.464808926091125,-60.0,253.0,3.697,23243.999,False,-1.5904295312340115,-3.083573301506241,3.88,-0.051,-0.242,-9.758,4.947,253.0,250.899,True,0,1,0,0
-1.594,-0.56,-0.185,compass,85.591,-2.686,109.981,-1.051,-1.79,20.55,4.717,5.607663126191475,-60.0,252.608,3.777,23244.099,False,-1.6359739221761342,-3.1642422512051422,3.88,-0.051,-0.164,-9.758,4.947,252.608,250.163,True,0,1,0,0
-1.795,-0.448,-0.233,compass,85.031,-2.91,111.75,-1.074,-1.902,23.54,4.717,5.746697021519031,-60.0,252.375,3.777,23244.199,False,-1.6560428334655928,-3.1725765068352283,3.88,-0.012,-0.047,-9.758,5.965,252.375,250.163,True,0,1,0,0
-1.976,-0.448,-0.286,compass,84.441,-2.91,113.776,-1.095,-0.895,23.54,4.817,5.8212539947906645,-60.0,252.133,3.849,23244.3,False,-1.7417642392285853,-3.241792027461007,3.88,-0.012,-0.012,-9.801,5.965,252.133,252.078,True,0,1,0,0
-2.106,-0.336,-0.34,compass,83.856,-3.357,115.305,-1.118,-1.007,23.54,4.817,5.899187724041936,-60.0,251.855,3.849,23244.4,False,-1.7790841133394093,-3.2518195646147645,3.88,-0.051,-0.012,-9.797,5.965,251.855,252.078,True,0,1,0,0
-2.194,-0.224,-0.396,compass,82.241,-3.245,116.92,-1.12,0.224,27.14,4.817,5.824115753320377,-60.0,251.575,3.612,23244.5,False,-1.719984917647641,-3.0608597976697225,3.81,-0.012,-0.012,-9.801,6.548,251.575,252.17,True,0,1,0,0
-2.217,-0.112,-0.451,compass,81.617,-3.693,118.058,-1.126,0.112,27.14,4.797,5.775200594989288,-60.0,251.265,3.612,23244.6,False,-1.7510781200176304,-3.0712003555425658,3.81,-0.012,-0.012,-9.801,6.548,251.265,252.17,True,0,1,0,0
-2.212,-0.112,-0.503,compass,79.807,-3.581,121.162,-1.119,1.567,27.14,4.339,5.565956636601207,-60.0,251.09,3.742,23244.7,False,-1.969754754092007,-3.187943796709493,3.81,-0.012,-0.047,-9.801,6.548,251.09,252.897,True,0,1,0,0
-2.164,-0.224,-0.553,compass,79.881,-3.917,124.128,-1.099,1.343,27.97,3.941,5.3611253772258625,-60.0,250.919,3.742,23244.8,False,-2.1174976145100097,-3.193790279356438,3.81,-0.012,-0.086,-9.797,6.177,250.919,252.897,True,0,1,0,0
-2.052,0.0,-0.598,compass,74.359,-4.141,128.159,-1.074,2.462,27.97,3.663,5.076798156385899,-60.0,250.696,3.647,23244.9,False,-2.2575452708936417,-3.119857297102467,3.81,-0.051,-0.164,-9.758,6.177,250.696,253.161,True,0,1,0,0
-1.905,0.112,-0.637,compass,55.628,-4.141,133.143,-1.046,3.133,27.97,3.205,4.765195938266839,-60.0,250.448,3.647,23245.0,False,-2.487958020804266,-3.128014577393104,3.81,-0.051,-0.203,-9.758,6.177,250.448,253.161,True,0,1,0,0
-1.481,0.224,-0.663,compass,51.32,-4.588,138.168,-0.959,2.798,28.09,2.707,4.517250225341135,-60.0,249.864,3.816,23245.1,False,-2.818628498818302,-3.2928847954511737,3.81,-0.051,-0.355,-9.762,5.599,249.864,252.571,True,0,1,0,0
-1.208,0.112,-0.679,compass,35.082,-4.252,143.596,-0.93,3.581,28.09,2.588,4.298132880109751,-60.0,249.504,3.816,23245.2,False,-3.0429196765507545,-3.304953330167967,3.81,-0.09,-0.395,-9.762,5.599,249.504,252.571,True,0,1,0,0
-0.914,0.112,-0.686,compass,41.096,-4.364,147.219,-0.905,3.021,27.94,2.349,4.123130205348918,-60.0,249.141,3.822,23245.3,False,-3.1826055100172757,-3.322027469572443,3.81,-0.09,-0.547,-9.801,4.964,249.141,255.192,True,0,1,0,0
-0.593,0.112,-0.683,compass,-16.63,-4.252,148.904,-0.888,3.693,27.94,2.03,3.8935462895125674,-60.0,248.759,3.822,23245.4,False,-3.2394295063571588,-3.334567482072497,3.81,-0.051,-0.625,-9.801,4.964,248.759,255.192,True,0,1,0,0
-0.27,-0.112,-0.671,compass,-92.203,-4.252,151.498,-0.878,2.91,27.97,0.0,3.584700821933088,-60.0,248.355,3.929,23245.5,False,-3.4174211658309344,-3.441301362234953,3.75,-0.051,-0.66,-9.801,4.483,248.355,255.686,True,0,1,0,0
0.066,-0.112,-0.649,compass,-91.909,-4.029,156.691,-0.882,3.357,27.97,0.0,3.2606649392100584,-60.0,247.941,3.929,23245.601,False,-3.5762840632911104,-3.4549150674005698,3.75,-0.012,-0.699,-9.836,4.483,247.941,255.686,True,0,1,0,0
0.393,-0.112,-0.618,compass,-92.49,-4.364,83.418,-0.886,2.574,27.97,0.0,3.097736666546032,-60.0,247.511,3.775,23245.701,False,-3.5770182706621214,-3.333249470478305,3.75,-0.012,-0.738,-9.84,4.034,247.511,255.495,True,0,1,0,0
0.702,-0.224,-0.578,compass,-94.399,-4.252,28.072,-0.877,2.91,27.97,0.0,2.9966527891943775,-60.0,247.102,3.775,23245.801,False,-3.6887576432878744,-3.3458365519651783,3.75,-0.012,-0.777,-9.879,4.034,247.102,255.495,True,0,1,0,0
0.998,-0.224,-0.531,compass,-95.71,-4.476,-15.496,-0.872,2.238,27.97,0.0,3.0622683102646278,-60.0,246.68,3.972,23245.901,False,-3.9355201732286282,-3.5332801672933174,3.75,-0.051,-0.852,-9.914,4.034,246.68,252.892,True,0,1,0,0
1.451,-0.224,-0.471,compass,-98.744,-4.476,-50.857,-0.85,1.455,28.14,0.0,3.1816247238553697,-60.0,245.822,3.972,23246.001,False,-3.9506677641808534,-3.560035944733747,3.75,-0.051,-0.852,-9.953,3.687,245.822,252.892,True,0,1,0,0
1.617,-0.112,-0.409,compass,-94.397,-4.812,-78.136,-0.822,1.455,28.14,0.0,3.2601027908506035,-60.0,245.378,3.806,23246.101,False,-3.7979103746676666,-3.42489008863851,3.75,-0.051,-0.891,-10.023,3.687,245.378,251.948,True,0,1,0,0
1.757,0.0,-0.344,compass,-90.0,-4.924,-21.556,-0.792,0.783,28.14,0.0,3.3502161186763324,-60.0,244.931,3.806,23246.201,False,-3.7992106380968345,-3.437752006130068,3.75,-0.09,-0.93,-10.062,3.687,244.931,251.948,True,0,1,0,0
1.848,0.112,-0.278,compass,-82.878,-5.036,-56.374,-0.748,0.895,28.6,0.0,3.4356656171796067,-60.0,244.501,3.878,23246.301,False,-3.8727832706090974,-3.5151227405992387,3.75,-0.09,-0.969,-10.105,3.472,244.501,251.467,True,0,1,0,0
1.9,0.112,-0.213,compass,0.0,-4.812,-5.852,-0.715,0.0,28.6,0.0,3.5249616975727367,-60.0,244.125,3.878,23246.401,False,-3.8682108906864006,-3.525804111158205,3.72,-0.051,-0.969,-10.145,3.472,244.125,251.467,True,0,1,0,0
1.915,0.224,-0.149,compass,-45.014,-5.371,34.245,-0.702,0.224,28.73,0.0,3.6034333058014543,-60.0,243.81,3.987,23246.501,False,-3.9762364809946584,-3.633829665135307,3.72,-0.051,-0.969,-10.145,3.19,243.81,249.301,True,0,1,0,0
1.906,0.0,-0.087,compass,90.0,-5.036,65.077,-0.69,-0.112,28.73,2.03,3.675156451740313,-60.0,243.475,3.917,23246.601,False,-3.9732332861477175,-3.64337587719774,3.72,-0.012,-0.93,-10.062,3.19,243.475,248.224,True,0,1,0,0
1.877,-0.112,-0.028,compass,64.705,-5.036,89.121,-0.679,-0.783,28.73,2.03,3.205912404143219,-60.0,243.089,3.917,23246.701,False,-3.900645074105118,-3.590059925093164,3.72,-0.012,-0.93,-10.062,2.871,243.089,248.224,True,0,1,0,0
1.813,-0.336,0.027,compass,70.718,-5.595,99.779,-0.672,-1.679,28.73,2.329,2.8171211026024423,-60.0,242.678,3.956,23246.801,False,-3.8048584315017675,-3.6012016018610984,3.72,-0.012,-0.93,-9.914,2.871,242.678,246.555,True,0,1,0,0
1.656,-0.56,0.076,compass,70.614,-5.148,107.087,-0.705,-1.231,28.73,2.329,2.647726299340229,-60.0,241.845,3.956,23246.901,False,-3.6753961418704373,-3.6591846360573257,3.72,-0.012,-0.891,-9.875,2.871,241.845,246.555,True,0,1,0,0
1.558,-0.895,0.12,compass,74.762,-5.483,109.553,-0.742,-1.902,28.86,2.667,2.6395341090790057,-60.0,241.402,3.814,23247.001,False,-3.3963034145291275,-3.670707685192659,3.72,-0.012,-0.852,-9.762,2.627,241.402,245.038,True,0,1,0,0
1.459,-0.895,0.161,compass,73.41,-5.148,111.881,-0.795,-1.567,28.86,2.667,2.701934231766286,-60.0,240.962,3.814,23247.101,False,-3.0229948919220258,-3.549856083794055,3.72,-0.012,-0.852,-9.68,2.627,240.962,245.038,True,0,1,0,0
1.371,-1.007,0.197,compass,74.231,-5.26,112.4,-0.847,-2.014,28.86,3.185,2.8764594514967277,-60.0,240.522,4.137,23247.201,False,-2.7383811699743195,-3.560470507164375,3.69,-0.051,-0.852,-9.609,2.627,240.522,245.21,True,0,1,0,0
1.282,-1.007,0.229,compass,71.602,-5.036,114.437,-0.9,-1.343,28.82,3.185,3.106910505709691,-60.0,240.087,4.137,23247.301,False,-2.7905228751819173,-3.87284233247653,3.69,-0.051,-0.816,-9.57,2.351,240.087,245.21,True,0,1,0,0
1.187,-1.007,0.258,compass,72.219,-4.924,114.989,-0.966,-1.902,28.82,3.444,3.392545043521406,-60.0,239.672,4.045,23247.401,False,-2.586140237211466,-3.8832807864272882,3.69,-0.09,-0.816,-9.609,2.351,239.672,244.138,True,0,1,0,0
1.1,-0.895,0.283,compass,70.452,-4.7,115.824,-1.02,-1.567,28.82,3.444,3.6153875709972163,-60.0,239.261,4.045,23247.501,False,-2.388939426710995,-3.807427884752223,3.69,-0.129,-0.816,-9.684,2.351,239.261,244.138,True,0,1,0,0
1.016,-0.56,0.305,compass,68.036,-4.7,115.635,-1.07,-1.79,27.94,3.702,3.868398791743757,-60.0,238.865,3.635,23247.602,False,-2.2278953542899207,-3.8167762256950013,3.69,-0.164,-0.816,-9.762,1.823,238.865,242.178,True,0,1,0,0
0.927,-0.112,0.324,compass,64.857,-4.476,114.603,-1.101,-1.679,27.94,3.702,4.015178938449424,-60.0,238.461,3.635,23247.702,False,-1.8372608735897518,-3.438195686812664,3.69,-0.164,-0.777,-9.875,1.823,238.461,242.178,True,0,1,0,0
0.755,0.224,0.337,compass,61.224,-4.476,113.7,-1.128,-1.231,27.94,3.862,4.131850320883421,-60.0,237.642,3.74,23247.802,False,-1.6813905288330688,-3.454727793054715,3.69,-0.164,-0.777,-9.992,1.823,237.642,240.774,True,0,1,0,0
0.669,0.56,0.347,compass,60.687,-4.476,112.578,-1.113,-1.679,26.02,3.862,4.264166774571699,-60.0,237.227,3.74,23247.902,False,-1.5959051902316879,-3.5628243178724355,3.69,-0.164,-0.777,-10.062,0.997,237.227,240.774,True,0,1,0,0
0.587,0.56,0.354,compass,58.816,-4.141,112.165,-1.078,-1.119,26.02,3.842,4.317418894529697,-60.0,236.828,3.744,23248.002,False,-1.517996835168599,-3.570655934845859,3.69,-0.129,-0.699,-10.145,0.997,236.828,239.394,True,0,1,0,0
0.507,0.783,0.359,compass,57.916,-4.252,111.52,-1.038,-1.231,26.02,3.842,4.3552035878211175,-60.0,236.433,3.744,23248.102,False,-1.4388652932506192,-3.5819692925843287,3.69,-0.129,-0.66,-10.105,0.997,236.433,239.394,True,0,1,0,0
0.437,0.783,0.361,compass,57.916,-4.588,110.895,-0.996,-1.231,25.38,3.862,4.381269498817717,-60.0,236.054,3.766,23248.202,False,-1.368675836423918,-3.58911202061831,3.64,-0.09,-0.586,-10.105,0.684,236.054,238.823,True,0,1,0,0
0.367,0.56,0.361,compass,57.996,-4.029,110.844,-0.939,-0.895,25.38,3.862,4.3661131965083,-60.0,235.684,3.766,23248.302,False,-1.3483558368573192,-3.6164548209827267,3.64,-0.051,-0.547,-10.066,0.684,235.684,238.823,True,0,1,0,0
0.297,0.448,0.359,compass,78.97,-4.252,111.525,-0.883,-1.007,25.38,3.762,4.403964777822819,-60.0,235.336,3.711,23248.402,False,-1.3715451318988539,-3.622758859699511,3.64,-0.051,-0.508,-9.953,0.684,235.336,236.87,True,0,1,0,0
0.182,-0.224,0.35,compass,83.013,-3.693,115.747,-0.811,-0.112,25.23,3.643,4.392361407782626,-60.0,234.667,3.711,23248.602,False,-1.5790921099385027,-3.581969925818204,3.64,0.027,-0.508,-9.758,0.566,234.667,236.87,True,0,1,0,0
0.182,-0.224,0.35,compass,83.013,-3.693,115.747,-0.811,-0.112,25.23,3.643,4.392361407782626,-60.0,234.667,3.734,23248.602,False,-1.5790921099385027,-3.581969925818204,3.64,0.027,-0.508,-9.758,0.566,234.667,237.228,True,0,1,0,0
0.083,-0.448,0.335,compass,84.561,-4.029,120.795,-0.826,0.448,25.19,3.523,4.4471007087457695,-60.0,233.701,3.734,23248.802,False,-1.8563373155489988,-3.620438317978515,3.64,-0.012,-0.508,-9.641,0.489,233.701,237.228,True,0,1,0,0
0.099,-0.448,0.328,compass,84.479,-4.029,123.562,-0.847,0.56,25.19,3.503,4.461397403756566,-60.0,233.346,3.773,23248.902,False,-2.0282421963201185,-3.663784368409995,3.64,-0.051,-0.508,-9.609,0.489,233.346,236.081,True,0,1,0,0
0.118,-0.448,0.322,compass,84.367,-3.805,126.689,-0.877,0.895,25.17,3.304,4.444467653655949,-60.0,232.979,3.773,23249.002,False,-2.1957516143713205,-3.6694937124759575,3.64,-0.051,-0.547,-9.641,0.434,232.979,236.081,True,0,1,0,0
0.16,-0.448,0.317,compass,84.391,-4.364,128.991,-0.91,0.895,25.17,3.284,4.403345344696964,-60.0,232.596,3.589,23249.102,False,-2.20103928625583,-3.495408993992811,3.64,-0.051,-0.547,-9.641,0.434,232.596,235.196,True,0,1,0,0
0.211,-0.56,0.314,compass,86.109,-4.476,130.933,-0.938,0.671,25.17,3.125,4.3806749170338035,-60.0,232.197,3.589,23249.202,False,-2.293145171276013,-3.5009831041428403,3.61,-0.051,-0.547,-9.723,0.434,232.197,235.196,True,0,1,0,0
0.277,-0.336,0.312,compass,74.179,-4.252,133.753,-0.966,1.119,25.15,3.085,4.303038692848697,-60.0,231.797,3.674,23249.302,False,-2.4818944161289394,-3.5899665859321535,3.61,-0.051,-0.547,-9.762,0.384,231.797,231.288,True,0,1,0,0
0.354,-0.336,0.314,compass,74.585,-4.364,135.991,-0.975,1.007,25.15,2.966,4.230115856927528,-60.0,231.392,3.674,23249.402,False,-2.5840389929406244,-3.595406162782169,3.61,-0.051,-0.586,-9.836,0.384,231.392,231.288,True,0,1,0,0
0.354,-0.336,0.314,compass,74.585,-4.364,135.991,-0.975,1.007,25.15,2.966,4.230115856927528,-60.0,231.392,3.699,23249.402,False,-2.5840389929406244,-3.595406162782169,3.61,-0.051,-0.586,-9.836,0.384,231.392,232.544,True,0,1,0,0
0.633,-0.336,0.327,compass,73.766,-4.476,138.947,-0.992,1.231,25.15,2.906,4.130445528523177,-60.0,230.245,3.699,23249.603,False,-2.7199569812436235,-3.6346651754101815,3.61,-0.051,-0.586,-9.953,0.345,230.245,232.544,True,0,1,0,0
0.633,-0.336,0.327,compass,73.766,-4.476,138.947,-0.992,1.231,25.15,2.866,4.130445528523177,-60.0,230.245,3.758,23249.603,False,-2.7199569812436235,-3.6346651754101815,3.61,-0.051,-0.586,-9.953,0.345,230.245,233.634,True,0,1,0,0
0.837,-0.448,0.354,compass,72.922,-4.141,141.468,-1.015,1.79,25.11,2.826,4.066612366145755,-60.0,229.521,3.758,23249.803,False,-2.8777405503865214,-3.7005182367474347,3.61,-0.051,-0.66,-9.953,0.291,229.521,233.634,True,0,1,0,0
0.837,-0.448,0.354,compass,72.922,-4.141,141.468,-1.015,1.79,25.11,2.826,4.066612366145755,-60.0,229.521,3.664,23249.803,False,-2.8777405503865214,-3.7005182367474347,3.61,-0.051,-0.66,-9.953,0.291,229.521,232.396,True,0,1,0,0
1.044,-0.336,0.392,compass,72.214,-4.029,143.134,-1.03,1.567,24.83,2.767,3.967550471825988,-60.0,228.843,3.664,23250.003,False,-2.8781713951269143,-3.6159067301009675,3.61,-0.09,-0.738,-9.996,0.167,228.843,232.396,True,0,1,0,0
1.044,-0.336,0.392,compass,72.214,-4.029,143.134,-1.03,1.567,24.83,2.767,3.967550471825988,-60.0,228.843,3.869,23250.003,False,-2.8781713951269143,-3.6159067301009675,3.64,-0.09,-0.738,-9.996,0.167,228.843,233.369,True,0,1,0,0
1.212,-0.224,0.438,compass,73.129,-4.141,143.104,-1.029,1.007,24.83,2.787,4.010266967776965,-60.0,228.221,3.869,23250.204,False,-3.041712594965203,-3.823919690246885,3.64,-0.09,-0.777,-9.996,0.167,228.221,233.369,True,0,1,0,0
1.212,-0.224,0.438,compass,73.129,-4.141,143.104,-1.029,1.007,24.83,2.787,4.010266967776965,-60.0,228.221,3.793,23250.204,False,-3.041712594965203,-3.823919690246885,3.64,-0.09,-0.777,-9.996,0.167,228.221,231.515,True,0,1,0,0
1.335,0.336,0.49,compass,70.107,-4.588,140.452,-0.972,0.112,23.35,2.826,4.04840146318471,-60.0,227.541,3.793,23250.404,False,-2.8715848340262498,-3.755530319958791,3.64,-0.129,-0.852,-9.996,-0.318,227.541,231.515,True,0,1,0,0
1.397,0.56,0.517,compass,66.872,-4.812,138.968,-0.853,0.336,23.35,2.826,4.01755576851338,-60.0,226.767,3.602,23250.504,False,-2.651432890117688,-3.5733597647037794,3.64,-0.129,-0.816,-9.992,-0.318,226.767,230.233,True,0,1,0,0
1.416,0.783,0.544,compass,65.728,-5.148,137.098,-0.775,0.112,22.64,2.866,4.007162529948663,-60.0,226.343,3.602,23250.604,False,-2.5711393026424703,-3.576627247314855,3.64,-0.09,-0.852,-9.996,-0.538,226.343,230.233,True,0,1,0,0
1.426,0.56,0.57,compass,67.452,-4.812,136.072,-0.717,0.224,22.64,2.866,4.002368674089256,-60.0,225.928,3.705,23250.704,False,-2.5986239151422454,-3.6820251516065023,3.64,-0.051,-0.852,-9.953,-0.538,225.928,230.143,True,0,1,0,0
1.425,0.448,0.596,compass,72.068,-4.812,133.724,-0.685,-0.783,22.64,2.966,4.0758980273593535,-60.0,225.503,3.705,23250.804,False,-2.48853854381817,-3.6849981172399504,3.64,-0.051,-0.852,-9.914,-0.538,225.503,230.143,True,0,1,0,0
1.412,-0.112,0.62,compass,75.72,-4.141,133.404,-0.664,-0.224,21.96,2.966,4.100615171531574,-60.0,225.118,3.81,23250.904,False,-2.545055872937122,-3.7919889761204444,3.64,-0.012,-0.852,-9.84,-0.711,225.118,228.045,True,0,1,0,0
1.405,-0.448,0.644,compass,85.881,-4.364,132.615,-0.684,-0.56,21.96,3.105,4.19381935022226,-60.0,224.753,3.81,23251.004,False,-2.507974745205351,-3.7942832600229384,3.64,-0.012,-0.816,-9.801,-0.711,224.753,228.045,True,0,1,0,0
1.39,-0.895,0.666,compass,89.895,-3.693,132.598,-0.725,-0.336,21.96,3.145,4.272083817448434,-60.0,224.41,3.771,23251.104,False,-2.4840535087861015,-3.75756476365566,3.66,-0.012,-0.777,-9.762,-0.711,224.41,226.49,True,0,1,0,0
1.385,-1.119,0.688,compass,91.566,-3.581,132.536,-0.802,-0.336,18.75,3.284,4.385501648289014,-60.0,224.128,3.771,23251.204,False,-2.4853296496794903,-3.7591079003412946,3.66,-0.051,-0.738,-9.758,-1.712,224.128,226.49,True,0,1,0,0
1.372,-1.455,0.708,compass,94.446,-3.357,132.514,-0.9,-0.56,18.75,3.284,4.49459452795193,-60.0,223.876,3.676,23251.305,False,-2.425927050212671,-3.665428015673132,3.66,-0.09,-0.738,-9.723,-1.712,223.876,224.873,True,0,1,0,0
1.32,-1.231,0.727,compass,92.061,-3.469,132.397,-1.108,-0.56,18.16,3.424,4.62238933687674,-60.0,223.391,3.676,23251.405,False,-2.4149933575037354,-3.667664245847183,3.66,-0.164,-0.738,-9.758,-1.83,223.391,224.873,True,0,1,0,0
1.29,-1.007,0.744,compass,90.176,-3.245,132.284,-1.216,-0.448,18.16,3.424,4.692996662877379,-60.0,223.193,3.513,23251.505,False,-2.308823220086195,-3.505547147603751,3.66,-0.203,-0.777,-9.801,-1.83,223.193,224.194,True,0,1,0,0
1.255,-0.783,0.759,compass,87.842,-3.021,131.684,-1.298,-0.56,18.16,3.663,4.800601184520594,-60.0,222.948,3.513,23251.605,False,-2.28433393075118,-3.5064779095240306,3.66,-0.242,-0.777,-9.914,-1.83,222.948,224.194,True,0,1,0,0
1.217,-0.448,0.773,compass,85.037,-3.133,131.372,-1.371,-0.336,15.94,3.663,4.865129921280776,-60.0,222.72,3.526,23251.705,False,-2.281779253015118,-3.5208765937824107,3.66,-0.203,-0.777,-9.992,-2.396,222.72,224.009,True,0,1,0,0
1.158,-0.112,0.784,compass,82.42,-2.686,130.761,-1.399,-0.448,15.94,3.722,4.931058863863105,-60.0,222.485,3.526,23251.805,False,-2.2552418266336116,-3.521658020187115,3.66,-0.203,-0.777,-10.027,-2.396,222.485,224.009,True,0,1,0,0
1.093,0.336,0.793,compass,79.302,-2.686,129.971,-1.409,-0.671,12.7,3.762,4.996895228555882,-60.0,222.24,3.579,23251.905,False,-2.2521238614530508,-3.5748368374376853,3.66,-0.203,-0.777,-10.027,-3.775,222.24,222.814,True,0,1,0,0
1.02,0.783,0.8,compass,76.56,-2.91,128.838,-1.416,-1.007,12.7,3.702,5.059942028900374,-60.0,221.984,3.579,23252.005,False,-2.1973773459818218,-3.575563844648878,3.66,-0.164,-0.816,-10.023,-3.775,221.984,222.814,True,0,1,0,0
0.948,1.007,0.805,compass,75.208,-3.021,127.72,-1.363,-1.119,12.41,3.702,5.097394427716736,-60.0,221.73,3.602,23252.105,False,-2.1564770746650197,-3.599524565468798,3.66,-0.129,-0.777,-9.996,-3.542,221.73,221.615,True,0,1,0,0
0.864,1.119,0.807,compass,74.355,-2.686,126.571,-1.285,-1.007,12.41,3.782,5.118575175412764,-60.0,221.486,3.602,23252.205,False,-2.099075731963576,-3.6000863585082654,3.66,-0.129,-0.738,-9.957,-3.542,221.486,221.615,True,0,1,0,0
0.671,1.119,0.802,compass,75.392,-2.798,124.612,-1.09,-1.567,12.7,3.822,5.159679719469528,-60.0,221.008,3.41,23252.305,False,-1.882720687403271,-3.408607251148616,3.66,-0.051,-0.699,-9.879,-3.045,221.008,221.239,True,0,1,0,0
0.579,0.895,0.796,compass,76.801,-2.35,122.876,-1.011,-1.455,12.7,4.001,5.205175086444942,-60.0,220.793,3.41,23252.405,False,-1.7994314796095754,-3.408918828089431,3.66,-0.012,-0.66,-9.84,-3.045,220.793,221.239,True,0,1,0,0
0.475,0.448,0.786,compass,79.743,-2.238,122.226,-0.943,-1.567,12.7,4.001,5.225368274514812,-60.0,220.588,3.618,23252.505,False,-1.8777913376547963,-3.6171408087725907,3.66,-0.012,-0.625,-9.797,-3.045,220.588,217.549,True,0,1,0,0
