imu.roll,imu.pitchrate,imu.heel,ap.mode,ap.wind_angle,imu.headingrate,ap.true_wind_angle,imu.pitch,imu.rollrate,rudder.angle,wind.speed,ap.true_wind_speed,ap.heading_error,ap.heading,gps.speed,timestamp,ap.enabled,ap.vmg,ap.cmg,sow.speed,imu.accel_X,imu.accel_Y,imu.accel_Z,rudder.speed,imu.heading,gps.track,perf.quality_flag,perf.boat_config.Main,perf.boat_config.jib,perf.boat_config.spi,perf.boat_config.weight
-2.262,0.448,-1.464,compass,5.596,3.805,-124.365,-1.166,-3.693,-11.71,3.563,2.019343637999693,-60.0,352.326,4.613,22775.675,False,-2.5016827312946157,1.0423704340586264,4.9,0.102,0.027,-9.492,-0.269,352.326,352.431,True,0,1,0,0
-2.624,-0.224,-1.499,compass,6.267,3.581,-135.527,-1.114,-3.693,-11.71,3.563,1.9222715606584595,-60.0,352.627,4.613,22775.776,False,-3.210477505844738,1.0659383664686584,4.9,0.062,0.066,-9.457,-0.269,352.627,352.431,True,0,1,0,0
-2.948,-0.448,-1.542,compass,22.428,3.245,-67.505,-1.108,-3.917,-11.71,3.643,1.7513806491854065,-60.0,352.912,4.726,22775.876,False,-3.886979018163011,1.114870101448152,4.9,0.062,0.145,-9.492,-0.269,352.912,351.984,True,0,1,0,0
-3.245,-0.56,-1.593,compass,9.048,3.469,-14.495,-1.077,-2.35,-11.75,3.643,1.6836015747189976,-60.0,353.148,4.726,22775.976,False,-4.254423476581972,1.133771146211621,4.9,-0.012,0.219,-9.535,-0.255,353.148,351.984,True,0,1,0,0
-3.492,-0.56,-1.65,compass,3.107,3.469,24.858,-1.063,-1.902,-11.75,4.021,1.5565145192460628,-60.0,353.327,4.691,22776.076,False,-4.489310034236148,1.1396122273738425,4.82,-0.129,0.297,-9.609,-0.255,353.327,353.71,True,0,1,0,0
-3.697,-0.448,-1.712,compass,9.585,3.245,54.368,-1.032,-2.686,-11.75,4.021,1.4413236269080338,-60.0,353.477,4.691,22776.176,False,-4.637374565127647,1.1515268958470053,4.82,-0.129,0.371,-9.613,-0.255,353.477,353.71,True,0,1,0,0
-3.873,0.336,-1.777,compass,-6.709,3.581,57.668,-1.02,-0.783,-11.71,4.797,1.2175477424507897,-60.0,353.641,4.757,22776.276,False,-4.538244236731128,1.1809157178176912,4.82,-0.203,0.41,-9.836,-0.217,353.641,355.62,True,0,1,0,0
-4.219,0.448,-1.85,compass,-8.713,3.805,52.922,-0.982,-0.448,-11.71,4.797,1.0148919070129003,-60.0,353.73,4.757,22776.376,False,-3.352855045179531,1.188046307738041,4.82,-0.164,0.527,-9.875,-0.217,353.73,355.62,True,0,1,0,0
-4.29,0.783,-1.923,compass,-14.195,3.133,42.229,-0.957,0.56,-11.69,5.056,0.9885577085207871,-60.0,353.836,4.654,22776.477,False,-1.298212938750741,1.1706460484730434,4.82,-0.09,0.527,-9.996,-0.185,353.836,358.195,True,0,1,0,0
-4.369,0.895,-1.997,compass,-19.346,2.798,29.455,-0.926,1.567,-11.69,5.056,1.017772488880364,-60.0,353.857,4.654,22776.577,False,-4.331223491183971,1.1723579696923534,4.82,-0.012,0.527,-10.023,-0.185,353.857,358.195,True,0,1,0,0
-4.344,0.671,-2.067,compass,-15.688,2.574,19.375,-0.868,0.895,-11.69,5.812,1.1692604593594966,-60.0,353.941,4.6,22776.677,False,-4.340982314151057,1.165111971787231,4.82,0.027,0.41,-10.027,-0.185,353.941,359.623,True,0,1,0,0
-4.256,0.56,-2.133,compass,-23.077,2.238,9.378,-0.813,2.462,-11.13,5.812,1.3519161400887056,-60.0,354.037,4.6,22776.777,False,-3.018919739292426,1.1725989001271264,4.82,0.062,0.336,-10.062,0.023,354.037,359.623,True,0,1,0,0
-4.189,0.56,-2.194,compass,-46.808,1.79,-2.493,-0.754,2.798,-11.13,6.091,1.66072439890656,-60.0,354.071,5.004,22776.877,False,-1.8739006115932433,1.2785141725337663,4.82,0.102,0.18,-10.105,0.023,354.071,0.01,True,0,1,0,0
-4.038,0.336,-2.25,compass,-46.844,1.679,-15.068,-0.696,2.574,-10.62,6.091,1.9533783428795886,-60.0,354.152,5.004,22776.977,False,-0.9054893556179895,1.2854216451241716,4.74,0.062,0.105,-10.066,0.276,354.152,0.01,True,0,1,0,0
-3.822,0.0,-2.297,compass,-47.805,1.343,-25.41,-0.671,2.686,-10.62,6.449,2.321869380452211,-60.0,354.262,4.773,22777.077,False,-0.15921298244422885,1.2347934800479408,4.74,0.062,-0.012,-10.066,0.276,354.262,1.106,True,0,1,0,0
-3.584,-0.56,-2.335,compass,-49.883,1.007,-35.342,-0.658,2.798,-10.62,6.449,2.650584629554235,-60.0,354.385,4.773,22777.177,False,0.23949345076233464,1.2447020589628985,4.74,0.062,-0.203,-10.027,0.276,354.385,1.106,True,0,1,0,0
-3.017,-0.56,-2.356,compass,-48.457,0.448,-43.863,-0.666,2.462,-10.6,6.807,2.9693116372909074,-60.0,354.714,4.87,22777.277,False,0.5089293280032734,1.2970445540409012,4.74,-0.012,-0.277,-9.957,0.255,354.714,2.464,True,0,1,0,0
-2.721,-0.448,-2.367,compass,-49.599,0.112,-50.89,-0.695,3.021,-10.6,6.807,3.3132655656768137,-60.0,354.858,4.87,22777.377,False,0.6701855938897273,1.3087869526170457,4.74,-0.051,-0.355,-9.957,0.255,354.858,2.464,True,0,1,0,0
-2.405,-0.336,-2.368,compass,-46.061,-0.112,-56.678,-0.717,2.014,-10.6,7.265,3.5951501471484666,-60.0,355.042,4.93,22777.477,False,0.7819798298516871,1.3403049966759015,4.74,-0.09,-0.277,-9.84,0.255,355.042,3.743,True,0,1,0,0
-2.083,-0.112,-2.359,compass,-46.331,-0.336,-61.181,-0.731,2.35,-10.52,7.265,3.8717575466433454,-60.0,355.024,4.93,22777.577,False,0.8501948948199373,1.3388041602508982,4.74,-0.129,-0.316,-9.801,0.257,355.024,3.743,True,0,1,0,0
-1.753,0.224,-2.341,compass,-54.61,-0.671,-64.628,-0.741,3.021,-10.52,7.405,4.260835413711727,-60.0,355.307,4.942,22777.677,False,0.9308587840881594,1.36540863628414,4.74,-0.129,-0.355,-9.645,0.257,355.307,3.844,True,0,1,0,0
-1.459,0.448,-2.315,compass,-52.276,-0.56,-68.1,-0.747,2.238,-10.56,7.405,4.5459956453809065,-60.0,355.541,4.942,22777.777,False,0.9225706652347018,1.3848022809606384,4.74,-0.164,-0.316,-9.613,0.211,355.541,3.844,True,0,1,0,0
-1.187,0.56,-2.281,compass,-51.418,-0.56,-70.671,-0.732,2.014,-10.56,7.464,4.7995312171410385,-60.0,355.671,4.745,22777.877,False,0.8842506869305188,1.340081784682256,4.77,-0.164,-0.316,-9.457,0.211,355.671,4.002,True,0,1,0,0
-0.921,0.783,-2.24,compass,-51.786,-0.112,-72.628,-0.731,2.462,-10.68,7.464,5.064420052783832,-60.0,355.8,4.745,22777.977,False,0.8869609814448269,1.3503658448822937,4.77,-0.203,-0.277,-9.414,0.13,355.8,4.002,True,0,1,0,0
-0.655,0.56,-2.193,compass,-53.615,0.895,-74.446,-0.738,3.021,-10.68,7.444,5.308684767780429,-60.0,355.929,4.829,22778.078,False,0.8805098156659158,1.3845990139571194,4.77,-0.203,-0.242,-9.375,0.13,355.929,4.329,True,0,1,0,0
-0.196,0.56,-2.133,compass,-52.421,0.895,-76.297,-0.854,2.462,-10.68,7.444,5.468383307263354,-60.0,356.165,4.829,22778.178,False,0.8342838434397382,1.4036149127037,4.77,-0.203,-0.434,-9.492,0.13,356.165,4.329,True,0,1,0,0
0.029,0.448,-2.068,compass,-55.83,1.679,-77.454,-0.906,3.917,-11.13,7.285,5.6934061494366075,-60.0,356.286,4.767,22778.278,False,0.8041394842015932,1.3951889557963153,4.77,-0.242,-0.434,-9.609,-0.033,356.286,4.934,True,0,1,0,0
0.249,0.336,-1.998,compass,-53.887,2.35,-79.053,-0.995,2.798,-11.13,7.285,5.781184038869844,-60.0,356.462,4.767,22778.378,False,0.7353055178258848,1.4091887884600227,4.77,-0.242,-0.586,-9.758,-0.033,356.462,4.934,True,0,1,0,0
0.468,0.112,-1.924,compass,-54.472,2.91,-80.234,-1.108,2.798,-11.13,7.385,5.845497983005364,-60.0,356.686,4.706,22778.478,False,0.6813492294042838,1.408936820968334,4.77,-0.242,-0.738,-10.027,-0.033,356.686,6.407,True,0,1,0,0
0.667,-0.112,-1.847,compass,-55.596,3.469,-81.307,-1.259,3.021,-12.42,7.385,5.917817686243634,-60.0,356.972,4.706,22778.578,False,0.6379430820044798,1.431301369365296,4.77,-0.203,-0.816,-10.141,-0.46,356.972,6.407,True,0,1,0,0
0.851,0.0,-1.766,compass,-52.482,3.469,-82.12,-1.406,1.79,-12.42,7.564,5.923823917297668,-60.0,357.307,4.533,22778.678,False,0.5867425598833943,1.4038726885482466,4.77,-0.203,-0.93,-10.34,-0.46,357.307,6.5,True,0,1,0,0
0.997,-0.224,-1.683,compass,-50.746,4.029,-83.244,-1.507,0.783,-13.02,7.564,5.8335671228853485,-60.0,357.685,4.533,22778.778,False,0.5293297223816366,1.4323243301138107,4.77,-0.203,-1.008,-10.414,-0.713,357.685,6.5,True,0,1,0,0
1.094,-0.224,-1.6,compass,-50.18,4.476,-84.182,-1.626,0.56,-13.02,7.544,5.753947081813653,-60.0,358.106,4.535,22778.878,False,0.4825072716202429,1.464484482059591,4.9,-0.164,-1.082,-10.488,-0.713,358.106,5.735,True,0,1,0,0
1.126,-0.336,-1.518,compass,-43.22,4.812,-86.056,-1.719,-1.902,-13.02,7.544,5.492266806222469,-60.0,358.563,4.535,22778.978,False,0.35789916361929885,1.4987356171051163,4.9,-0.129,-1.082,-10.523,-0.642,358.563,5.735,True,0,1,0,0
0.867,-0.336,-1.446,compass,-44.12,4.588,-87.659,-1.886,-2.574,-13.02,7.325,5.202667961110571,-60.0,359.424,4.335,22779.078,False,0.2621365300782114,1.4938581738243464,4.9,-0.09,-1.121,-10.449,-0.642,359.424,5.703,True,0,1,0,0
0.625,-0.336,-1.384,compass,-39.311,4.141,-89.475,-1.985,-3.805,-12.88,7.325,4.882372700786012,-60.0,359.86,4.335,22779.178,False,0.13191394620431937,1.5247905929752177,4.9,-0.051,-1.082,-10.375,-0.508,359.86,5.703,True,0,1,0,0
0.418,-0.56,-1.33,compass,-29.127,4.364,-94.541,-2.004,-5.595,-12.88,6.728,4.44955631094871,-60.0,0.235,4.432,22779.278,False,-0.2549671247141253,1.5861137659100248,4.9,-0.051,-1.043,-10.336,-0.508,0.235,5.012,True,0,1,0,0
0.14,-0.56,-1.286,compass,-28.447,4.588,-98.205,-2.009,-5.707,-12.88,6.728,4.065064850896878,-60.0,0.648,4.432,22779.378,False,-0.5335220402363229,1.6158541933116992,4.9,-0.09,-0.891,-10.145,-0.508,0.648,5.012,True,0,1,0,0
-0.2,-0.56,-1.253,compass,-13.973,4.7,-102.436,-1.983,-6.379,-12.58,6.031,3.696965871439242,-60.0,1.083,4.358,22779.478,False,-0.8382951982127343,1.6197256193135325,4.9,-0.09,-0.816,-10.102,-0.357,1.083,2.081,True,0,1,0,0
-0.66,-0.336,-1.236,compass,-6.707,4.812,-105.28,-1.967,-7.274,-12.58,6.031,3.326378269860868,-60.0,1.521,4.358,22779.578,False,-1.04611587404743,1.6505971429158832,4.9,-0.129,-0.547,-9.992,-0.357,1.521,2.081,True,0,1,0,0
-1.14,-0.224,-1.233,compass,0.289,4.924,-110.375,-1.92,-7.274,-12.58,5.374,2.992120851508773,-60.0,1.974,4.417,22779.679,False,-1.4332774045105667,1.7049317087400877,4.9,-0.129,-0.316,-9.914,-0.357,1.974,0.698,True,0,1,0,0
-1.703,0.112,-1.247,compass,-0.659,4.812,-113.531,-1.866,-7.162,-12.62,5.374,2.6631492014380767,-60.0,2.393,4.417,22779.779,False,-1.6603289035478053,1.7347005864708516,4.92,-0.129,-0.125,-9.879,-0.335,2.393,0.698,True,0,1,0,0
-2.25,0.783,-1.277,compass,42.724,4.476,-92.225,-1.788,-7.386,-12.62,4.917,2.695659852810084,-60.0,2.777,4.473,22779.879,False,-0.06207441109249721,1.7843431249932735,4.92,-0.129,0.105,-9.801,-0.335,2.777,358.837,True,0,1,0,0
-3.363,1.119,-1.339,compass,34.275,4.141,-71.071,-1.564,-5.26,-12.5,4.917,2.5699201369140794,-60.0,3.486,4.473,22779.979,False,-3.8166447443736273,1.8349967688443751,4.92,-0.129,0.18,-9.801,-0.242,3.486,358.837,True,0,1,0,0
-3.872,1.119,-1.415,compass,38.168,3.917,-48.717,-1.434,-5.819,-12.5,4.479,2.4113879617983094,-60.0,3.831,4.671,22780.079,False,-4.625228980077506,1.9419816515739883,4.92,-0.09,0.41,-9.641,-0.242,3.831,359.283,True,0,1,0,0
-4.297,0.895,-1.502,compass,37.994,3.805,-27.145,-1.305,-5.595,-12.5,4.479,2.3099682452273083,-60.0,4.181,4.671,22780.179,False,-3.838662550818744,1.9678762273142456,4.92,-0.051,0.527,-9.645,-0.242,4.181,359.283,True,0,1,0,0
-4.687,1.007,-1.597,compass,28.526,4.029,-6.621,-1.202,-3.357,-12.5,4.24,2.153264157337866,-60.0,4.523,4.423,22780.279,False,-2.7311569863218086,1.886930262468126,4.92,-0.012,0.68,-9.414,-0.218,4.523,359.627,True,0,1,0,0
-5.062,0.336,-1.701,compass,26.812,4.029,13.374,-1.12,-2.686,-12.5,4.24,1.9876196130728618,-60.0,4.773,4.423,22780.379,False,-2.1234565610731932,1.9043725481397271,4.92,0.102,0.832,-9.336,-0.218,4.773,359.627,True,0,1,0,0
-5.41,0.112,-1.813,compass,32.783,3.581,29.581,-1.039,-3.581,-12.48,4.16,1.9199265568994068,-60.0,4.945,4.446,22780.479,False,-1.6565101006092915,1.9264756366239535,4.92,0.102,0.91,-9.191,-0.186,4.945,0.653,True,0,1,0,0
-6.741,0.0,-1.96,compass,16.54,3.581,47.417,-0.712,-0.895,-12.48,4.16,1.7954148545755038,-60.0,5.279,4.446,22780.579,False,-1.6564890006233854,1.9497893255634007,4.92,0.102,0.984,-9.152,-0.186,5.279,0.653,True,0,1,0,0
-6.874,-0.336,-2.108,compass,3.675,3.693,64.219,-0.702,0.895,-12.48,4.28,1.6695696575378565,-60.0,5.617,4.526,22780.679,False,-1.895912197936456,2.0086909440593734,4.85,0.102,1.062,-9.109,-0.186,5.617,2.467,True,0,1,0,0
-6.91,-1.231,-2.252,compass,-3.718,2.686,83.628,-0.719,1.79,-12.58,4.28,1.565325773415041,-60.0,5.912,4.526,22780.779,False,-2.4840629775323255,2.0295607918123366,4.85,0.102,1.023,-9.152,-0.2,5.912,2.467,True,0,1,0,0
-6.864,-1.231,-2.39,compass,-14.548,2.462,79.11,-0.763,3.805,-12.58,5.235,1.3413899107736003,-60.0,6.13,4.353,22780.879,False,-1.5044282343001758,1.9667480356028555,4.85,0.062,1.062,-9.191,-0.2,6.13,4.834,True,0,1,0,0
-6.795,-1.455,-2.522,compass,-8.789,2.014,77.929,-0.791,2.91,-12.68,5.235,1.0912299332254582,-60.0,6.045,4.353,22780.979,False,-0.9148479861960168,1.96103674386554,4.85,0.062,0.984,-9.297,-0.231,6.045,4.834,True,0,1,0,0
-6.712,-1.231,-2.648,compass,-17.41,1.902,61.784,-0.807,5.148,-12.68,6.25,1.1407904650183711,-60.0,5.87,4.442,22781.079,False,-4.165941835826313,1.989159942149088,4.85,-0.012,0.871,-9.457,-0.231,5.87,8.392,True,0,1,0,0
-6.468,-1.119,-2.763,compass,-22.791,1.79,45.043,-0.851,6.267,-12.68,6.25,1.24193467611505,-60.0,5.762,4.442,22781.18,False,-4.160701468291415,1.9817044436062252,4.85,-0.012,0.793,-9.57,-0.231,5.762,8.392,True,0,1,0,0
-6.078,-0.783,-2.862,compass,-50.617,1.007,30.065,-0.9,5.148,-12.72,7.902,2.1414361486824776,-60.0,5.709,4.302,22781.28,False,-2.7387708761381235,1.9156529814686813,4.85,-0.051,0.602,-9.801,-0.221,5.709,12.03,True,0,1,0,0
-5.61,-0.336,-2.945,compass,-54.706,1.119,15.721,-0.925,7.945,-12.72,7.902,3.1923070357718153,-60.0,5.653,4.302,22781.38,False,-1.388567678424888,1.9119102432599224,4.85,-0.051,0.527,-9.875,-0.221,5.653,12.03,True,0,1,0,0
-5.126,-0.224,-3.01,compass,-52.223,0.895,3.189,-0.93,7.498,-12.66,8.818,4.182093002164407,-60.0,5.541,4.294,22781.48,False,-0.30410036295107884,1.9009111692402432,4.85,-0.129,0.258,-10.18,-0.169,5.541,16.087,True,0,1,0,0
-4.587,0.112,-3.057,compass,-50.74,0.224,-8.042,-0.922,7.05,-12.66,8.818,4.976601655659682,-60.0,5.427,4.294,22781.58,False,0.4492501114974023,1.893294357221708,4.85,-0.129,-0.047,-10.375,-0.169,5.427,16.087,True,0,1,0,0
-3.934,0.671,-3.084,compass,-48.67,-0.0,-17.334,-0.897,7.05,-12.62,9.594,5.816394162313223,-60.0,5.418,4.302,22781.68,False,0.9975236895058729,1.896063633328931,4.81,-0.129,-0.242,-10.484,-0.133,5.418,17.224,True,0,1,0,0
-2.678,0.336,-3.071,compass,-48.521,0.448,-25.389,-0.838,6.602,-12.62,9.594,6.429118429585432,-60.0,5.365,4.302,22781.78,False,1.353823069123946,1.8925394840924612,4.81,-0.129,-0.547,-10.602,-0.133,5.365,17.224,True,0,1,0,0
-2.096,0.112,-3.042,compass,-66.48,0.783,-33.121,-0.83,6.938,-12.64,9.833,7.11848755027808,-60.0,5.379,4.627,22781.88,False,1.6426280795110173,2.0363362239469094,4.81,-0.09,-0.699,-10.684,-0.13,5.379,20.081,True,0,1,0,0
-1.113,-0.56,-2.942,compass,-65.554,1.79,-47.549,-0.928,4.476,-12.64,9.753,7.849316795888697,-60.0,5.512,4.318,22782.08,False,1.5183108022212055,1.9092734975390317,4.81,-0.129,-1.043,-10.484,-0.13,5.512,19.91,True,0,1,0,0
-1.113,-0.56,-2.942,compass,-65.554,1.79,-47.549,-0.928,4.476,-12.64,9.753,7.849316795888697,-60.0,5.512,4.318,22782.08,False,1.5183108022212055,1.9092734975390317,4.81,-0.129,-1.043,-10.484,-0.13,5.512,19.91,True,0,1,0,0
-0.223,-1.455,-2.796,compass,-66.119,2.686,-59.92,-1.189,2.91,-12.68,9.634,8.067819961780732,-60.0,5.808,4.473,22782.281,False,1.3067655163801892,1.9987948264654847,4.81,-0.129,-1.121,-10.18,-0.13,5.808,18.627,True,0,1,0,0
-0.223,-1.455,-2.796,compass,-66.119,2.686,-59.92,-1.189,2.91,-12.68,9.634,8.067819961780732,-60.0,5.808,4.473,22782.281,False,1.3067655163801892,1.9987948264654847,4.81,-0.129,-1.121,-10.18,-0.13,5.808,18.627,True,0,1,0,0
0.597,-1.567,-2.607,compass,-63.826,2.798,-70.407,-1.524,0.783,-12.64,9.355,7.829790464293461,-60.0,6.423,4.351,22782.481,False,0.9087782108325918,1.9856772837124157,4.81,-0.164,-1.121,-9.836,-0.104,6.423,17.736,True,0,1,0,0
0.597,-1.567,-2.607,compass,-63.826,2.798,-70.407,-1.524,0.783,-12.64,9.355,7.829790464293461,-60.0,6.423,4.351,22782.481,False,0.9087782108325918,1.9856772837124157,4.83,-0.164,-1.121,-9.836,-0.104,6.423,17.736,True,0,1,0,0
0.977,-0.336,-2.4,compass,-55.724,3.021,-79.397,-1.86,-1.567,-12.64,8.3,7.221702126209166,-60.0,7.526,4.481,22782.681,False,0.5320497127670113,2.1215383480706858,4.83,-0.203,-1.043,-9.574,-0.104,7.526,17.345,True,0,1,0,0
0.977,-0.336,-2.4,compass,-55.724,3.021,-79.397,-1.86,-1.567,-12.64,8.3,7.221702126209166,-60.0,7.526,4.481,22782.681,False,0.5320497127670113,2.1215383480706858,4.83,-0.203,-1.043,-9.574,-0.104,7.526,17.345,True,0,1,0,0
0.852,0.671,-2.205,compass,-44.812,3.133,-87.287,-1.853,-3.693,-12.7,7.365,6.286377682797283,-60.0,8.35,4.426,22782.881,False,0.07594456061046172,2.1515770808676273,4.83,-0.203,-0.93,-9.613,-0.114,8.35,15.654,True,0,1,0,0
0.852,0.671,-2.205,compass,-44.812,3.133,-87.287,-1.853,-3.693,-12.7,7.365,6.286377682797283,-60.0,8.35,4.426,22782.881,False,0.07594456061046172,2.1515770808676273,4.83,-0.203,-0.93,-9.613,-0.114,8.35,15.654,True,0,1,0,0
0.328,1.679,-2.047,compass,-2.61,2.798,-87.382,-1.661,-4.029,-12.6,6.389,5.472041827014101,-60.0,9.04,4.434,22783.081,False,0.1579752671644317,2.201877573213411,4.83,-0.129,-0.816,-9.719,-0.069,9.04,14.361,True,0,1,0,0
0.328,1.679,-2.047,compass,-2.61,2.798,-87.382,-1.661,-4.029,-12.6,6.389,5.472041827014101,-60.0,9.04,4.434,22783.081,False,0.1579752671644317,2.201877573213411,4.83,-0.129,-0.816,-9.719,-0.069,9.04,14.361,True,0,1,0,0
-0.056,1.79,-1.923,compass,2.486,2.462,-76.047,-1.424,-5.148,-12.58,6.389,4.627647597647654,-59.568,9.699,4.337,22783.281,False,1.0535229930168273,2.1967969477578637,4.83,-0.051,-0.66,-9.914,-0.052,9.699,13.972,True,0,1,0,0
-0.056,1.79,-1.923,compass,2.486,2.462,-76.047,-1.424,-5.148,-12.58,6.389,4.627647597647654,-59.568,9.699,4.337,22783.281,False,1.0535229930168273,2.1967969477578637,4.83,-0.051,-0.66,-9.914,-0.052,9.699,13.972,True,0,1,0,0
-0.677,1.79,-1.84,compass,9.421,2.014,-63.41,-1.115,-5.26,-12.58,4.956,3.6385406672738365,-59.095,10.172,4.469,22783.482,False,2.0275792009352935,2.2955027602505993,4.84,-0.051,-0.355,-10.023,-0.052,10.172,13.085,True,0,1,0,0
-0.677,1.79,-1.84,compass,9.421,2.014,-63.41,-1.115,-5.26,-12.58,4.956,3.6385406672738365,-59.095,10.172,4.469,22783.482,False,2.0275792009352935,2.2955027602505993,4.84,-0.051,-0.355,-10.023,-0.052,10.172,13.085,True,0,1,0,0
-1.816,1.007,-1.817,compass,15.228,2.126,-80.442,-0.739,-4.812,-12.6,3.842,2.450763846578663,-58.54,10.727,4.53,22783.682,False,0.8016606918527737,2.3639647235054007,4.84,-0.09,-0.164,-10.066,-0.053,10.727,12.837,True,0,1,0,0
-1.816,1.007,-1.817,compass,15.228,2.126,-80.442,-0.739,-4.812,-12.6,3.842,2.450763846578663,-58.54,10.727,4.53,22783.682,False,0.8016606918527737,2.3639647235054007,4.84,-0.09,-0.164,-10.066,-0.053,10.727,12.837,True,0,1,0,0
-2.538,0.336,-1.849,compass,5.232,2.462,17.492,-0.66,-3.357,-12.76,3.802,1.7947880126617415,-58.011,11.256,4.586,22783.882,False,-2.4751204542930707,2.4293885248571296,4.84,-0.09,0.066,-9.953,-0.128,11.256,12.578,True,0,1,0,0
-2.538,0.336,-1.849,compass,5.232,2.462,17.492,-0.66,-3.357,-12.76,3.802,1.7947880126617415,-58.011,11.256,4.586,22783.882,False,-2.4751204542930707,2.4293885248571296,4.84,-0.09,0.066,-9.953,-0.128,11.256,12.578,True,0,1,0,0
-3.104,-0.448,-1.916,compass,-1.094,3.245,78.074,-0.696,-2.91,-12.9,4.22,1.5004354754726323,-57.435,11.832,4.59,22784.082,False,-3.8813297216561726,2.4704607485871444,4.84,-0.051,0.297,-9.762,-0.162,11.832,13.691,True,0,1,0,0
-3.104,-0.448,-1.916,compass,-1.094,3.245,78.074,-0.696,-2.91,-12.9,4.22,1.5004354754726323,-57.435,11.832,4.59,22784.082,False,-3.8813297216561726,2.4704607485871444,4.84,-0.051,0.297,-9.762,-0.162,11.832,13.691,True,0,1,0,0
-3.516,-0.895,-2.004,compass,-26.363,3.581,53.723,-0.863,0.112,-12.94,4.658,1.1513154886521266,-56.993,12.274,4.312,22784.282,False,-3.538942151630382,2.3487897956923423,4.84,-0.051,0.371,-9.645,-0.166,12.274,15.61,True,0,1,0,0
-3.684,-1.007,-2.055,compass,-12.796,3.133,9.012,-0.978,-1.79,-12.94,4.658,1.0272689529505314,-56.879,12.388,4.312,22784.382,False,-3.5766330621152216,2.356030769671215,4.84,-0.051,0.41,-9.609,-0.166,12.388,15.61,True,0,1,0,0
-3.873,-1.231,-2.109,compass,-32.916,3.581,-8.794,-1.098,1.231,-12.96,5.394,1.0090550942701366,-56.86,12.407,4.695,22784.482,False,-3.0014815066494838,2.5665370030307235,4.77,-0.051,0.371,-9.574,-0.159,12.407,16.082,True,0,1,0,0
-4.016,-1.119,-2.166,compass,-26.504,3.357,-26.804,-1.299,0.112,-12.96,5.394,1.0275545683110934,-56.624,12.643,4.695,22784.582,False,-2.415971549640942,2.582721315008397,4.77,-0.09,0.336,-9.57,-0.159,12.643,16.082,True,0,1,0,0
-4.046,-0.895,-2.223,compass,-30.314,3.469,-32.583,-1.379,1.119,-12.6,6.091,1.2473615181079467,-56.51,12.757,4.391,22784.682,False,-1.2070486280286394,2.4231737186614932,4.77,-0.09,0.258,-9.641,0.036,12.757,17.4,True,0,1,0,0
-4.046,-0.895,-2.223,compass,-30.314,3.469,-32.583,-1.379,1.119,-12.6,6.091,1.2473615181079467,-56.51,12.757,4.391,22784.682,False,-1.2070486280286394,2.4231737186614932,4.77,-0.09,0.258,-9.641,0.036,12.757,17.4,True,0,1,0,0
-4.013,-0.895,-2.329,compass,-30.7,3.805,-40.637,-1.508,1.455,-12.6,6.967,1.852801085278097,-56.25,13.017,4.372,22784.882,False,0.3729165220401463,2.4290086621398634,4.77,-0.129,0.145,-9.68,0.036,13.017,18.469,True,0,1,0,0
-3.937,-0.783,-2.377,compass,-32.558,3.581,-43.378,-1.565,2.014,-11.55,6.967,2.1909259762723545,-56.054,13.213,4.372,22784.982,False,0.9152571084083939,2.441420944871766,4.77,-0.129,0.105,-9.684,0.383,13.213,18.469,True,0,1,0,0
-3.824,-0.336,-2.421,compass,-41.53,3.581,-45.214,-1.605,1.79,-11.55,7.524,2.6553372596090408,-55.789,13.478,4.333,22785.082,False,1.3426226660225988,2.4363233458827676,4.77,-0.129,0.105,-9.719,0.383,13.478,20.697,True,0,1,0,0
-3.683,-0.56,-2.459,compass,-41.78,3.805,-47.853,-1.635,1.679,-11.55,7.524,3.0283950492759693,-55.467,13.8,4.333,22785.183,False,1.5909924668734083,2.4564057325467124,4.77,-0.129,0.066,-9.836,0.383,13.8,20.697,True,0,1,0,0
-3.533,-0.336,-2.491,compass,-50.692,4.141,-50.305,-1.652,1.902,-10.38,8.081,3.5402832741008163,-55.104,14.163,4.329,22785.283,False,1.7541881069250833,2.4767541437441802,4.77,-0.129,0.105,-9.875,0.735,14.163,21.707,True,0,1,0,0
-3.203,-0.112,-2.512,compass,-50.324,4.588,-53.186,-1.666,2.014,-10.38,8.081,4.017015770898464,-54.292,14.975,4.329,22785.383,False,1.8383987840478269,2.526783996446857,4.74,-0.09,0.027,-10.023,0.735,14.975,21.707,True,0,1,0,0
-3.039,0.224,-2.528,compass,-49.829,4.364,-55.895,-1.632,2.238,-9.51,8.261,4.476263295167886,-53.894,15.373,4.421,22785.483,False,1.8891290272738956,2.6050020234186704,4.74,-0.09,0.066,-10.062,1.092,15.373,22.986,True,0,1,0,0
-2.872,0.448,-2.538,compass,-49.255,3.805,-58.478,-1.578,2.238,-9.51,8.261,4.879918727697824,-53.53,15.737,4.421,22785.583,False,1.86382117379091,2.627621572320339,4.74,-0.051,0.027,-10.219,1.092,15.737,22.986,True,0,1,0,0
-2.732,0.895,-2.544,compass,-47.87,2.91,-60.468,-1.472,2.126,-9.51,8.34,5.26132120375073,-53.229,16.038,4.318,22785.683,False,1.7993579220119058,2.5846020204608653,4.74,-0.012,-0.012,-10.301,1.092,16.038,23.176,True,0,1,0,0
-2.575,1.119,-2.545,compass,-46.834,2.574,-62.204,-1.347,1.902,-8.68,8.34,5.568638859496453,-52.998,16.269,4.318,22785.783,False,1.7665814918056952,2.5985304663480857,4.74,0.062,-0.125,-10.336,1.261,16.269,23.176,True,0,1,0,0
-2.455,1.231,-2.542,compass,-47.094,1.567,-63.769,-1.153,2.126,-8.68,8.201,5.781879613645926,-52.844,16.423,4.415,22785.883,False,1.761056310574079,2.666520221081458,4.74,0.102,-0.277,-10.375,1.261,16.423,24.791,True,0,1,0,0
-2.302,1.567,-2.535,compass,-45.019,0.895,-65.051,-0.971,1.567,-8.68,8.201,5.9303142597562175,-52.717,16.55,4.415,22785.983,False,1.7196470142933478,2.6742827797068736,4.74,0.062,-0.355,-10.34,1.261,16.55,24.791,True,0,1,0,0
-2.159,1.455,-2.524,compass,-45.018,0.56,-66.326,-0.767,1.455,-8.41,7.982,5.959544371864062,-52.625,16.642,4.483,22786.083,False,1.6913337767274923,2.7212047067364424,4.74,0.102,-0.469,-10.219,1.224,16.642,26.057,True,0,1,0,0
-2.015,1.231,-2.509,compass,-44.459,-0.112,-67.517,-0.605,1.007,-8.41,7.982,5.929850508613569,-52.561,16.706,4.483,22786.183,False,1.632510074148618,2.7251891296742206,4.74,0.102,-0.586,-10.145,1.224,16.706,26.057,True,0,1,0,0
-1.903,0.671,-2.491,compass,-43.447,-0.112,-69.853,-0.466,0.112,-8.23,7.544,5.718722249826343,-52.491,16.776,4.605,22786.283,False,1.5238962552792263,2.8041370039332767,4.74,0.062,-0.625,-9.953,1.192,16.776,24.989,True,0,1,0,0
-1.661,0.448,-2.466,compass,-42.742,-0.224,-71.942,-0.279,-0.336,-8.23,7.544,5.50491142562146,-52.222,17.045,4.605,22786.383,False,1.3944476212440777,2.8212630891815613,4.74,0.027,-0.66,-9.719,1.192,17.045,24.989,True,0,1,0,0
-1.62,0.112,-2.44,compass,-48.031,0.112,-75.016,-0.244,-0.56,-8.39,7.186,5.255000139208696,-52.115,17.152,4.668,22786.483,False,1.1868209471861717,2.866256374939071,4.74,0.027,-0.625,-9.574,0.993,17.152,24.528,True,0,1,0,0
-1.604,-0.112,-2.415,compass,-47.416,0.112,-78.065,-0.234,-1.007,-8.39,7.186,5.028307135643716,-52.002,17.265,4.668,22786.583,False,0.9564821512554712,2.873500425777871,4.74,-0.051,-0.547,-9.34,0.993,17.265,24.528,True,0,1,0,0
-1.525,-0.56,-2.388,compass,-48.911,0.224,-81.932,-0.276,-1.007,-8.51,6.807,4.8021296676746,-51.904,17.363,4.699,22786.683,False,0.6586610193346972,2.8989562241954885,4.74,-0.051,-0.469,-9.258,0.833,17.363,23.491,True,0,1,0,0
-1.409,-0.56,-2.359,compass,-48.538,0.224,-85.164,-0.359,-1.119,-8.51,6.807,4.6302974429611465,-51.771,17.496,4.699,22786.783,False,0.40394727463955604,2.9075530200346726,4.74,-0.09,-0.316,-9.109,0.833,17.496,23.491,True,0,1,0,0
-0.682,-0.448,-2.309,compass,-48.834,0.224,-87.168,-0.599,-0.895,-8.51,6.728,4.505479197043727,-51.739,17.528,4.539,22786.883,False,0.23217080439443866,2.8108758001724734,4.74,-0.129,-0.203,-9.07,0.833,17.528,23.89,True,0,1,0,0
-0.717,-0.448,-2.261,compass,-50.615,1.007,-88.398,-0.692,-0.336,-8.53,6.728,4.4556664943277315,-51.784,17.483,4.539,22786.984,False,0.1303031852844919,2.808129401342583,4.74,-0.164,-0.164,-9.109,0.743,17.483,23.89,True,0,1,0,0
-0.775,-0.112,-2.216,compass,-32.534,0.783,-88.615,-0.748,-0.448,-8.53,6.728,4.363841265968913,-51.735,17.532,4.65,22787.084,False,0.1182116302278216,2.87980241906918,4.74,-0.129,0.027,-9.227,0.743,17.532,24.413,True,0,1,0,0
-0.866,0.895,-2.176,compass,-35.015,0.56,-86.555,-0.832,0.895,-8.63,6.728,4.398495201177227,-51.764,17.503,4.65,22787.184,False,0.28212645760858324,2.877936784931818,4.74,-0.129,0.027,-9.34,0.619,17.503,24.413,True,0,1,0,0
-0.972,1.007,-2.14,compass,-34.748,0.56,-84.653,-0.827,0.895,-8.63,6.728,4.410086525361834,-51.925,17.342,4.739,22787.284,False,0.433508878086935,2.9228291565924804,4.65,-0.129,-0.012,-9.609,0.619,17.342,23.608,True,0,1,0,0
-1.069,1.119,-2.108,compass,-37.076,0.448,-82.422,-0.808,1.679,-8.51,6.728,4.454981638045351,-52.129,17.138,4.739,22787.384,False,0.6055972309424784,2.9095149729515737,4.65,-0.129,-0.086,-9.723,0.618,17.138,23.608,True,0,1,0,0
-1.036,1.455,-2.076,compass,-37.331,0.224,-78.916,-0.733,2.014,-8.51,6.728,4.497454808694623,-52.248,17.019,4.411,22787.484,False,0.8269922794506429,2.7005475659229488,4.65,-0.129,-0.203,-10.066,0.618,17.019,27.736,True,0,1,0,0
-0.982,1.455,-2.043,compass,-38.353,0.448,-75.957,-0.655,2.35,-8.51,6.728,4.54799501923042,-52.347,16.92,4.411,22787.584,False,1.048389092690174,2.6945727003400286,4.65,-0.129,-0.316,-10.336,0.618,16.92,27.736,True,0,1,0,0
-0.919,1.231,-2.009,compass,-39.375,0.56,-73.226,-0.606,2.574,-8.51,7.007,4.606716636693635,-52.423,16.844,4.458,22787.684,False,1.2648941931370419,2.718332650951151,4.65,-0.129,-0.395,-10.418,0.556,16.844,29.629,True,0,1,0,0
-0.793,1.007,-1.973,compass,-38.594,0.56,-71.33,-0.568,2.126,-8.51,7.007,4.601558090715878,-52.409,16.858,4.458,22787.784,False,1.4111365876527306,2.719208459348439,4.65,-0.129,-0.586,-10.523,0.556,16.858,29.629,True,0,1,0,0
-0.642,0.783,-1.933,compass,-39.554,0.895,-69.669,-0.558,2.35,-8.51,7.365,4.659525116208172,-52.305,16.962,4.526,22787.884,False,1.566017384859329,2.767244479430672,4.65,-0.129,-0.625,-10.566,0.556,16.962,29.56,True,0,1,0,0
-0.476,-0.783,-1.889,compass,-39.757,2.462,-69.906,-0.638,1.119,-8.8,7.365,4.499755141686249,-52.06,17.207,4.526,22787.984,False,1.5640301440212998,2.7825098821473273,4.65,-0.09,-0.699,-10.562,0.404,17.207,29.56,True,0,1,0,0
-0.153,-1.567,-1.837,compass,-58.062,3.469,-70.032,-0.942,1.231,-8.8,7.663,4.512698097153757,-51.257,18.01,4.193,22788.084,False,1.481649653776339,2.6242512101070203,4.65,-0.051,-0.738,-10.445,0.404,18.01,31.816,True,0,1,0,0
-0.045,-1.902,-1.783,compass,-56.443,4.029,-72.046,-1.156,0.0,-9.16,7.663,4.4438350680018885,-50.789,18.478,4.193,22788.185,False,1.3571174970783693,2.6508555555190374,4.62,-0.051,-0.777,-10.488,0.183,18.478,31.816,True,0,1,0,0
0.007,-2.35,-1.729,compass,-56.574,3.917,-74.32,-1.399,-0.448,-9.16,8.121,4.474026553570303,-50.285,18.982,4.217,22788.285,False,1.2186229535678919,2.6942523709956996,4.62,-0.012,-0.777,-10.418,0.183,18.982,30.313,True,0,1,0,0
0.028,-2.462,-1.677,compass,-55.02,3.917,-77.149,-1.646,-1.231,-9.16,8.121,4.459241819487473,-49.731,19.536,4.217,22788.385,False,1.0312114144854683,2.7254918717874768,4.62,-0.012,-0.816,-10.375,0.183,19.536,30.313,True,0,1,0,0
-0.047,-2.462,-1.628,compass,-53.457,3.581,-79.88,-1.859,-1.79,-9.0,8.181,4.4537256762563295,-49.267,20.0,4.191,22788.485,False,0.8355688198138655,2.734958056668183,4.62,-0.051,-0.777,-10.336,0.218,20.0,29.186,True,0,1,0,0
-0.178,-1.902,-1.584,compass,-49.383,3.133,-82.121,-2.025,-2.462,-9.0,8.181,4.4348718189479985,-48.863,20.404,4.191,22788.585,False,0.6751504503904403,2.7572574422481133,4.62,-0.051,-0.816,-10.297,0.218,20.404,29.186,True,0,1,0,0
-0.362,-1.567,-1.548,compass,-44.369,2.462,-85.107,-2.122,-3.581,-9.0,8.121,4.377723620824831,-48.506,20.761,4.444,22788.685,False,0.4843508688850721,2.9443355332955656,4.62,-0.129,-0.777,-10.141,0.218,20.761,26.828,True,0,1,0,0
-0.581,-0.783,-1.519,compass,-40.058,1.455,-86.655,-2.14,-4.029,-8.39,8.121,4.327823474659669,-48.196,21.071,4.444,22788.785,False,0.360347962029083,2.962289160245905,4.62,-0.129,-0.738,-9.996,0.404,21.071,26.828,True,0,1,0,0
-0.839,-0.112,-1.498,compass,-7.459,0.895,-84.049,-2.097,-4.588,-8.39,7.743,4.309121328728289,-47.94,21.327,4.351,22788.885,False,0.5429193606746188,2.9145326095287545,4.62,-0.129,-0.699,-9.914,0.404,21.327,24.353,True,0,1,0,0
-1.121,0.895,-1.487,compass,-4.141,-0.0,-78.82,-1.998,-5.26,-8.39,7.743,4.277691000491893,-47.734,21.533,4.351,22788.985,False,0.92618966529542,2.9261479252247176,4.62,-0.164,-0.508,-9.758,0.404,21.533,24.353,True,0,1,0,0
-1.696,1.455,-1.493,compass,-1.575,0.448,-73.833,-1.68,-5.148,-7.72,6.807,4.058484550258499,-47.384,21.883,4.469,22789.085,False,1.3295577448394258,3.0260430204570463,4.62,-0.203,-0.395,-9.719,0.587,21.883,23.603,True,0,1,0,0
-2.041,1.679,-1.51,compass,-3.031,-0.0,-67.744,-1.508,-4.812,-7.72,6.807,3.852082437722539,-47.283,21.984,4.469,22789.185,False,1.7623162471771372,3.0318269405874703,4.62,-0.129,-0.125,-9.57,0.587,21.984,23.603,True,0,1,0,0
-2.36,1.567,-1.535,compass,-2.249,0.224,-62.972,-1.347,-4.476,-7.7,6.111,3.5479875246707966,-47.191,22.076,4.393,22789.285,False,2.052777361066758,2.98559574269703,4.62,-0.09,0.066,-9.453,0.538,22.076,21.549,True,0,1,0,0
-2.673,1.679,-1.569,compass,-8.158,-0.112,-58.123,-1.2,-3.245,-7.7,6.111,3.3149138854678784,-47.135,22.132,4.393,22789.385,False,2.3648556694499616,2.988726218513708,4.62,-0.012,0.258,-9.297,0.538,22.132,21.549,True,0,1,0,0
-2.966,1.007,-1.611,compass,-9.022,0.783,-58.548,-1.093,-2.574,-7.7,5.016,2.8896258836058446,-47.116,22.151,4.298,22789.485,False,2.277914222390348,2.924960427611802,4.62,-0.012,0.488,-9.113,0.538,22.151,21.604,True,0,1,0,0
-3.246,0.112,-1.66,compass,-15.761,1.455,-62.104,-1.031,-1.679,-7.76,5.016,2.518207436922279,-47.155,22.112,4.298,22789.586,False,2.0374738587005,2.9228622466738177,4.62,0.027,0.602,-9.031,0.464,22.112,21.604,True,0,1,0,0
-3.487,-0.783,-1.715,compass,-21.712,1.679,-73.099,-1.027,-1.007,-7.76,4.658,2.185862862381227,-47.237,22.03,4.285,22789.686,False,1.2633231679840573,2.9090688847643045,4.62,0.027,0.641,-9.07,0.464,22.03,23.95,True,0,1,0,0
-3.673,-1.119,-1.774,compass,-32.603,1.902,-79.497,-1.07,0.448,-7.9,4.658,1.9852416402360267,-47.355,21.912,4.285,22789.786,False,0.788460901422297,2.90259975090994,4.62,-0.012,0.68,-9.109,0.348,21.912,23.95,True,0,1,0,0
-3.707,-1.902,-1.832,compass,-45.698,1.902,-77.238,-1.17,2.798,-7.9,5.354,1.9980967604293927,-47.382,21.885,4.197,22789.886,False,0.9313136222684685,2.8419085907522588,4.62,-0.012,0.68,-9.258,0.348,21.885,27.065,True,0,1,0,0
-3.696,-2.238,-1.888,compass,-50.073,2.574,-76.782,-1.451,3.581,-7.9,5.354,2.117712326072298,-47.552,21.715,4.197,22789.986,False,0.9534813089135473,2.8327118502916244,4.62,-0.09,0.527,-9.57,0.348,21.715,27.065,True,0,1,0,0
-3.784,-2.35,-1.945,compass,-47.417,2.686,-74.921,-1.556,3.917,-7.94,6.529,2.3917784758103213,-47.878,21.389,4.425,22790.086,False,1.1269842270394568,2.9676196062267244,4.64,-0.09,0.449,-9.719,0.3,21.389,30.421,True,0,1,0,0
-3.642,-2.35,-1.996,compass,-48.765,2.91,-74.228,-1.711,4.364,-7.94,6.529,2.685005825714529,-47.936,21.331,4.425,22790.186,False,1.180551689770216,2.9642691748558234,4.64,-0.129,0.145,-10.023,0.3,21.331,30.421,True,0,1,0,0
-3.457,-2.126,-2.039,compass,-51.716,2.686,-71.552,-1.86,4.252,-7.94,8.141,3.2953077254553076,-47.96,21.307,4.316,22790.286,False,1.3477765528640082,2.889981727765988,4.64,-0.129,0.027,-10.18,0.3,21.307,34.285,True,0,1,0,0
-3.191,-1.79,-2.074,compass,-51.988,3.245,-70.007,-1.996,4.812,-7.48,8.141,3.8761731305262943,-47.881,21.386,4.316,22790.386,False,1.466082493139467,2.894405762806573,4.64,-0.129,-0.242,-10.449,0.423,21.386,34.285,True,0,1,0,0
-2.857,-1.231,-2.097,compass,-47.937,2.91,-68.557,-2.102,4.252,-7.48,9.136,4.503662042684528,-47.704,21.563,4.425,22790.486,False,1.6199418004195516,2.977542865140107,4.64,-0.129,-0.355,-10.527,0.423,21.563,35.605,True,0,1,0,0
-2.541,-0.783,-2.111,compass,-45.269,2.574,-67.61,-2.15,3.469,-6.83,9.136,4.96890877587997,-47.527,21.74,4.425,22790.586,False,1.6970970013655398,2.987648075207226,4.64,-0.164,-0.625,-10.684,0.704,21.74,35.605,True,0,1,0,0
-2.271,-0.112,-2.116,compass,-41.742,1.567,-66.448,-2.146,2.686,-6.83,9.614,5.384670804196906,-47.383,21.884,4.533,22790.686,False,1.8289082773662662,3.0695609081299327,4.64,-0.129,-0.66,-10.68,0.704,21.884,36.986,True,0,1,0,0
-2.053,1.231,-2.114,compass,-36.157,0.671,-64.951,-2.083,1.343,-6.95,9.614,5.71190194737662,-47.274,21.993,4.533,22790.786,False,1.9389405250498777,3.0759058306093725,4.64,-0.129,-0.699,-10.719,0.574,21.993,36.986,True,0,1,0,0
-1.662,2.014,-2.1,compass,-44.196,0.336,-64.053,-1.74,0.783,-6.95,9.355,5.955754185836885,-46.701,22.566,4.495,22790.886,False,2.012916764374983,3.0823675754082607,4.64,-0.129,-0.816,-10.602,0.574,22.566,36.722,True,0,1,0,0
-1.512,2.574,-2.082,compass,-39.525,-0.0,-63.377,-1.483,-0.783,-6.95,9.355,6.0701476575647675,-46.38,22.887,4.495,22790.986,False,2.067578617101077,3.100676657861795,4.68,-0.129,-0.816,-10.562,0.574,22.887,36.722,True,0,1,0,0
-1.381,3.021,-2.061,compass,-36.145,-0.336,-63.597,-1.186,-1.343,-3.59,8.261,5.930879837287976,-46.048,23.219,4.588,22791.086,False,2.101274737372107,3.1842084787413447,4.68,-0.129,-0.816,-10.301,1.635,23.219,35.376,True,0,1,0,0
-1.31,3.245,-2.039,compass,-34.434,-0.671,-63.38,-0.877,-1.79,-3.59,8.261,5.798755383187373,-45.774,23.493,4.588,22791.186,False,2.118522433582599,3.1999727655742145,4.68,-0.09,-0.816,-10.027,1.635,23.493,35.376,True,0,1,0,0
-1.335,3.469,-2.018,compass,-30.621,-1.119,-64.778,-0.553,-2.238,-2.73,7.106,5.459791152913862,-45.582,23.685,4.8,22791.286,False,2.1085146107068056,3.359285109251178,4.68,-0.051,-0.777,-9.914,1.903,23.685,32.713,True,0,1,0,0
-1.312,3.245,-1.997,compass,-27.889,-1.119,-65.768,-0.248,-3.133,-2.73,7.106,5.103368132792474,-45.284,23.983,4.8,22791.386,False,2.037444038504912,3.3770905350181355,4.68,0.027,-0.66,-9.645,1.903,23.983,32.713,True,0,1,0,0
-1.359,3.133,-1.977,compass,-22.677,-1.119,-68.765,0.023,-3.357,-2.73,5.673,4.5725439550260765,-45.05,24.217,4.634,22791.486,False,1.744275880495007,3.274242029684614,4.68,0.027,-0.625,-9.531,1.903,24.217,31.671,True,0,1,0,0
-1.493,2.798,-1.963,compass,-21.15,-0.783,-71.24,0.257,-3.805,0.2,4.857,4.08090136587761,-44.889,24.378,4.817,22791.586,False,1.5521313800996857,3.2834222529362993,4.68,0.102,-0.469,-9.258,2.688,24.378,26.333,True,0,1,0,0
-1.627,1.231,-1.953,compass,-22.007,-0.56,-81.689,0.42,-3.581,0.2,4.857,3.655645222166531,-44.722,24.545,4.817,22791.686,False,0.7594551720324386,3.4228035316310446,4.68,0.102,-0.395,-9.23,2.688,24.545,26.333,True,0,1,0,0
-1.971,0.671,-1.953,compass,-31.087,-0.783,-89.793,0.572,-2.462,0.2,4.499,3.337619569937682,-44.512,24.755,4.994,22791.786,False,0.08096829659889443,3.4351813860419154,4.68,0.141,-0.125,-9.07,2.688,24.755,26.333,True,0,1,0,0
-2.111,-0.336,-1.958,compass,-0.648,-0.783,-98.732,0.545,-3.021,0.89,4.499,3.0488437053265782,-44.419,24.848,4.994,22791.886,False,-0.7010169366532372,3.5670246830535546,4.68,0.141,0.027,-8.996,2.649,24.848,24.811,True,0,1,0,0
-2.225,-1.007,-1.966,compass,-7.399,-0.671,-108.195,0.448,-2.238,0.89,4.638,2.8109303187149184,-44.357,24.91,5.049,22791.987,False,-1.5125120595598853,3.5708252958840525,4.68,0.102,0.145,-9.031,2.649,24.91,24.709,True,0,1,0,0
-2.33,-1.343,-1.977,compass,-13.959,-0.336,-115.874,0.299,-1.567,2.39,4.638,2.619341794342779,-44.344,24.923,5.049,22792.087,False,-2.1672870756428924,3.6105321153211216,4.68,0.027,0.336,-9.109,3.132,24.923,24.709,True,0,1,0,0
-2.442,-1.455,-1.991,compass,-23.078,-0.0,-120.898,0.116,-0.448,2.39,5.553,2.4662849557542965,-44.416,24.851,4.802,22792.187,False,-2.570126382780889,3.6060892545105943,4.68,-0.012,0.371,-9.188,3.132,24.851,26.215,True,0,1,0,0
-2.582,-1.79,-2.009,compass,-27.818,0.56,-117.194,-0.089,0.224,2.39,5.553,2.2807958669409727,-44.567,24.7,4.802,22792.287,False,-2.185972962606849,3.420855083308563,4.68,-0.09,0.449,-9.336,3.132,24.7,26.215,True,0,1,0,0
-2.739,-1.679,-2.031,compass,-29.388,0.112,-113.496,-0.311,0.56,3.14,6.409,2.1698351720918185,-44.818,24.449,4.732,22792.387,False,-1.9226124062562306,3.4060690793187134,4.68,-0.129,0.527,-9.457,3.069,24.449,28.75,True,0,1,0,0
-2.912,-1.455,-2.057,compass,-32.694,-0.224,-103.624,-0.545,1.902,3.14,6.409,2.219661598900075,-45.182,24.085,4.732,22792.487,False,-1.1440694161271843,3.33517510161687,4.68,-0.164,0.527,-9.609,3.069,24.085,28.75,True,0,1,0,0
-2.899,-0.895,-2.082,compass,-40.722,0.336,-94.364,-0.719,4.476,2.93,7.484,2.496849036133246,-45.425,23.842,4.73,22792.587,False,-0.39927106887436653,3.320889190428456,4.68,-0.164,0.449,-9.84,2.657,23.842,31.311,True,0,1,0,0
-2.75,-0.448,-2.102,compass,-36.527,0.336,-85.555,-0.998,4.252,2.93,7.484,2.914750949456678,-45.992,23.275,4.73,22792.687,False,0.29951420311785887,3.286040848291063,4.68,-0.164,0.41,-9.914,2.657,23.275,31.311,True,0,1,0,0
-2.567,0.0,-2.116,compass,-38.112,0.112,-78.763,-1.084,5.148,2.56,8.28,3.358274499628629,-46.267,23.0,4.236,22792.787,False,0.8527944754388374,3.269687855258498,4.75,-0.164,0.297,-10.066,2.207,23.0,34.289,True,0,1,0,0
-2.428,0.224,-2.126,compass,-36.001,-0.224,-71.949,-1.145,5.036,2.56,8.28,3.9300502071863037,-46.662,22.605,4.236,22792.887,False,1.24414534447906,2.9071757830521903,4.75,-0.129,0.145,-10.141,2.207,22.605,34.289,True,0,1,0,0
-2.086,0.56,-2.124,compass,-38.152,-0.783,-66.739,-1.147,6.155,2.56,8.917,4.493717265408696,-46.902,22.365,4.839,22792.987,False,1.6084642571418577,2.8942382500490456,4.75,-0.09,-0.125,-10.297,2.207,22.365,38.578,True,0,1,0,0
-1.746,0.783,-2.113,compass,-37.526,-0.895,-62.638,-1.125,6.491,2.33,8.917,4.961117946281508,-47.177,22.09,4.839,22793.087,False,2.152172523555892,3.2889679874954996,4.75,-0.051,-0.355,-10.34,1.91,22.09,38.578,True,0,1,0,0
-1.294,0.783,-2.089,compass,-37.27,-0.671,-59.624,-1.075,6.379,2.33,9.116,5.321154836613568,-47.361,21.906,4.479,22793.187,False,2.3819604928068157,3.2775912876995767,4.75,-0.012,-0.547,-10.375,1.91,21.906,40.449,True,0,1,0,0
-0.531,0.448,-2.008,compass,-57.847,-1.119,-58.367,-0.991,4.476,2.58,9.116,6.228265095338365,-47.83,21.437,4.479,22793.387,False,2.2914573814467745,3.0068652001018505,4.75,0.062,-0.969,-10.445,1.844,21.437,40.449,True,0,1,0,0
-0.531,0.448,-2.008,compass,-57.847,-1.119,-58.367,-0.991,4.476,2.58,9.156,6.228265095338365,-47.83,21.437,4.65,22793.387,False,2.2914573814467745,3.0068652001018505,4.75,0.062,-0.969,-10.445,1.844,21.437,43.183,True,0,1,0,0
0.514,-0.783,-1.879,compass,-57.352,-1.455,-62.039,-0.958,2.238,2.64,9.156,6.265508103660618,-48.132,21.135,4.65,22793.587,False,2.1283364281791113,3.103528739750403,4.75,0.027,-1.43,-10.484,1.678,21.135,43.183,True,0,1,0,0
0.514,-0.783,-1.879,compass,-57.352,-1.455,-62.039,-0.958,2.238,2.64,8.957,6.265508103660618,-48.132,21.135,4.697,22793.587,False,2.1283364281791113,3.103528739750403,4.75,0.027,-1.43,-10.484,1.678,21.135,43.694,True,0,1,0,0
0.975,-1.343,-1.715,compass,-53.6,-1.231,-68.38,-1.085,-0.56,2.68,8.957,5.7547449907333075,-48.182,21.085,4.697,22793.787,False,1.692877710235226,3.131613254902406,4.67,-0.051,-1.465,-10.258,1.531,21.085,43.694,True,0,1,0,0
0.975,-1.343,-1.715,compass,-53.6,-1.231,-68.38,-1.085,-0.56,2.68,8.479,5.7547449907333075,-48.182,21.085,4.537,22793.787,False,1.692877710235226,3.131613254902406,4.67,-0.051,-1.465,-10.258,1.531,21.085,41.89,True,0,1,0,0
1.047,-2.014,-1.552,compass,-50.745,-0.448,-76.568,-1.345,-2.574,2.64,8.479,4.966220419294746,-48.242,21.025,4.537,22793.988,False,1.0279174842880918,3.0217705075487005,4.67,-0.129,-1.312,-10.023,1.357,21.025,41.89,True,0,1,0,0
1.047,-2.014,-1.552,compass,-50.745,-0.448,-76.568,-1.345,-2.574,2.64,7.783,4.966220419294746,-48.242,21.025,4.555,22793.988,False,1.0279174842880918,3.0217705075487005,4.67,-0.129,-1.312,-10.023,1.357,21.025,39.152,True,0,1,0,0
1.022,-2.014,-1.397,compass,-44.504,-1.007,-88.608,-1.593,-4.252,2.64,7.783,4.1397913852434876,-47.795,21.472,4.555,22794.188,False,0.11893029143909088,3.0598444601496335,4.67,-0.203,-0.969,-9.719,1.357,21.472,39.152,True,0,1,0,0
1.022,-2.014,-1.397,compass,-44.504,-1.007,-88.608,-1.593,-4.252,2.64,7.425,4.1397913852434876,-47.795,21.472,4.401,22794.188,False,0.11893029143909088,3.0598444601496335,4.67,-0.203,-0.969,-9.719,1.357,21.472,33.346,True,0,1,0,0
0.635,-0.56,-1.263,compass,-36.369,-0.224,-93.459,-1.853,-4.7,2.68,7.425,3.688482615128452,-47.0,22.267,4.401,22794.388,False,-0.21920907595257988,3.001639355192733,4.67,-0.242,-0.66,-9.531,1.235,22.267,33.346,True,0,1,0,0
0.635,-0.56,-1.263,compass,-36.369,-0.224,-93.459,-1.853,-4.7,2.68,6.867,3.688482615128452,-47.0,22.267,4.537,22794.388,False,-0.21920907595257988,3.001639355192733,4.67,-0.242,-0.66,-9.531,1.235,22.267,31.054,True,0,1,0,0
-0.069,0.56,-1.182,compass,16.984,-0.0,-75.297,-1.876,-4.476,2.64,6.867,3.5366122128144175,-46.853,22.414,4.537,22794.588,False,1.1872603544156515,3.1029460605787547,4.67,-0.242,-0.508,-9.531,1.091,22.414,31.054,True,0,1,0,0
-0.409,1.007,-1.159,compass,16.684,0.224,-63.181,-1.824,-4.252,2.64,6.409,3.3945131893619687,-46.804,22.463,4.419,22794.688,False,2.021169898876298,3.024590472486913,4.67,-0.242,-0.434,-9.645,1.091,22.463,29.262,True,0,1,0,0
-0.748,1.455,-1.146,compass,14.805,0.448,-50.456,-1.735,-3.917,2.6,6.409,3.3138097135052744,-46.774,22.493,4.419,22794.788,False,2.833202873067189,3.026274504812048,4.67,-0.242,-0.395,-9.684,0.968,22.493,29.262,True,0,1,0,0
-1.062,1.567,-1.144,compass,14.251,0.112,-37.652,-1.63,-3.469,2.6,5.772,3.1609428483965445,-46.775,22.492,4.271,22794.889,False,3.3933691409619398,2.925037460213596,4.67,-0.164,-0.277,-9.836,0.968,22.492,29.96,True,0,1,0,0
-1.368,1.79,-1.15,compass,13.031,-0.112,-25.97,-1.483,-3.245,2.02,5.772,3.078278576242484,-46.782,22.485,4.271,22794.989,False,3.8461705160613278,2.924683517644836,4.67,-0.164,-0.203,-9.875,0.582,22.485,29.96,True,0,1,0,0
-1.64,1.79,-1.165,compass,9.771,0.448,-14.531,-1.344,-2.35,2.02,5.354,2.8872760361093475,-46.79,22.477,4.461,22795.089,False,-0.2759257266485765,3.054688587170829,4.67,-0.129,-0.125,-9.879,0.582,22.477,30.134,True,0,1,0,0
-1.886,1.567,-1.187,compass,9.961,0.448,-4.488,-1.217,-2.35,1.7,5.354,2.728617232555971,-46.756,22.511,4.461,22795.189,False,-3.6664448703071284,3.0565769682361075,4.67,-0.051,0.027,-9.836,0.364,22.511,30.134,True,0,1,0,0
-2.088,0.56,-1.214,compass,6.01,0.783,7.278,-1.12,-1.343,1.7,4.976,2.425040492104129,-46.694,22.573,4.436,22795.289,False,-4.4343502629662055,3.0427540387330745,4.67,0.027,0.027,-9.801,0.364,22.573,29.673,True,0,1,0,0
-2.353,-0.224,-1.248,compass,5.113,1.119,19.98,-1.054,-1.119,1.7,4.976,2.125535696786759,-46.484,22.783,4.436,22795.389,False,-3.9732517095014406,3.0545920336538672,4.67,0.102,0.105,-9.797,0.364,22.783,29.673,True,0,1,0,0
-2.434,-0.671,-1.284,compass,-21.227,1.455,29.252,-1.097,-0.224,1.57,4.996,1.7793596637101046,-46.24,23.027,4.39,22795.489,False,-3.0311093303456373,3.035981542212486,4.67,0.102,0.18,-9.797,0.285,23.027,30.146,True,0,1,0,0
-2.523,-1.343,-1.321,compass,-26.641,1.567,36.427,-1.18,0.336,1.57,4.996,1.396580180400768,-45.996,23.271,4.39,22795.589,False,-2.0658412241375617,3.049439699190558,4.67,0.102,0.145,-9.801,0.285,23.271,30.146,True,0,1,0,0
-2.582,-2.126,-1.359,compass,-31.416,1.567,0.274,-1.291,0.671,1.57,5.056,1.1824365891459212,-45.84,23.427,4.382,22795.689,False,-3.5110872827688935,3.0526488471850106,4.6,0.027,0.066,-9.879,0.285,23.427,30.362,True,0,1,0,0
-2.636,-2.126,-1.397,compass,-32.817,1.231,-24.492,-1.409,0.895,1.53,5.056,1.08500691901736,-45.746,23.521,4.382,22795.789,False,-4.256824002790792,3.0577833998747064,4.6,0.027,0.105,-9.957,0.243,23.521,30.362,True,0,1,0,0
-2.663,-2.35,-1.435,compass,-33.932,1.231,-34.604,-1.539,1.343,1.53,5.892,1.1044800044854637,-45.675,23.592,4.434,22795.889,False,-4.312837743987389,3.0983585475291853,4.6,-0.012,-0.047,-10.027,0.243,23.592,32.207,True,0,1,0,0
-2.658,-2.462,-1.472,compass,-33.159,1.007,-44.949,-1.683,1.119,1.63,5.892,1.1498779386281768,-45.618,23.649,4.434,22795.989,False,-3.7540348826883476,3.101505691211014,4.6,-0.051,-0.086,-10.102,0.268,23.649,32.207,True,0,1,0,0
-2.609,-2.238,-1.506,compass,-30.161,1.007,-45.724,-1.823,1.343,1.63,7.803,1.5756511486694218,-45.576,23.691,4.38,22796.089,False,-2.571875400802392,3.065739542283504,4.6,-0.051,-0.125,-10.102,0.268,23.691,31.884,True,0,1,0,0
-2.565,-1.902,-1.538,compass,-27.272,0.671,-46.567,-1.918,0.783,1.72,7.803,1.9170549166254547,-45.557,23.71,4.38,22796.189,False,-1.4363281599489233,3.066779275069928,4.6,-0.09,-0.277,-10.105,0.286,23.71,31.884,True,0,1,0,0
-2.404,-1.455,-1.564,compass,-26.093,0.448,-46.239,-2.102,0.783,1.72,8.221,2.318391922006006,-45.489,23.778,4.333,22796.289,False,-0.37779368904947846,3.0377707459172387,4.6,-0.09,-0.277,-10.066,0.286,23.778,32.361,True,0,1,0,0
-2.307,-1.007,-1.586,compass,-24.511,0.224,-45.719,-2.151,0.56,1.8,8.221,2.6646238126914765,-45.463,23.804,4.333,22796.389,False,0.4725717922314317,3.0391766668848947,4.6,-0.051,-0.316,-9.957,0.298,23.804,32.361,True,0,1,0,0
-2.212,-0.783,-1.605,compass,-32.265,-0.224,-46.208,-2.172,0.895,1.8,8.579,2.9874709124422285,-45.458,23.809,4.843,22796.489,False,1.1826773478553614,3.396664020656426,4.6,-0.051,-0.355,-9.879,0.298,23.809,32.653,True,0,1,0,0
-2.106,-0.336,-1.62,compass,-30.014,-0.783,-46.792,-2.144,0.448,1.8,8.579,3.2643650867201246,-45.474,23.793,4.843,22796.589,False,1.6610929642620536,3.3956942547378923,4.56,-0.09,-0.355,-9.719,0.298,23.793,32.653,True,0,1,0,0
-2.003,0.112,-1.631,compass,-28.879,-1.231,-46.752,-2.065,0.336,1.84,8.479,3.5563097935151866,-45.498,23.769,4.528,22796.689,False,1.9257582412465644,3.173521732353812,4.56,-0.051,-0.355,-9.613,0.281,23.769,32.477,True,0,1,0,0
-1.916,0.56,-1.64,compass,-27.77,-1.455,-46.551,-1.961,0.224,1.84,8.479,3.8218198837606647,-45.564,23.703,4.528,22796.789,False,2.2155457432005794,3.1698317338582864,4.56,-0.051,-0.355,-9.57,0.281,23.703,32.477,True,0,1,0,0
-1.832,0.783,-1.645,compass,-27.732,-1.455,-47.32,-1.835,0.336,1.84,7.823,3.8983934406428045,-45.649,23.618,4.703,22796.889,False,2.4621861436012016,3.2873099161578816,4.56,-0.09,-0.277,-9.496,0.281,23.618,31.759,True,0,1,0,0
-1.752,1.455,-1.649,compass,-26.965,-2.014,-47.455,-1.664,0.448,1.74,7.823,4.026527390649461,-45.771,23.496,4.703,22796.989,False,2.6150144555130934,3.2801572707508986,4.56,-0.09,-0.277,-9.535,0.22,23.496,31.759,True,0,1,0,0
-1.637,2.238,-1.648,compass,-27.068,-1.902,-47.636,-1.421,0.895,1.74,7.365,4.100727243138503,-45.906,23.361,4.844,22797.09,False,2.8080415757289856,3.3709609137968655,4.56,-0.09,-0.242,-9.535,0.22,23.361,32.192,True,0,1,0,0
-1.448,2.35,-1.642,compass,-26.531,-2.238,-47.596,-0.955,0.783,1.74,7.365,4.157145425588255,-46.273,22.994,4.844,22797.19,False,2.895504519909024,3.3486168186946235,4.56,-0.09,-0.203,-9.57,0.22,22.994,32.192,True,0,1,0,0
-1.328,2.462,-1.633,compass,-28.85,-2.126,-48.071,-0.711,1.567,1.74,6.788,4.127130661495625,-46.498,22.769,4.885,22797.29,False,2.960906780673101,3.36291347271993,4.56,-0.051,-0.203,-9.645,0.198,22.769,32.323,True,0,1,0,0
-1.206,2.798,-1.62,compass,-27.899,-2.798,-48.265,-0.453,1.455,1.74,6.788,4.128098579163892,-46.76,22.507,4.885,22797.39,False,3.0026828979573312,3.3466854491492555,4.56,-0.09,-0.203,-9.762,0.198,22.507,32.323,True,0,1,0,0
-1.068,2.798,-1.604,compass,-30.492,-2.462,-48.767,-0.212,2.238,1.82,6.37,4.076328089385318,-47.034,22.233,4.912,22797.49,False,3.027634647350992,3.3481723773613163,4.53,-0.09,-0.203,-9.84,0.218,22.233,33.073,True,0,1,0,0
-0.911,2.91,-1.583,compass,-31.348,-2.238,-49.219,0.018,2.574,1.82,6.37,4.07058129932521,-47.293,21.974,4.912,22797.59,False,3.0307923746313237,3.3319030881399847,4.53,-0.09,-0.277,-9.996,0.218,21.974,33.073,True,0,1,0,0
-0.743,3.021,-1.558,compass,-32.274,-1.902,-49.839,0.205,2.91,1.82,6.171,4.054604377427376,-47.56,21.707,4.926,22797.69,False,3.023088987709216,3.3242056684718584,4.53,-0.09,-0.316,-10.027,0.218,21.707,33.435,True,0,1,0,0
-0.522,2.91,-1.526,compass,-31.426,-2.238,-50.619,0.41,2.574,1.84,6.171,4.013956264075952,-47.798,21.469,4.926,22797.79,False,2.9918258261206137,3.3090931016085663,4.53,-0.012,-0.434,-10.141,0.203,21.469,33.435,True,0,1,0,0
-0.305,2.91,-1.49,compass,-48.303,-1.902,-52.08,0.559,3.357,1.84,6.21,4.09069158531978,-48.028,21.239,4.92,22797.89,False,2.905500167803561,3.290506086375266,4.53,-0.012,-0.508,-10.141,0.203,21.239,34.899,True,0,1,0,0
-0.064,1.902,-1.447,compass,-52.165,-1.79,-54.915,0.683,3.805,1.84,6.21,4.170203349293552,-48.25,21.017,4.92,22797.99,False,2.7203224471315375,3.2762966272738714,4.53,-0.012,-0.699,-10.145,0.203,21.017,34.899,True,0,1,0,0
0.425,1.567,-1.391,compass,-51.264,-2.014,-58.654,0.779,3.021,1.39,6.37,4.226673021465827,-48.53,20.737,4.932,22798.09,False,2.4615888997617192,3.266043305238769,4.53,-0.012,-0.777,-10.141,0.032,20.737,34.203,True,0,1,0,0
0.682,0.895,-1.329,compass,-52.516,-1.567,-62.998,0.791,2.686,1.39,6.37,4.243823994581501,-48.605,20.662,4.932,22798.19,False,2.15019864617462,3.26119290312084,4.53,0.027,-0.777,-10.062,0.032,20.662,34.203,True,0,1,0,0
0.916,0.336,-1.261,compass,-51.336,-1.343,-67.432,0.713,1.567,1.39,6.688,4.228092977849953,-48.622,20.645,4.891,22798.29,False,1.8048895391544701,3.2331489132414943,4.53,0.027,-0.852,-9.953,0.032,20.645,34.244,True,0,1,0,0
1.137,-0.224,-1.189,compass,-52.627,-1.007,-71.929,0.559,1.343,0.4,6.688,4.1972035602666695,-48.604,20.663,4.891,22798.39,False,1.460329961976727,3.2342596126770897,4.53,-0.012,-0.93,-9.914,-0.302,20.663,34.244,True,0,1,0,0
1.3,-0.895,-1.115,compass,-54.183,-0.671,-75.384,0.401,1.119,0.4,6.967,4.20814314428958,-48.618,20.649,4.687,22798.49,False,1.138673087696415,3.098470837685418,4.58,-0.012,-0.852,-9.723,-0.302,20.649,34.199,True,0,1,0,0
1.441,-1.455,-1.038,compass,-56.76,-0.448,-78.725,0.197,1.343,0.24,6.967,4.236538992158321,-48.604,20.663,4.687,22798.59,False,0.882436850022619,3.099286920953308,4.58,-0.012,-0.852,-9.641,-0.351,20.663,34.199,True,0,1,0,0
1.558,-2.35,-0.96,compass,-58.811,-0.448,-82.248,-0.104,0.895,0.24,7.166,4.259082386976324,-48.545,20.722,4.646,22798.69,False,0.603881093323763,3.07591865554737,4.58,-0.051,-0.891,-9.641,-0.351,20.722,33.691,True,0,1,0,0
1.614,-2.798,-0.883,compass,-57.202,-0.0,-86.912,-0.422,-0.448,0.24,7.166,4.183877789361119,-48.487,20.78,4.646,22798.79,False,0.23600554049713496,3.0794198364943424,4.58,-0.051,-0.852,-9.645,-0.351,20.78,33.691,True,0,1,0,0
1.631,-3.469,-0.807,compass,-57.606,1.455,-90.504,-0.763,-1.119,0.36,7.584,4.141365899262982,-48.41,20.857,4.498,22798.891,False,-0.045596704233346504,2.9860534656416253,4.58,-0.09,-0.852,-9.68,-0.275,20.857,33.037,True,0,1,0,0
1.539,-3.805,-0.737,compass,-59.702,1.679,-93.538,-1.497,-0.895,0.36,7.584,4.1347177585058015,-48.154,21.113,4.498,22798.991,False,-0.26672381213749463,3.0010073252935303,4.58,-0.09,-0.891,-9.801,-0.275,21.113,33.037,True,0,1,0,0
1.421,-3.805,-0.672,compass,-57.176,1.567,-96.388,-1.859,-1.679,0.3,7.783,4.132939830433719,-48.003,21.264,4.51,22799.091,False,-0.4840848830454884,3.01764001528708,4.58,-0.129,-0.93,-9.914,-0.278,21.264,32.013,True,0,1,0,0
1.279,-3.693,-0.614,compass,-54.953,1.455,-99.102,-2.196,-2.238,0.3,7.783,4.101961641763027,-47.814,21.453,4.51,22799.191,False,-0.6882612557685537,3.0286891161892275,4.58,-0.129,-0.969,-10.066,-0.278,21.453,32.013,True,0,1,0,0
1.102,-3.469,-0.562,compass,-0.913,1.567,-97.218,-2.484,-3.581,0.3,7.862,3.9095337130877126,-47.613,21.654,4.232,22799.291,False,-0.5017340262712766,2.8529900120012757,4.58,-0.164,-0.969,-10.219,-0.278,21.654,31.39,True,0,1,0,0
0.86,-2.91,-0.52,compass,1.445,1.567,-91.755,-2.73,-4.029,0.36,7.862,3.658949835928577,-47.417,21.85,4.232,22799.391,False,-0.09476639305143703,2.86365554710687,4.63,-0.164,-0.93,-10.223,-0.23,21.85,31.39,True,0,1,0,0
0.594,-2.462,-0.486,compass,4.4,1.567,-84.414,-2.914,-4.588,0.36,7.783,3.3787826304755733,-47.209,22.058,4.405,22799.491,False,0.4694013596522434,2.99247420868319,4.63,-0.203,-0.891,-10.34,-0.23,22.058,30.195,True,0,1,0,0
0.285,-2.014,-0.463,compass,7.445,1.902,-74.2,-3.024,-5.26,0.28,7.783,3.138906116334154,-47.019,22.248,4.405,22799.591,False,1.2409470145126507,3.003201198746046,4.63,-0.203,-0.816,-10.34,-0.245,22.248,30.195,True,0,1,0,0
-0.064,-1.231,-0.451,compass,5.173,1.455,-64.182,-3.075,-4.588,0.28,7.365,2.8948202610028853,-46.84,22.427,4.561,22799.691,False,2.027578954778577,3.11962463456725,4.63,-0.164,-0.66,-10.336,-0.245,22.427,28.524,True,0,1,0,0
-0.899,-0.224,-0.465,compass,7.718,0.783,-52.959,-3.022,-5.26,0.28,7.365,2.8121136087903453,-46.58,22.687,4.561,22799.791,False,2.7886544988193647,3.134722952898339,4.63,-0.164,-0.508,-10.336,-0.245,22.687,28.524,True,0,1,0,0
-1.358,0.448,-0.491,compass,10.655,1.007,-42.17,-2.918,-5.595,0.24,6.788,2.6924267535672826,-46.486,22.781,4.66,22799.891,False,3.485282182766559,3.2083844800040535,4.63,-0.164,-0.395,-10.336,-0.234,22.781,27.185,True,0,1,0,0
-1.804,0.895,-0.531,compass,11.726,0.895,-31.61,-2.75,-5.931,0.24,6.788,2.6648678138521804,-46.429,22.838,4.66,22799.992,False,3.9895832717124775,3.2117603026065105,4.63,-0.129,-0.125,-10.223,-0.234,22.838,27.185,True,0,1,0,0
-2.24,1.231,-0.582,compass,22.242,0.448,-21.477,-2.541,-5.148,0.24,5.912,2.677402652410045,-46.417,22.85,4.461,22800.092,False,4.162985424722206,3.0757734824385725,4.63,-0.129,0.027,-10.105,-0.234,22.85,24.697,True,0,1,0,0
-2.649,1.567,-0.644,compass,21.708,0.224,-11.644,-2.308,-5.148,0.26,5.912,2.7469460309119804,-46.484,22.783,4.461,22800.192,False,-0.04276070857002429,3.0719982520356632,4.63,-0.164,0.258,-9.953,-0.204,22.783,24.697,True,0,1,0,0
-3.03,1.79,-0.716,compass,16.983,-0.0,-0.348,-2.045,-3.693,0.26,5.295,2.5331557748397193,-46.595,22.672,5.089,22800.292,False,-3.9637184438934905,3.4971512581563644,4.61,-0.129,0.527,-9.723,-0.204,22.672,22.512,True,0,1,0,0
-3.319,1.902,-0.794,compass,9.538,0.224,8.937,-1.78,-2.126,0.26,5.295,2.3399799744764054,-46.682,22.585,5.089,22800.392,False,-5.089377602314682,3.491554909137413,4.61,-0.09,0.602,-9.613,-0.204,22.585,22.512,True,0,1,0,0
-3.65,2.35,-0.959,compass,-5.987,0.895,17.22,-1.229,1.007,-0.05,4.737,1.989006379705759,-46.763,22.432,4.704,22800.492,False,-2.432378090276611,3.2183490389108163,4.61,-0.051,0.68,-9.262,-0.288,22.432,22.137,True,0,1,0,0
-3.65,2.35,-0.959,compass,-5.987,0.895,17.22,-1.229,1.007,-0.05,4.737,1.989006379705759,-46.835,22.432,4.704,22800.592,False,-2.432378090276611,3.2183490389108163,4.61,-0.051,0.68,-9.262,-0.288,22.432,22.137,True,0,1,0,0
-3.965,2.014,-1.13,compass,-18.674,-0.0,12.451,-0.629,3.469,-0.05,4.737,1.7540073962012839,-47.481,21.786,4.877,22800.692,False,-3.9400468728050377,3.29637341049558,4.61,0.102,0.68,-9.035,-0.288,21.786,25.302,True,0,1,0,0
-3.965,2.014,-1.13,compass,-18.674,-0.0,12.451,-0.629,3.469,-1.28,4.737,1.7540073962012839,-47.481,21.786,4.877,22800.792,False,-3.9400468728050377,3.29637341049558,4.61,0.102,0.68,-9.035,-0.677,21.786,25.302,True,0,1,0,0
-3.972,1.79,-1.216,compass,-16.522,-0.56,8.676,-0.438,3.133,-1.28,5.076,1.7098356072212786,-47.832,21.435,4.755,22800.892,False,-1.900078194669271,3.192072807938959,4.61,0.141,0.488,-8.957,-0.677,21.435,28.055,True,0,1,0,0
-3.857,1.567,-1.295,compass,-22.573,-0.671,2.866,-0.277,4.364,-1.28,5.076,1.7041837464806893,-48.154,21.113,4.755,22800.992,False,-0.2269993768266927,3.1722308377376085,4.61,0.219,0.336,-8.953,-0.677,21.113,28.055,True,0,1,0,0
-3.397,0.448,-1.427,compass,-23.817,-1.902,-6.978,-0.087,4.588,-2.87,5.633,1.6803770611345827,-48.784,20.483,4.765,22801.192,False,1.9688646639636238,3.1395023667189736,4.61,0.219,-0.125,-9.23,-1.139,20.483,30.586,True,0,1,0,0
-3.397,0.448,-1.427,compass,-23.817,-1.902,-6.978,-0.087,4.588,-2.87,5.633,1.6803770611345827,-48.784,20.483,4.765,22801.192,False,1.9688646639636238,3.1395023667189736,4.61,0.219,-0.125,-9.23,-1.139,20.483,30.586,True,0,1,0,0
-2.818,-0.336,-1.518,compass,-62.435,-1.79,-21.47,-0.006,5.26,-3.73,6.907,2.9422691026799286,-49.391,19.876,4.679,22801.393,False,2.5101183634322255,3.045651349196926,4.58,-0.012,-0.508,-9.723,-1.312,19.876,33.662,True,0,1,0,0
-2.818,-0.336,-1.518,compass,-62.435,-1.79,-21.47,-0.006,5.26,-3.73,6.907,2.9422691026799286,-49.391,19.876,4.679,22801.393,False,2.5101183634322255,3.045651349196926,4.58,-0.012,-0.508,-9.723,-1.312,19.876,33.662,True,0,1,0,0
-2.456,-0.336,-1.546,compass,-60.951,-1.902,-29.171,0.002,5.148,-3.73,8.002,3.663310672559063,-49.55,19.717,4.669,22801.493,False,2.5125317292842992,3.029500225481763,4.58,-0.09,-0.625,-9.957,-1.312,19.717,35.27,True,0,1,0,0
-2.011,0.336,-1.56,compass,-58.308,-1.119,-36.645,-0.01,4.588,-4.57,8.002,4.260959473422651,-49.63,19.637,4.669,22801.593,False,2.421307805407678,3.024543766518804,4.58,-0.395,-0.777,-10.301,-1.593,19.637,35.27,True,0,1,0,0
-0.827,1.231,-1.528,compass,-53.157,0.56,-48.985,0.136,3.133,-5.46,8.818,5.295474911669458,-49.425,19.842,4.879,22801.793,False,2.268486809577136,3.1738168239077234,4.58,-0.473,-0.816,-10.758,-1.887,19.842,35.779,True,0,1,0,0
-0.827,1.231,-1.528,compass,-53.157,0.56,-48.985,0.136,3.133,-5.46,8.818,5.295474911669458,-49.425,19.842,4.879,22801.793,False,2.268486809577136,3.1738168239077234,4.58,-0.473,-0.816,-10.758,-1.887,19.842,35.779,True,0,1,0,0
-0.259,1.119,-1.46,compass,-50.463,1.567,-57.5,0.305,1.567,-5.46,9.017,5.8890582103334665,-49.065,20.202,4.646,22801.993,False,1.9378116869006017,3.0441543650231155,4.58,-0.203,-0.777,-10.832,-1.887,20.202,35.679,True,0,1,0,0
-0.259,1.119,-1.46,compass,-50.463,1.567,-57.5,0.305,1.567,-5.46,9.017,5.8890582103334665,-49.065,20.202,4.646,22801.993,False,1.9378116869006017,3.0441543650231155,4.58,-0.203,-0.777,-10.832,-1.887,20.202,35.679,True,0,1,0,0
0.341,0.224,-1.363,compass,-53.177,1.79,-63.74,-0.173,1.79,-6.24,8.758,6.192363647461006,-48.071,21.196,4.426,22802.193,False,1.6718345672129868,2.95783190429331,4.62,0.027,-0.625,-10.488,-1.958,21.196,34.089,True,0,1,0,0
0.341,0.224,-1.363,compass,-53.177,1.79,-63.74,-0.173,1.79,-6.24,8.758,6.192363647461006,-48.071,21.196,4.426,22802.193,False,1.6718345672129868,2.95783190429331,4.62,0.027,-0.625,-10.488,-1.958,21.196,34.089,True,0,1,0,0
