imu.roll,imu.pitchrate,imu.heel,ap.mode,ap.wind_angle,imu.headingrate,ap.true_wind_angle,imu.pitch,imu.rollrate,rudder.angle,wind.speed,ap.true_wind_speed,ap.heading_error,ap.heading,gps.speed,timestamp,ap.enabled,ap.vmg,ap.cmg,sow.speed,imu.accel_X,imu.accel_Y,imu.accel_Z,rudder.speed,imu.heading,gps.track,perf.quality_flag,perf.boat_config.Main,perf.boat_config.jib,perf.boat_config.spi,perf.boat_config.weight
-1.285,-0.895,-1.4,compass,-47.997,-2.126,-82.287,-0.675,-0.112,29.37,3.682,1.7326451679395856,-4.19,35.318,2.453,23045.059,False,0.30240075111790393,2.4467716070819554,2.16,-0.012,-0.355,-9.801,6.775,35.318,51.929,True,0,1,0,0
-1.271,-0.783,-1.396,compass,-46.505,-2.35,-84.381,-0.742,-0.224,29.35,3.682,1.7155972413160088,-4.381,35.127,2.453,23045.159,False,0.21277891225745157,2.446158625079027,2.16,-0.051,-0.316,-9.84,6.091,35.127,51.929,True,0,1,0,0
-1.263,-0.671,-1.392,compass,-44.188,-2.35,-85.65,-0.807,-0.448,29.35,3.862,1.7256425696067264,-4.573,34.935,2.506,23045.259,False,0.16166400757791544,2.4978395569759915,2.16,-0.051,-0.277,-9.836,6.091,34.935,50.78,True,0,1,0,0
-1.249,-0.448,-1.388,compass,-44.911,-2.686,-85.589,-0.852,-0.112,29.35,3.862,1.765353758788952,-4.779,34.729,2.506,23045.359,False,0.16354624944148555,2.497102677918948,2.16,-0.09,-0.316,-9.914,6.091,34.729,50.78,True,0,1,0,0
-1.234,-0.224,-1.383,compass,-44.216,-2.574,-85.127,-0.897,0.0,29.52,4.001,1.8306057644439233,-4.984,34.524,2.63,23045.459,False,0.19224210847564094,2.620286729176828,2.16,-0.09,-0.277,-9.918,5.538,34.524,50.483,True,0,1,0,0
-1.203,0.112,-1.378,compass,-45.436,-2.35,-83.593,-0.958,0.56,29.52,4.001,1.9397108517138426,-5.41,34.098,2.63,23045.559,False,0.25406359212733537,2.6185140092420527,2.16,-0.09,-0.316,-9.914,5.538,34.098,50.483,True,0,1,0,0
-1.183,0.224,-1.372,compass,-44.273,-2.798,-81.553,-0.96,0.448,29.52,4.021,2.038116727959596,-5.63,33.878,2.488,23045.659,False,0.3291817181510857,2.4763175049637307,2.16,-0.051,-0.316,-9.957,5.538,33.878,50.81,True,0,1,0,0
-1.151,0.336,-1.366,compass,-45.952,-2.686,-79.491,-0.951,0.895,29.69,4.021,2.1564786225656323,-5.858,33.65,2.488,23045.759,False,0.41801713388743156,2.4753260166106874,2.15,-0.012,-0.355,-9.953,5.042,33.65,50.81,True,0,1,0,0
-1.116,0.336,-1.358,compass,-45.418,-2.686,-77.96,-0.928,0.783,29.69,4.001,2.221236507891409,-6.077,33.431,2.516,23045.859,False,0.4892795274146535,2.5013993677692,2.15,-0.012,-0.395,-9.996,5.042,33.431,52.138,True,0,1,0,0
-1.068,0.336,-1.349,compass,-47.026,-2.574,-76.575,-0.887,1.119,30.86,4.001,2.2987314068497593,-6.325,33.183,2.516,23045.959,False,0.5482688067310812,2.5002240568451892,2.15,-0.012,-0.395,-9.957,5.125,33.183,52.138,True,0,1,0,0
-1.025,0.56,-1.34,compass,-43.2,-3.021,-75.953,-0.836,0.56,30.86,3.901,2.3093612596570945,-6.573,32.935,2.535,23046.059,False,0.5789304761892556,2.5183155353504367,2.15,-0.012,-0.469,-9.957,5.125,32.935,51.679,True,0,1,0,0
-0.975,0.224,-1.329,compass,-47.157,-2.798,-75.485,-0.788,1.007,30.98,3.901,2.3278380047761766,-6.811,32.697,2.535,23046.159,False,0.5990396840834634,2.517083457061961,2.15,0.027,-0.469,-9.953,4.671,32.697,51.679,True,0,1,0,0
-0.921,0.336,-1.316,compass,-45.016,-2.91,-75.818,-0.748,0.671,30.98,3.663,2.266654176327569,-7.053,32.455,2.539,23046.259,False,0.5855121870962335,2.5196544710018256,2.15,0.027,-0.469,-9.953,4.671,32.455,52.888,True,0,1,0,0
-0.871,-0.112,-1.303,compass,-42.232,-3.245,-77.853,-0.721,-0.224,30.98,3.663,2.1192865069182143,-7.329,32.179,2.539,23046.359,False,0.4961707859387332,2.518118987714654,2.15,0.027,-0.469,-9.914,4.671,32.179,52.888,True,0,1,0,0
-0.81,-0.224,-1.288,compass,-45.051,-3.357,-80.053,-0.687,0.112,32.13,3.603,2.02773164981426,-7.321,32.187,2.589,23046.459,False,0.41708337030209625,2.568299505970845,2.15,-0.012,-0.508,-9.918,4.587,32.187,50.306,True,0,1,0,0
-0.793,-0.224,-1.273,compass,-40.589,-3.245,-82.881,-0.679,-0.56,32.13,3.603,1.9103298046955226,-7.248,32.26,2.589,23046.559,False,0.2997262925880406,2.568717757907541,2.15,-0.012,-0.508,-9.879,4.587,32.26,50.306,True,0,1,0,0
-0.775,-0.336,-1.259,compass,-42.841,-3.469,-86.036,-0.691,-0.336,36.9,3.483,1.8036230769247688,-7.293,32.215,2.642,23046.659,False,0.16409124532022526,2.6205256891889284,2.13,-0.051,-0.508,-9.836,6.497,32.215,50.136,True,0,1,0,0
-0.767,-0.336,-1.244,compass,-39.509,-3.357,-89.458,-0.709,-0.783,36.9,3.483,1.6886595572472618,-7.592,31.916,2.642,23046.76,False,-0.0002766350910235645,2.618738061799779,2.13,-0.051,-0.469,-9.836,6.497,31.916,50.136,True,0,1,0,0
-0.753,-0.224,-1.229,compass,-41.275,-3.469,-91.328,-0.725,-0.448,36.9,3.404,1.5994471784368542,-8.071,31.437,2.646,23046.86,False,-0.0983118839258651,2.6195776452672206,2.13,-0.051,-0.434,-9.801,6.497,31.437,50.283,True,0,1,0,0
-0.74,-0.224,-1.214,compass,-42.095,-3.133,-92.396,-0.747,-0.336,39.74,3.404,1.5295092738364569,-8.552,30.956,2.646,23046.96,False,-0.15672475789714696,2.616366295207629,2.13,-0.051,-0.395,-9.801,6.803,30.956,50.283,True,0,1,0,0
-0.741,-0.112,-1.2,compass,-40.462,-3.357,-93.284,-0.767,-0.448,39.74,3.284,1.4724131865115162,-8.945,30.563,2.558,23047.06,False,-0.19493949878701738,2.5271935091898703,2.13,-0.051,-0.355,-9.797,6.803,30.563,48.658,True,0,1,0,0
-0.759,-0.112,-1.187,compass,-42.139,-3.357,-93.336,-0.778,-0.224,40.17,3.284,1.4361670495312102,-9.233,30.275,2.558,23047.16,False,-0.19663004331675016,2.52515965444119,2.13,-0.051,-0.355,-9.84,6.338,30.275,48.658,True,0,1,0,0
-0.79,0.224,-1.175,compass,-40.717,-3.469,-92.846,-0.778,-0.112,40.17,3.145,1.3951997006807109,-9.545,29.963,2.564,23047.26,False,-0.17555594156806653,2.5286390394381786,2.13,-0.012,-0.316,-9.801,6.338,29.963,49.938,True,0,1,0,0
-0.869,0.224,-1.166,compass,-42.329,-4.141,-91.803,-0.763,0.112,43.31,3.145,1.3695501433353705,-10.29,29.218,2.564,23047.36,False,-0.14434263026004907,2.522894163586408,2.13,-0.012,-0.355,-9.836,7.253,29.218,49.938,True,0,1,0,0
-0.901,0.224,-1.158,compass,-43.107,-3.693,-91.476,-0.739,0.224,43.31,3.065,1.346139023543189,-10.686,28.822,2.574,23047.46,False,-0.1300129730380521,2.5292184823163,2.13,-0.012,-0.355,-9.836,7.253,28.822,49.481,True,0,1,0,0
-0.928,0.112,-1.151,compass,-43.852,-3.693,-91.634,-0.724,0.224,43.31,3.065,1.321167366838442,-11.105,28.403,2.574,23047.56,False,-0.1377567635526147,2.525665445243524,2.13,-0.012,-0.434,-9.918,7.253,28.403,49.481,True,0,1,0,0
-0.942,0.0,-1.145,compass,-47.006,-4.029,-92.48,-0.713,0.56,46.45,2.966,1.3236316379652568,-11.515,27.993,2.584,23047.66,False,-0.17657913332584635,2.53157604566185,2.12,0.027,-0.395,-9.914,7.582,27.993,47.508,True,0,1,0,0
-0.94,-0.112,-1.139,compass,-46.285,-4.029,-94.32,-0.698,0.336,46.45,2.966,1.3109291235687932,-11.918,27.59,2.584,23047.76,False,-0.25915159987729924,2.5278808933434553,2.12,-0.012,-0.434,-9.918,7.582,27.59,47.508,True,0,1,0,0
-0.932,-0.112,-1.132,compass,-47.088,-4.141,-96.256,-0.686,0.448,46.45,2.946,1.310210050763431,-12.285,27.223,2.636,23047.86,False,-0.3514849972426373,2.5757036337770405,2.12,-0.012,-0.434,-9.918,7.582,27.223,47.001,True,0,1,0,0
-0.925,-0.112,-1.126,compass,-44.673,-4.029,-98.886,-0.68,0.112,46.13,2.946,1.2918033335900392,-12.646,26.862,2.636,23047.96,False,-0.4697728252273122,2.572115469652825,2.12,-0.012,-0.434,-9.957,6.717,26.862,47.001,True,0,1,0,0
-0.906,-0.112,-1.12,compass,-46.306,-4.252,-99.513,-0.684,0.336,46.13,2.946,1.2998769763130054,-13.02,26.488,2.554,23048.06,False,-0.48215721978118686,2.4887484622044598,2.12,0.027,-0.434,-9.953,6.717,26.488,45.824,True,0,1,0,0
-0.889,-0.56,-1.113,compass,-48.199,-4.364,-102.372,-0.695,0.112,46.58,2.946,1.2826276920868502,-13.393,26.115,2.554,23048.16,False,-0.6063086039915664,2.484941606451207,2.12,-0.012,-0.434,-9.957,6.27,26.115,45.824,True,0,1,0,0
-0.829,-0.448,-1.104,compass,-54.849,-4.029,-106.972,-0.752,-0.336,46.58,2.906,1.2870149447820984,-13.065,26.443,2.615,23048.26,False,-0.7982292639731099,2.5470019767317105,2.12,-0.012,-0.469,-9.957,6.27,26.443,45.37,True,0,1,0,0
-0.784,-0.448,-1.095,compass,-55.6,-4.252,-110.316,-0.777,-0.224,46.58,2.906,1.3102239854707625,-13.066,26.442,2.615,23048.36,False,-0.9345965530578801,2.546990771307937,2.12,-0.012,-0.434,-9.918,6.27,26.442,45.37,True,0,1,0,0
-0.762,-0.448,-1.085,compass,-54.877,-4.029,-113.293,-0.8,-0.336,47.51,2.866,1.335846300104223,-13.217,26.291,2.558,23048.46,False,-1.0364946403834518,2.4905331748426036,2.12,-0.012,-0.469,-9.918,5.942,26.291,44.7,True,0,1,0,0
-0.738,-0.224,-1.074,compass,-54.262,-4.364,-114.372,-0.816,-0.112,47.51,2.866,1.3743976775663929,-13.405,26.103,2.558,23048.561,False,-1.080889711770737,2.4886074122668673,2.11,-0.051,-0.395,-9.875,5.942,26.103,44.7,True,0,1,0,0
-0.706,-0.336,-1.063,compass,-55.392,-4.252,-115.591,-0.833,-0.112,48.08,2.767,1.4167007301619245,-13.657,25.851,2.481,23048.661,False,-1.0979539213883944,2.4104140600059973,2.11,-0.051,-0.434,-9.836,5.643,25.851,42.452,True,0,1,0,0
-0.679,0.112,-1.052,compass,-52.759,-4.588,-114.886,-0.833,0.112,48.08,2.767,1.4713635328152175,-13.944,25.564,2.481,23048.761,False,-1.073420005087271,2.40744819332517,2.11,-0.051,-0.395,-9.836,5.643,25.564,42.452,True,0,1,0,0
-0.656,0.0,-1.04,compass,-55.17,-4.252,-114.251,-0.823,0.336,48.08,2.747,1.5194384523052429,-14.295,25.213,2.488,23048.861,False,-1.0560798595299206,2.4112721630166263,2.11,-0.051,-0.434,-9.836,5.643,25.213,42.65,True,0,1,0,0
-0.641,0.224,-1.028,compass,-53.243,-4.7,-113.325,-0.81,0.336,49.05,2.747,1.5620764120205717,-14.674,24.834,2.488,23048.961,False,-1.0237382099733903,2.4071597971336556,2.11,-0.012,-0.434,-9.84,5.399,24.834,42.65,True,0,1,0,0
-0.599,0.224,-1.015,compass,-52.526,-4.924,-113.988,-0.765,0.224,49.05,2.727,1.5790687905707133,-15.519,23.989,2.613,23049.061,False,-1.1207856545462196,2.5174842367506116,2.11,-0.012,-0.469,-9.797,5.399,23.989,42.821,True,0,1,0,0
-0.571,0.336,-1.002,compass,-54.989,-4.588,-112.822,-0.725,0.783,49.62,2.727,1.623893353608187,-15.968,23.54,2.613,23049.161,False,-1.0741837649986554,2.511923059986923,2.11,-0.012,-0.469,-9.84,5.144,23.54,42.821,True,0,1,0,0
-0.545,0.224,-0.988,compass,-53.941,-4.812,-111.803,-0.691,0.448,49.62,2.727,1.637027389700252,-16.418,23.09,2.444,23049.261,False,-0.9660883740368549,2.3439736926034582,2.11,-0.012,-0.508,-9.84,5.144,23.09,42.41,True,0,1,0,0
-0.51,0.112,-0.974,compass,-56.823,-4.7,-110.496,-0.652,0.783,49.62,2.727,1.6650418704334213,-16.874,22.634,2.444,23049.361,False,-0.9158109272844726,2.3383980418012116,2.11,0.027,-0.508,-9.914,5.144,22.634,42.41,True,0,1,0,0
-0.471,0.224,-0.958,compass,-53.905,-4.812,-110.637,-0.621,0.448,49.58,2.846,1.6754886378570437,-17.323,22.185,2.611,23049.462,False,-0.9851444916172091,2.4923767177209752,2.1,-0.012,-0.469,-9.879,4.616,22.185,42.995,True,0,1,0,0
-0.429,0.112,-0.943,compass,-54.818,-4.924,-111.004,-0.603,0.448,49.58,2.846,1.6728756166279521,-18.121,21.387,2.611,23049.562,False,-1.0126227825630028,2.481300275687753,2.1,-0.012,-0.508,-9.918,4.616,21.387,42.995,True,0,1,0,0
-0.395,-0.112,-0.926,compass,-55.213,-4.7,-110.04,-0.599,0.224,49.58,3.085,1.6521243188638186,-18.54,20.968,2.51,23049.662,False,-0.9313903311385515,2.379455418975999,2.1,-0.012,-0.508,-9.957,4.616,20.968,45.72,True,0,1,0,0
-0.355,-0.224,-0.909,compass,-56.744,-4.924,-109.299,-0.604,0.336,49.58,3.085,1.6392335959270552,-18.918,20.59,2.51,23049.762,False,-0.8975550977567593,2.374140087587762,2.1,-0.012,-0.547,-9.953,4.155,20.59,45.72,True,0,1,0,0
-0.333,-0.448,-0.892,compass,-55.232,-4.7,-108.889,-0.626,-0.224,49.58,3.344,1.6401622756305207,-19.352,20.156,2.471,23049.862,False,-0.8661042636648898,2.3312188972567593,2.1,-0.012,-0.547,-9.992,4.155,20.156,43.415,True,0,1,0,0
-0.305,-0.671,-0.874,compass,-56.483,-4.364,-109.388,-0.654,-0.336,49.58,3.344,1.623863009698492,-19.85,19.658,2.471,23049.962,False,-0.887398797528068,2.324015633612917,2.1,-0.051,-0.586,-9.992,4.155,19.658,43.415,True,0,1,0,0
-0.266,-0.56,-0.856,compass,-62.595,-4.7,-109.345,-0.746,-0.448,49.51,3.483,1.6476345893232953,-20.399,19.109,2.477,23050.062,False,-0.8903366270201909,2.3213338909338646,2.1,-0.012,-0.547,-9.992,3.716,19.109,42.502,True,0,1,0,0
-0.256,-0.783,-0.838,compass,-65.546,-4.252,-109.452,-0.805,-0.224,49.51,3.483,1.6893221436503834,-20.656,18.852,2.477,23050.162,False,-0.8874239671611585,2.3174385711934224,2.1,-0.012,-0.547,-9.992,3.716,18.852,42.502,True,0,1,0,0
-0.237,-0.56,-0.82,compass,-61.97,-4.7,-110.112,-0.858,-0.56,49.51,3.643,1.7622664251280824,-20.934,18.574,2.578,23050.262,False,-0.9461595422193557,2.407592860768267,2.1,-0.012,-0.586,-9.957,3.716,18.574,39.387,True,0,1,0,0
-0.244,-0.56,-0.803,compass,-63.869,-4.476,-109.835,-0.897,-0.112,49.4,3.643,1.8553602161728202,-21.282,18.226,2.578,23050.362,False,-0.932842521146172,2.4019498830021604,2.1,-0.012,-0.547,-9.875,3.307,18.226,39.387,True,0,1,0,0
-0.25,-0.56,-0.786,compass,-61.455,-4.7,-110.83,-0.93,-0.671,49.4,3.643,1.9045450644300592,-21.637,17.871,2.566,23050.462,False,-0.9689102809075743,2.3852642417649514,2.08,-0.012,-0.508,-9.879,3.307,17.871,37.83,True,0,1,0,0
-0.268,-0.448,-0.771,compass,-62.969,-4.588,-110.384,-0.945,-0.112,49.4,3.643,1.9853437441948054,-22.041,17.467,2.566,23050.562,False,-0.9511287541556401,2.378535268608645,2.08,-0.051,-0.469,-9.836,3.307,17.467,37.83,True,0,1,0,0
-0.304,-0.336,-0.756,compass,-61.143,-4.7,-110.222,-0.942,-0.336,49.42,3.583,2.0338674983523113,-22.473,17.035,2.496,23050.662,False,-0.920057200661332,2.3065399348125015,2.08,-0.09,-0.469,-9.84,2.983,17.035,36.805,True,0,1,0,0
-0.338,0.0,-0.744,compass,-60.476,-4.924,-108.871,-0.933,0.112,49.42,3.583,2.112141519006118,-22.925,16.583,2.496,23050.762,False,-0.8668219719714746,2.298950982902526,2.08,-0.051,-0.469,-9.801,2.983,16.583,36.805,True,0,1,0,0
-0.393,0.336,-0.733,compass,-56.921,-4.924,-108.77,-0.913,-0.112,49.42,3.463,2.148889187975403,-23.397,16.111,2.619,23050.862,False,-0.907162687333368,2.40325333878354,2.08,-0.051,-0.469,-9.801,2.685,16.111,35.716,True,0,1,0,0
-0.482,0.336,-0.726,compass,-55.224,-4.812,-109.114,-0.828,-0.448,49.42,3.304,2.1353278507672244,-24.383,15.125,2.619,23050.962,False,-0.9406543266147414,2.3850017690942993,2.08,-0.051,-0.434,-9.836,2.685,15.125,35.716,True,0,1,0,0
-0.504,0.448,-0.719,compass,-55.915,-4.924,-109.245,-0.771,-0.112,49.47,3.304,2.14302189509837,-24.862,14.646,2.642,23051.062,False,-0.9524021527848404,2.3970612663527575,2.08,-0.012,-0.395,-9.84,2.442,14.646,33.095,True,0,1,0,0
-0.546,0.448,-0.714,compass,-52.803,-5.371,-110.334,-0.705,-0.671,49.47,3.105,2.0995768378322417,-25.381,14.127,2.589,23051.162,False,-0.9986447493435633,2.386893386010955,2.08,-0.012,-0.434,-9.84,2.442,14.127,34.229,True,0,1,0,0
-0.584,0.448,-0.71,compass,-53.72,-5.036,-111.299,-0.652,-0.448,49.47,3.105,2.028471813902856,-25.943,13.565,2.589,23051.262,False,-1.0201339558910398,2.328465104761829,2.08,-0.012,-0.395,-9.84,2.442,13.565,34.229,True,0,1,0,0
-0.621,0.448,-0.707,compass,-53.031,-5.036,-112.224,-0.593,-0.56,49.42,2.986,1.9548925191896265,-26.477,13.031,2.586,23051.362,False,-1.0583363941433752,2.3178132448855453,2.08,0.027,-0.434,-9.875,2.181,13.031,35.009,True,0,1,0,0
-0.652,0.448,-0.706,compass,-51.994,-5.371,-113.972,-0.545,-0.671,49.42,2.986,1.8604186740079132,-26.926,12.582,2.586,23051.463,False,-1.125504964602288,2.3052292376816323,2.08,-0.012,-0.434,-9.879,2.181,12.582,35.009,True,0,1,0,0
-0.678,0.112,-0.705,compass,-57.771,-5.036,-114.777,-0.516,-0.224,49.42,2.986,1.8000749881663245,-27.144,12.364,2.508,23051.563,False,-1.1486784538837542,2.300763648289009,2.08,-0.012,-0.469,-9.918,2.181,12.364,34.27,True,0,1,0,0
-0.69,0.112,-0.704,compass,-57.122,-5.26,-115.197,-0.492,-0.336,49.21,2.986,1.7560666934085911,-27.227,12.281,2.508,23051.663,False,-1.1193590583709667,2.2298967763254027,2.08,-0.012,-0.469,-9.918,1.893,12.281,34.27,True,0,1,0,0
-0.698,-0.112,-0.704,compass,-59.837,-4.924,-115.77,-0.498,-0.224,49.21,2.966,1.7289585900882902,-27.22,12.288,2.564,23051.763,False,-1.1302618237111024,2.2300349022251957,2.08,-0.012,-0.469,-9.918,1.893,12.288,33.214,True,0,1,0,0
-0.691,-0.224,-0.704,compass,-68.056,-4.7,-115.978,-0.537,0.224,49.12,2.966,1.755050841103044,-28.087,11.421,2.564,23051.863,False,-1.1819371775142946,2.262176734537359,2.08,-0.012,-0.469,-9.918,1.659,11.421,33.214,True,0,1,0,0
-0.675,-0.336,-0.703,compass,-67.818,-4.7,-117.622,-0.575,-0.112,49.12,3.006,1.7704956644604322,-28.312,11.196,2.521,23051.963,False,-1.2409679490219958,2.257400117334444,2.08,-0.012,-0.469,-9.918,1.659,11.196,32.196,True,0,1,0,0
-0.659,-0.448,-0.702,compass,-71.259,-4.476,-117.092,-0.621,0.56,49.12,3.006,1.8536948045370962,-28.552,10.956,2.521,23052.063,False,-1.195807466605038,2.214720692520741,2.08,-0.012,-0.469,-9.879,1.659,10.956,32.196,True,0,1,0,0
-0.635,-0.448,-0.7,compass,-70.15,-4.588,-117.799,-0.657,0.224,49.08,3.205,1.9070582592624183,-28.919,10.589,2.459,23052.163,False,-1.2237669213600824,2.206965830211754,2.07,-0.051,-0.434,-9.836,1.48,10.589,30.436,True,0,1,0,0
-0.619,-0.448,-0.697,compass,-70.892,-4.812,-116.64,-0.699,0.56,49.08,3.205,2.024368497505756,-29.334,10.174,2.459,23052.263,False,-1.1518199380859608,2.143837713139191,2.07,-0.051,-0.469,-9.875,1.48,10.174,30.436,True,0,1,0,0
-0.602,-0.336,-0.694,compass,-69.574,-4.252,-116.035,-0.747,0.448,49.08,3.304,2.1134947585201074,-29.75,9.758,2.554,23052.363,False,-1.130364374930457,2.1350441678702934,2.07,-0.09,-0.434,-9.797,1.332,9.758,29.954,True,0,1,0,0
-0.579,-0.448,-0.691,compass,-70.39,-4.588,-115.908,-0.795,0.448,49.08,3.304,2.2039208815809137,-30.186,9.322,2.554,23052.463,False,-1.1710411190063288,2.2080233849170576,2.07,-0.051,-0.434,-9.836,1.332,9.322,29.954,True,0,1,0,0
-0.568,-0.336,-0.687,compass,-68.326,-4.364,-116.423,-0.835,0.112,49.1,3.444,2.250043776144773,-30.63,8.878,2.516,23052.563,False,-1.1930803946804058,2.1980225137528486,2.07,-0.051,-0.434,-9.801,1.209,8.878,28.683,True,0,1,0,0
-0.55,-0.224,-0.683,compass,-66.448,-4.7,-116.347,-0.861,-0.112,49.1,3.444,2.2972787859173005,-31.08,8.428,2.516,23052.663,False,-1.1734762671420975,2.154435266163044,2.07,-0.051,-0.434,-9.836,1.209,8.428,28.683,True,0,1,0,0
-0.509,-0.112,-0.678,compass,-65.499,-4.588,-116.123,-0.883,-0.112,49.1,3.543,2.3238702224624768,-32.076,7.432,2.591,23052.763,False,-1.182502939954115,2.1315145877949724,2.07,-0.012,-0.434,-9.84,1.209,7.432,27.282,True,0,1,0,0
-0.494,-0.224,-0.672,compass,-67.191,-4.252,-115.629,-0.872,0.112,49.1,3.543,2.3823477406351605,-32.588,6.92,2.591,23052.863,False,-1.1974791483241765,2.1833860361446193,2.07,-0.012,-0.434,-9.84,1.088,6.92,27.282,True,0,1,0,0
-0.466,0.112,-0.666,compass,-64.114,-4.588,-115.042,-0.854,0.0,49.1,3.623,2.4190661945861023,-33.128,6.38,2.461,23052.964,False,-1.1740427493686145,2.1701402980868885,2.07,-0.012,-0.434,-9.84,1.088,6.38,27.518,True,0,1,0,0
-0.429,0.224,-0.659,compass,-64.504,-4.364,-112.97,-0.829,0.336,49.1,3.623,2.4807320160776256,-33.646,5.862,2.461,23053.064,False,-1.034465041034338,2.048810687970843,2.07,-0.051,-0.395,-9.836,1.088,5.862,27.518,True,0,1,0,0
-0.407,0.224,-0.652,compass,-64.109,-4.7,-111.406,-0.795,0.224,49.08,3.643,2.510142167340556,-34.234,5.274,2.556,23053.164,False,-0.9748518719825836,2.034713668295321,2.07,-0.012,-0.434,-9.879,0.972,5.274,26.701,True,0,1,0,0
-0.384,0.224,-0.644,compass,-65.262,-4.7,-110.059,-0.761,0.56,49.08,3.643,2.563213001054158,-34.828,4.68,2.556,23053.264,False,-0.958795571266263,2.0984313846113856,2.07,-0.012,-0.434,-9.879,0.972,4.68,26.701,True,0,1,0,0
-0.306,0.112,-0.625,compass,-67.431,-4.7,-109.151,-0.687,1.007,49.08,3.623,2.5816489211765035,-35.346,4.162,2.5,23053.364,False,-0.9198862497924439,2.085153134208029,2.07,-0.012,-0.469,-9.957,0.875,3.567,24.901,True,0,1,0,0
-0.306,0.112,-0.625,compass,-67.431,-4.7,-107.61,-0.687,1.007,49.08,3.623,2.6591987387079046,-35.941,3.567,2.5,23053.464,False,-0.8380850476877875,2.0240494573795234,2.07,-0.012,-0.469,-9.957,0.875,3.567,24.901,True,0,1,0,0
-0.256,0.224,-0.614,compass,-66.66,-4.7,-106.388,-0.647,1.007,49.08,3.762,2.7209355199653444,-36.479,3.029,2.502,23053.564,False,-0.7870511904333085,2.0101698724013595,2.07,-0.012,-0.547,-9.992,0.875,3.029,24.404,True,0,1,0,0
-0.103,0.112,-0.585,compass,-73.707,-4.588,-105.532,-0.587,1.119,49.05,3.762,2.853967534590282,-37.809,1.699,2.502,23053.764,False,-0.7569655058294237,1.9766732711422736,2.07,-0.012,-0.547,-9.953,0.778,1.699,24.404,True,0,1,0,0
-0.047,-0.224,-0.569,compass,-74.986,-4.924,-106.272,-0.583,0.56,49.05,3.762,2.8865673543659986,-38.257,1.251,2.516,23053.764,False,-0.7874926970952506,1.9752965488276628,2.07,0.027,-0.547,-9.957,0.778,1.251,23.219,True,0,1,0,0
0.008,-0.224,-0.552,compass,-75.631,-5.036,-106.679,-0.592,0.895,49.01,3.762,2.9498338897317606,-38.706,0.802,2.516,23053.964,False,-0.8009998308038788,1.9630392922209112,2.07,0.027,-0.547,-9.918,0.686,0.802,23.219,True,0,1,0,0
0.056,-0.448,-0.533,compass,-76.584,-4.924,-106.679,-0.607,0.448,49.01,3.663,2.9498338897317606,-38.706,0.802,2.467,23053.964,False,-0.8009998308038788,1.9630392922209112,2.07,0.027,-0.586,-9.914,0.686,0.346,22.183,True,0,1,0,0
0.105,-0.448,-0.514,compass,-76.583,-5.371,-109.201,-0.629,0.448,48.95,3.663,2.9598267239590577,-39.618,359.89,2.467,23054.164,False,-0.8834040617063463,1.9003218131044333,2.07,0.027,-0.625,-9.875,0.588,359.89,22.183,True,0,1,0,0
0.161,-0.783,-0.494,compass,-78.985,-4.7,-110.634,-0.664,0.224,48.95,3.623,2.916809679245786,-40.592,358.916,2.387,23054.264,False,-0.924486348716503,1.812774732363689,2.07,0.027,-0.586,-9.836,0.588,358.916,24.047,True,0,1,0,0
0.21,-0.783,-0.473,compass,-78.799,-5.036,-112.133,-0.705,0.112,48.95,3.623,2.8751032827308847,-41.322,358.186,2.387,23054.364,False,-0.9853876449033239,1.7928503454452895,2.07,-0.012,-0.586,-9.797,0.588,358.186,24.047,True,0,1,0,0
0.254,-0.783,-0.451,compass,-78.569,-4.924,-113.044,-0.746,0.0,48.95,3.643,2.8315931249585153,-41.771,357.737,2.274,23054.364,False,-0.9665257949099667,1.6963295765286839,2.07,-0.012,-0.586,-9.84,0.529,357.737,24.725,True,0,1,0,0
0.32,-0.56,-0.428,compass,-76.652,-4.812,-113.691,-0.834,0.0,48.95,3.643,2.792400697725557,-42.972,356.536,2.274,23054.564,False,-1.006618413761255,1.6642146258028474,2.07,-0.051,-0.586,-9.758,0.529,356.536,24.725,True,0,1,0,0
0.32,-0.56,-0.428,compass,-76.652,-4.812,-113.691,-0.834,0.0,48.95,3.623,2.792400697725557,-42.972,356.536,2.261,23054.564,False,-1.006618413761255,1.6642146258028474,2.07,-0.051,-0.586,-9.758,0.529,356.536,24.617,True,0,1,0,0
0.36,-0.671,-0.382,compass,-78.242,-4.588,-114.34,-0.909,0.336,48.97,3.623,2.7459024965809182,-43.906,355.602,2.261,23054.765,False,-1.0096164212351628,1.6289123130586423,2.07,-0.09,-0.586,-9.797,0.486,355.602,24.617,True,0,1,0,0
0.36,-0.671,-0.382,compass,-78.242,-4.588,-114.34,-0.909,0.336,48.97,3.742,2.7459024965809182,-43.906,355.602,2.438,23054.765,False,-1.0096164212351628,1.6289123130586423,2.07,-0.09,-0.586,-9.797,0.486,355.602,23.416,True,0,1,0,0
0.377,-0.112,-0.337,compass,-73.923,-4.812,-114.643,-0.94,0.448,48.92,3.742,2.794107067612167,-44.481,355.027,2.438,23054.965,False,-1.0829591706907822,1.7393033855695934,2.07,-0.09,-0.586,-9.84,0.42,355.027,23.416,True,0,1,0,0
0.386,-0.112,-0.316,compass,-73.923,-4.7,-114.643,-0.935,0.224,48.92,3.901,2.794107067612167,-44.481,355.027,2.434,23054.965,False,-1.0829591706907822,1.7393033855695934,2.05,-0.09,-0.586,-9.84,0.42,354.655,19.561,True,0,1,0,0
0.386,0.112,-0.295,compass,-77.305,-4.7,-113.735,-0.923,0.671,48.92,3.901,2.972590437248452,-45.23,354.278,2.434,23055.165,False,-1.0404961454093362,1.7140836078575712,2.05,-0.051,-0.625,-9.914,0.42,354.278,19.561,True,0,1,0,0
0.386,0.112,-0.295,compass,-77.305,-4.7,-113.735,-0.923,0.671,48.92,3.842,2.972590437248452,-45.23,354.278,2.457,23055.165,False,-1.0404961454093362,1.7140836078575712,2.05,-0.051,-0.625,-9.914,0.42,354.278,19.098,True,0,1,0,0
0.393,0.336,-0.254,compass,-74.848,-4.924,-113.337,-0.862,0.224,48.92,3.842,3.064013398834609,-46.048,353.46,2.457,23055.365,False,-1.0331737314900193,1.7054324329086554,2.05,-0.012,-0.625,-9.957,0.378,353.46,19.098,True,0,1,0,0
0.382,0.336,-0.254,compass,-74.848,-4.924,-113.337,-0.768,0.224,48.92,3.842,3.064013398834609,-46.048,353.46,2.494,23055.365,False,-1.0331737314900193,1.7054324329086554,2.05,-0.012,-0.586,-9.918,0.378,353.46,18.384,True,0,1,0,0
0.365,0.336,-0.217,compass,-73.623,-5.036,-114.428,-0.707,-0.336,48.9,3.842,3.009134675568481,-47.284,352.224,2.494,23055.566,False,-1.1004383734286047,1.6919417815490654,2.05,-0.012,-0.625,-9.957,0.334,352.224,18.384,True,0,1,0,0
0.354,0.224,-0.2,compass,-74.95,-4.924,-115.224,-0.645,-0.112,48.9,3.722,2.9880918494092605,-47.703,351.805,2.517,23055.666,False,-1.139687749733329,1.6942029856907634,2.05,-0.012,-0.625,-9.957,0.334,351.805,15.201,True,0,1,0,0
0.317,0.224,-0.185,compass,-73.328,-4.924,-116.908,-0.6,-0.783,48.9,3.722,2.9093033844933296,-48.136,351.372,2.517,23055.766,False,-1.2038468116600958,1.6800695288864822,2.05,-0.012,-0.625,-9.996,0.334,351.372,15.201,True,0,1,0,0
0.293,0.224,-0.17,compass,-73.775,-5.036,-117.959,-0.56,-0.56,48.79,3.583,2.838285809538363,-48.808,350.7,2.453,23055.866,False,-1.218406250310088,1.6157142637528656,2.05,-0.012,-0.625,-9.957,0.264,350.7,14.74,True,0,1,0,0
0.258,-0.112,-0.157,compass,-76.337,-4.7,-119.49,-0.547,-0.783,48.79,3.583,2.7555165191854294,-49.559,349.949,2.453,23055.966,False,-1.281649236085003,1.5913916925780283,2.05,-0.051,-0.66,-9.953,0.264,349.949,14.74,True,0,1,0,0
0.222,0.0,-0.146,compass,-93.503,-4.924,-121.964,-0.537,-0.895,48.66,3.384,2.68776038588266,-49.53,349.978,2.366,23056.066,False,-1.3060010596981457,1.5355441485742756,2.05,-0.012,-0.66,-9.957,0.172,349.978,14.759,True,0,1,0,0
0.188,-0.112,-0.136,compass,-94.422,-4.7,-123.781,-0.549,-0.56,48.66,3.384,2.6873158198440983,-49.945,349.563,2.366,23056.166,False,-1.3673391745223256,1.522489893601744,2.05,-0.012,-0.625,-9.918,0.172,349.563,14.759,True,0,1,0,0
0.178,-0.56,-0.126,compass,-99.203,-4.588,-126.65,-0.581,-0.56,48.42,3.225,2.7147553092600654,-50.564,348.944,2.473,23056.266,False,-1.5333528026579104,1.5707515685947544,2.05,-0.012,-0.625,-9.918,0.036,348.944,13.401,True,0,1,0,0
0.115,-0.336,-0.119,compass,-97.158,-4.812,-129.724,-0.646,-0.783,48.42,3.225,2.7368929821555454,-50.726,348.782,2.473,23056.366,False,-1.6273667575242448,1.5653228258755558,2.05,-0.012,-0.547,-9.836,0.036,348.782,13.401,True,0,1,0,0
0.083,-0.56,-0.113,compass,-99.288,-4.588,-131.714,-0.687,-0.336,47.69,3.006,2.780274337326681,-50.614,348.894,2.35,23056.466,False,-1.5952113672284784,1.4913478860808547,2.05,-0.012,-0.586,-9.84,-0.337,348.894,12.01,True,0,1,0,0
0.039,-0.56,-0.109,compass,-99.917,-4.924,-134.13,-0.732,-0.671,47.69,3.006,2.8035433924228643,-50.665,348.843,2.35,23056.566,False,-1.6611005011770095,1.4897573161920536,2.05,-0.012,-0.508,-9.84,-0.337,348.843,12.01,True,0,1,0,0
-0.005,-0.56,-0.106,compass,-98.927,-4.7,-135.437,-0.785,0.0,47.69,2.906,2.847493060274589,-50.679,348.829,2.315,23056.666,False,-1.6684455817770942,1.4671132236042235,2.05,-0.051,-0.547,-9.797,-0.337,348.829,14.476,True,0,1,0,0
-0.05,-0.448,-0.104,compass,-98.265,-4.924,-137.187,-0.828,-0.336,46.69,2.906,2.859353136699483,-50.828,348.68,2.315,23056.766,False,-1.7158547571686371,1.4624759860683902,2.05,-0.051,-0.508,-9.758,-0.636,348.68,14.476,True,0,1,0,0
-0.08,-0.448,-0.103,compass,-97.3,-4.588,-138.071,-0.866,0.336,46.69,2.906,2.9606865502040907,-51.081,348.427,2.5,23056.866,False,-1.8800357324310815,1.5705448402633304,2.05,-0.09,-0.547,-9.758,-0.636,348.427,12.371,True,0,1,0,0
-0.111,-0.336,-0.103,compass,-96.857,-4.7,-139.719,-0.896,-0.224,45.52,2.906,2.993690255927745,-51.391,348.117,2.5,23056.966,False,-1.9291246495892354,1.5599911579794705,2.05,-0.09,-0.508,-9.762,-1.157,348.117,12.371,True,0,1,0,0
-0.114,-0.224,-0.104,compass,-95.214,-4.588,-139.704,-0.916,0.224,45.52,2.846,3.048205747899902,-51.729,347.779,2.339,23057.066,False,-1.8066090629085474,1.4484970747454704,2.05,-0.09,-0.508,-9.762,-1.157,347.779,9.428,True,0,1,0,0
-0.125,0.224,-0.104,compass,-90.531,-4.364,-139.586,-0.935,0.224,45.52,2.846,3.0768734729579306,-52.088,347.42,2.339,23057.166,False,-1.8058237564634445,1.4369676537796363,2.05,-0.09,-0.508,-9.797,-1.157,347.42,9.428,True,0,1,0,0
-0.109,0.112,-0.104,compass,-91.917,-4.141,-139.366,-0.912,-0.112,43.88,3.105,3.1422809198280466,-52.904,346.604,2.453,23057.266,False,-1.899937665917584,1.479714923621542,2.05,-0.09,-0.469,-9.797,-1.584,346.604,5.691,True,0,1,0,0
-0.096,0.448,-0.104,compass,-88.542,-4.252,-138.74,-0.885,0.112,43.88,3.105,3.1988519897795267,-53.334,346.174,2.453,23057.367,False,-1.8836907580884905,1.4649916508790006,2.05,-0.051,-0.508,-9.836,-1.584,346.174,5.691,True,0,1,0,0
-0.076,0.224,-0.103,compass,-90.884,-4.252,-138.248,-0.863,-0.112,43.88,3.264,3.2646827833725007,-53.778,345.73,2.531,23057.467,False,-1.9303736727972896,1.4956767486745692,2.05,-0.012,-0.469,-9.84,-1.584,345.73,3.892,True,0,1,0,0
-0.043,0.336,-0.102,compass,-89.807,-4.364,-137.369,-0.826,0.224,41.14,3.264,3.336354145668336,-54.229,345.279,2.531,23057.567,False,-1.9059998018668551,1.4795373206871156,2.05,-0.012,-0.508,-9.918,-2.342,345.279,3.892,True,0,1,0,0
-0.01,0.224,-0.099,compass,-95.632,-4.029,-136.088,-0.795,0.448,41.14,3.503,3.4322685750588655,-54.687,344.821,2.498,23057.667,False,-1.844789962268757,1.4439786330240965,2.05,-0.012,-0.508,-9.918,-2.342,344.821,6.002,True,0,1,0,0
0.03,0.112,-0.095,compass,-96.455,-3.917,-135.115,-0.763,0.56,39.03,3.503,3.5221053722667905,-55.132,344.376,2.498,23057.767,False,-1.8163394885168829,1.4281074084789298,2.05,-0.012,-0.547,-9.914,-3.161,344.376,6.002,True,0,1,0,0
0.079,0.112,-0.09,compass,-96.231,-3.917,-133.299,-0.742,0.895,39.03,3.663,3.647188077629262,-55.613,343.895,2.321,23057.867,False,-1.6374747607517792,1.3109405531988174,2.05,-0.012,-0.547,-9.992,-3.161,343.895,5.466,True,0,1,0,0
0.127,0.0,-0.083,compass,-97.065,-4.364,-132.009,-0.715,0.895,37.65,3.663,3.74749720676326,-56.1,343.408,2.321,23057.967,False,-1.6010607576517997,1.294590599499023,2.05,-0.051,-0.547,-9.957,-3.536,343.408,5.466,True,0,1,0,0
0.183,0.112,-0.075,compass,-96.567,-4.141,-131.312,-0.699,0.56,37.65,3.802,3.829511917813794,-56.588,342.92,2.381,23058.067,False,-1.6224108149011418,1.3113161660143235,2.05,-0.051,-0.625,-9.992,-3.536,342.92,4.338,True,0,1,0,0
0.305,0.0,-0.064,compass,-96.9,-3.805,-130.376,-0.683,1.119,37.22,3.802,3.9464232967587574,-57.461,342.047,2.381,23058.167,False,-1.6036386442007489,1.2808792754110225,2.05,-0.051,-0.586,-9.992,-3.395,342.047,4.338,True,0,1,0,0
0.355,0.0,-0.051,compass,-97.427,-3.917,-130.305,-0.676,0.56,37.22,3.921,4.007441257864312,-57.859,341.649,2.477,23058.267,False,-1.6616619851930992,1.317604157779755,2.05,-0.051,-0.66,-9.992,-3.395,341.649,4.614,True,0,1,0,0
0.408,0.112,-0.038,compass,-96.423,-3.693,-130.097,-0.684,0.783,37.22,3.921,4.0730346241862385,-58.263,341.245,2.477,23058.367,False,-1.6521716919297702,1.302760746176202,2.05,-0.051,-0.66,-9.953,-3.395,341.245,4.614,True,0,1,0,0
0.441,-0.224,-0.023,compass,-99.221,-3.693,-130.492,-0.701,0.448,37.37,3.802,4.0926955294211735,-58.662,340.846,2.484,23058.467,False,-1.667743901552563,1.2921055706936042,2.05,-0.051,-0.699,-9.957,-3.005,340.846,2.923,True,0,1,0,0
0.475,-0.112,-0.008,compass,-98.631,-3.805,-131.121,-0.719,0.224,37.37,3.802,4.085235310563029,-59.039,340.469,2.484,23058.567,False,-1.685502833028605,1.2781090015821883,2.05,-0.012,-0.66,-9.879,-3.005,340.469,2.923,True,0,1,0,0
0.503,-0.336,0.007,compass,-106.021,-3.805,-132.06,-0.744,-0.112,36.94,3.643,4.031554371269287,-59.432,340.076,2.335,23058.667,False,-1.6105129267967562,1.187364953819094,2.05,-0.012,-0.66,-9.918,-2.921,340.076,2.389,True,0,1,0,0
0.524,-0.448,0.023,compass,-106.938,-3.469,-133.068,-0.771,-0.112,36.94,3.643,4.003786645510336,-59.809,339.699,2.335,23058.767,False,-1.6386048981724348,1.1741008439401663,2.05,-0.012,-0.625,-9.879,-2.921,339.699,2.389,True,0,1,0,0
0.532,-0.336,0.038,compass,-107.523,-3.693,-135.436,-0.799,-0.56,36.56,3.364,3.939509721312536,-60.0,339.307,2.484,23058.867,False,-1.8145548689591595,1.2346470901051665,2.05,-0.012,-0.625,-9.84,-2.817,339.307,359.49,True,0,1,0,0
0.525,-0.448,0.052,compass,-108.941,-3.469,-137.601,-0.824,-0.671,36.56,3.364,3.8916347089881365,-60.0,338.942,2.484,23058.967,False,-1.8761896481596478,1.2209111137907478,2.05,-0.012,-0.625,-9.84,-2.817,338.942,359.49,True,0,1,0,0
0.485,-0.56,0.065,compass,-110.071,-3.357,-139.208,-0.887,-0.56,35.72,3.165,3.8157595833054176,-60.0,338.201,2.28,23059.067,False,-1.7698778098312196,1.0948148711311314,2.05,-0.051,-0.586,-9.836,-2.951,338.201,359.23,True,0,1,0,0
0.459,-0.56,0.077,compass,-107.902,-3.133,-139.851,-0.923,0.112,35.72,3.165,3.818114065110514,-60.0,337.845,2.28,23059.168,False,-1.7835020869599543,1.0823557548297713,2.05,-0.051,-0.586,-9.836,-2.951,337.845,359.23,True,0,1,0,0
0.427,-0.56,0.088,compass,-108.679,-3.357,-140.968,-0.961,-0.112,35.72,3.105,3.8077997974143587,-60.0,337.472,2.356,23059.268,False,-1.8695091593803208,1.1048317244481614,2.05,-0.051,-0.547,-9.84,-2.951,337.472,358.245,True,0,1,0,0
0.392,-0.56,0.097,compass,-109.419,-3.693,-142.205,-0.985,-0.336,34.25,3.105,3.7824250215441797,-60.0,337.116,2.356,23059.368,False,-1.8985283171799683,1.0918917611604912,2.05,-0.051,-0.586,-9.836,-3.149,337.116,358.245,True,0,1,0,0
0.35,-0.336,0.104,compass,-107.241,-3.581,-143.114,-1.011,-0.336,34.25,3.085,3.743357607652581,-60.0,336.758,2.286,23059.468,False,-1.8623250496737203,1.0467668594484574,2.05,-0.051,-0.586,-9.836,-3.149,336.758,357.996,True,0,1,0,0
0.313,-0.224,0.111,compass,-105.788,-3.581,-143.72,-1.023,-0.224,34.25,3.085,3.7152596532559623,-60.0,336.408,2.286,23059.568,False,-1.875275893404831,1.0343413230135825,2.05,-0.051,-0.586,-9.836,-3.149,336.408,357.996,True,0,1,0,0
0.283,-0.336,0.116,compass,-112.977,-3.357,-143.773,-1.034,-0.224,32.71,3.105,3.6921162151271636,-60.0,336.074,2.115,23059.668,False,-1.7350980934573517,0.9459081040316942,2.05,-0.051,-0.586,-9.875,-3.348,336.074,357.731,True,0,1,0,0
0.246,-0.224,0.12,compass,-111.921,-3.469,-144.008,-1.017,-0.224,32.71,3.105,3.6732746984807827,-60.0,335.738,2.115,23059.768,False,-1.7393260901590586,0.9348249085751231,2.05,-0.051,-0.586,-9.875,-3.348,335.738,357.731,True,0,1,0,0
0.217,0.112,0.123,compass,-108.653,-3.245,-144.425,-1.0,-0.224,31.54,3.065,3.6433886031045377,-60.0,335.417,2.131,23059.868,False,-1.7600911027786244,0.930956358851666,2.05,-0.051,-0.547,-9.918,-3.587,335.417,357.164,True,0,1,0,0
0.193,0.112,0.125,compass,-108.28,-3.693,-144.63,-0.974,-0.112,31.54,3.065,3.6270904720905346,-60.0,335.097,2.131,23059.968,False,-1.7637438837626396,0.9202403033210235,2.05,-0.012,-0.547,-9.914,-3.587,335.097,357.164,True,0,1,0,0
0.131,0.336,0.125,compass,-106.409,-3.357,-145.683,-0.898,-0.224,31.54,3.105,3.627467112561515,-60.0,334.455,2.397,23060.068,False,-2.013761990311273,1.0109833897852687,2.05,-0.012,-0.547,-9.914,-3.587,334.455,357.547,True,0,1,0,0
0.089,0.224,0.124,compass,-107.191,-3.021,-146.328,-0.863,-0.112,30.73,3.105,3.636305522384464,-60.0,334.148,2.397,23060.168,False,-2.026389394132796,0.9993121500250299,2.05,-0.012,-0.547,-9.914,-3.5,334.148,357.547,True,0,1,0,0
0.06,0.112,0.122,compass,-107.548,-3.357,-146.43,-0.818,0.112,30.73,3.006,3.646212129839216,-60.0,333.849,2.317,23060.268,False,-1.9596533904722924,0.9550843268623468,2.05,-0.012,-0.547,-9.914,-3.5,333.849,356.178,True,0,1,0,0
0.037,0.336,0.119,compass,-104.753,-3.357,-146.255,-0.772,0.336,30.03,3.006,3.6609133149598576,-60.0,333.562,2.317,23060.368,False,-1.9544502486335256,0.9445019631799173,2.05,-0.012,-0.547,-9.914,-3.5,333.562,356.178,True,0,1,0,0
0.024,0.224,0.117,compass,-112.726,-3.245,-147.113,-0.738,-0.224,30.03,2.926,3.6345277606662134,-60.0,333.261,2.36,23060.468,False,-2.0084331315348543,0.9506005234015449,2.05,-0.051,-0.547,-9.879,-3.5,333.261,354.697,True,0,1,0,0
0.004,0.224,0.113,compass,-113.739,-2.91,-148.226,-0.706,-0.448,29.69,2.926,3.6018930239474316,-60.0,332.975,2.36,23060.568,False,-2.031204994675626,0.9398173878975621,2.05,-0.051,-0.547,-9.879,-3.315,332.975,354.697,True,0,1,0,0
-0.015,0.224,0.109,compass,-112.698,-3.245,-148.735,-0.681,-0.224,29.69,2.866,3.5883750896386237,-60.0,332.696,2.288,23060.669,False,-1.9788003991115197,0.9009387760561682,2.06,-0.051,-0.586,-9.875,-3.315,332.696,353.1,True,0,1,0,0
-0.023,0.224,0.105,compass,-111.297,-3.021,-148.793,-0.675,0.112,28.94,2.866,3.6076839084250483,-60.0,332.639,2.288,23060.769,False,-1.975871819503563,0.8988310171441438,2.06,-0.051,-0.586,-9.836,-3.355,332.639,353.1,True,0,1,0,0
-0.03,0.336,0.101,compass,-112.046,-2.91,-149.365,-0.688,-0.336,28.94,2.946,3.611148656540024,-60.0,333.056,2.356,23060.869,False,-2.0355247866843023,0.9413108110427566,2.06,-0.051,-0.547,-9.84,-3.355,333.056,352.774,True,0,1,0,0
-0.038,0.224,0.097,compass,-113.228,-3.021,-149.828,-0.681,-0.336,27.92,2.946,3.6210161964007885,-60.0,333.012,2.356,23060.969,False,-2.0439802619691454,0.9396590338489049,2.06,-0.012,-0.586,-9.84,-3.535,333.012,352.774,True,0,1,0,0
-0.045,0.112,0.093,compass,-112.883,-2.91,-149.772,-0.681,0.0,27.92,2.866,3.646882955314745,-60.0,332.955,2.298,23061.069,False,-1.9916614827673411,0.914280803859517,2.06,-0.012,-0.547,-9.836,-3.535,332.955,351.936,True,0,1,0,0
-0.061,0.112,0.088,compass,-114.949,-2.686,-150.309,-0.675,-0.448,27.92,2.866,3.6330396449777247,-60.0,332.855,2.298,23061.169,False,-2.0024797815016107,0.9106077981920301,2.06,-0.012,-0.547,-9.875,-3.535,332.855,351.936,True,0,1,0,0
-0.074,0.0,0.083,compass,-115.598,-2.798,-150.826,-0.676,-0.336,27.84,2.826,3.6533312075376463,-60.0,332.748,2.381,23061.269,False,-2.08604765281764,0.9396581375438321,2.06,-0.051,-0.508,-9.875,-3.208,332.748,350.768,True,0,1,0,0
-0.079,0.0,0.078,compass,-113.51,-2.91,-150.802,-0.679,0.112,27.84,2.826,3.706620253658955,-60.0,332.575,2.381,23061.369,False,-2.086796010482744,0.9330422304792363,2.06,-0.012,-0.508,-9.879,-3.208,332.575,350.768,True,0,1,0,0
-0.088,-0.224,0.069,compass,-114.231,-2.91,-150.45,-0.691,0.448,27.2,2.767,3.8142412458566577,-60.0,332.12,2.37,23061.569,False,-2.0728097625467603,0.9111299474125635,2.06,-0.012,-0.508,-9.84,-3.106,332.12,349.661,True,0,1,0,0
-0.088,-0.224,0.069,compass,-114.231,-2.91,-150.45,-0.691,0.448,27.2,2.767,3.8142412458566577,-60.0,332.12,2.37,23061.569,False,-2.0728097625467603,0.9111299474125635,2.06,-0.012,-0.508,-9.84,-3.106,332.12,349.661,True,0,1,0,0
-0.112,-0.448,0.058,compass,-113.785,-2.574,-150.275,-0.746,0.224,24.37,2.627,3.8378061082292843,-60.0,331.289,2.339,23061.77,False,-2.049699930311004,0.8677648083673358,2.12,-0.012,-0.508,-9.879,-4.194,331.289,348.789,True,0,1,0,0
-0.112,-0.448,0.058,compass,-113.785,-2.574,-150.275,-0.746,0.224,24.37,2.627,3.8378061082292843,-60.0,331.289,2.339,23061.77,False,-2.049699930311004,0.8677648083673358,2.12,-0.012,-0.508,-9.879,-4.194,331.289,348.789,True,0,1,0,0
-0.104,-0.448,0.049,compass,-115.406,-2.238,-150.936,-0.816,-0.112,20.66,2.608,3.7547769183839015,-60.0,330.73,2.255,23061.97,False,-1.9891676988700278,0.8162919177873128,2.12,-0.051,-0.547,-9.84,-5.638,330.73,348.521,True,0,1,0,0
-0.104,-0.448,0.049,compass,-115.406,-2.238,-150.936,-0.816,-0.112,20.66,2.608,3.7547769183839015,-60.0,330.73,2.255,23061.97,False,-1.9891676988700278,0.8162919177873128,2.12,-0.051,-0.547,-9.84,-5.638,330.73,348.521,True,0,1,0,0
-0.063,-0.448,0.041,compass,-112.429,-2.238,-150.559,-0.9,0.56,20.66,2.568,3.8024658818511012,-60.0,330.2,2.294,23062.17,False,-2.016166419306637,0.8105278083125067,2.12,-0.09,-0.508,-9.918,-5.638,330.2,347.784,True,0,1,0,0
-0.063,-0.448,0.041,compass,-112.429,-2.238,-150.559,-0.9,0.56,20.66,2.568,3.8024658818511012,-60.0,330.2,2.294,23062.17,False,-2.016166419306637,0.8105278083125067,2.12,-0.09,-0.508,-9.918,-5.638,330.2,347.784,True,0,1,0,0
-0.009,-0.448,0.037,compass,-114.484,-1.902,-150.656,-0.973,0.112,17.63,2.508,3.766684495932648,-60.0,329.689,2.261,23062.37,False,-1.9885896590421743,0.7799826996041206,2.12,-0.129,-0.547,-9.875,-6.088,329.689,347.396,True,0,1,0,0
-0.009,-0.448,0.037,compass,-114.484,-1.902,-150.656,-0.973,0.112,17.63,2.508,3.766684495932648,-60.0,329.689,2.261,23062.37,False,-1.9885896590421743,0.7799826996041206,2.12,-0.129,-0.547,-9.875,-6.088,329.689,347.396,True,0,1,0,0
0.034,0.112,0.037,compass,-107.111,-2.014,-150.232,-1.034,0.448,17.57,2.568,3.7651845521764713,-60.0,329.157,2.29,23062.57,False,-2.006206107454474,0.7700533494043925,2.12,-0.012,-0.508,-9.918,-5.509,329.157,346.823,True,0,1,0,0
0.034,0.112,0.037,compass,-107.111,-2.014,-150.232,-1.034,0.448,17.57,2.568,3.7651845521764713,-60.0,329.157,2.29,23062.57,False,-2.006206107454474,0.7700533494043925,2.12,-0.012,-0.508,-9.918,-5.509,329.157,346.823,True,0,1,0,0
0.093,0.112,0.039,compass,-107.047,-2.014,-150.398,-1.032,0.448,16.4,2.508,3.7208957641367615,-60.0,328.37,2.356,23062.77,False,-2.070406242319735,0.7617257365779967,2.12,-0.012,-0.586,-9.918,-5.532,328.37,346.808,True,0,1,0,0
0.093,0.112,0.039,compass,-107.047,-2.014,-150.398,-1.032,0.448,16.4,2.508,3.7208957641367615,-60.0,328.37,2.356,23062.77,False,-2.070406242319735,0.7617257365779967,2.12,-0.012,-0.586,-9.918,-5.532,328.37,346.808,True,0,1,0,0
0.115,0.0,0.043,compass,-108.25,-2.014,-149.362,-0.992,0.448,14.29,2.488,3.6205309563772246,-60.0,327.943,2.117,23062.97,False,-1.8392515941601153,0.6694772064812493,2.12,-0.051,-0.625,-9.875,-5.692,327.943,347.251,True,0,1,0,0
0.115,0.0,0.043,compass,-108.25,-2.014,-149.362,-0.992,0.448,14.29,2.488,3.6205309563772246,-60.0,327.943,2.117,23062.97,False,-1.8392515941601153,0.6694772064812493,2.12,-0.051,-0.625,-9.875,-5.692,327.943,347.251,True,0,1,0,0
0.162,0.336,0.05,compass,-105.683,-1.343,-149.118,-0.939,0.112,14.29,2.548,3.486598753570858,-60.0,327.579,2.082,23063.17,False,-1.8022256619915304,0.6458367055675736,2.12,-0.09,-0.586,-9.84,-5.692,327.579,345.797,True,0,1,0,0
0.162,0.336,0.05,compass,-105.683,-1.343,-149.118,-0.939,0.112,14.29,2.548,3.486598753570858,-60.0,327.579,2.082,23063.17,False,-1.8022256619915304,0.6458367055675736,2.12,-0.09,-0.586,-9.84,-5.692,327.579,345.797,True,0,1,0,0
0.209,0.224,0.058,compass,-108.234,-1.679,-150.457,-0.885,-0.224,11.79,2.508,3.4353131692749566,-60.0,327.179,2.325,23063.371,False,-2.038228425884639,0.7057715837803661,2.12,-0.051,-0.547,-9.918,-5.953,327.179,344.313,True,0,1,0,0
0.209,0.224,0.058,compass,-108.234,-1.679,-150.457,-0.885,-0.224,11.79,2.508,3.4353131692749566,-60.0,327.179,2.325,23063.371,False,-2.038228425884639,0.7057715837803661,2.12,-0.051,-0.547,-9.918,-5.953,327.179,344.313,True,0,1,0,0
0.198,0.336,0.067,compass,-106.241,-1.79,-151.387,-0.831,-0.112,11.62,2.408,3.3776678365970576,-60.0,326.721,2.306,23063.571,False,-2.0391220159749324,0.6822617883581958,2.14,-0.051,-0.547,-9.957,-5.414,326.721,342.813,True,0,1,0,0
0.198,0.336,0.067,compass,-106.241,-1.79,-151.387,-0.831,-0.112,11.62,2.408,3.3776678365970576,-60.0,326.721,2.306,23063.571,False,-2.0391220159749324,0.6822617883581958,2.14,-0.051,-0.547,-9.957,-5.414,326.721,342.813,True,0,1,0,0
0.173,0.112,0.073,compass,-107.391,-1.567,-150.709,-0.775,0.336,11.62,2.468,3.398204739887518,-60.0,326.036,2.269,23063.771,False,-1.9964381836939713,0.6454028152825776,2.14,-0.051,-0.586,-9.992,-5.414,326.036,343.037,True,0,1,0,0
0.173,0.112,0.073,compass,-107.391,-1.567,-150.709,-0.775,0.336,11.62,2.468,3.398204739887518,-60.0,326.036,2.269,23063.771,False,-1.9964381836939713,0.6454028152825776,2.14,-0.051,-0.586,-9.992,-5.414,326.036,343.037,True,0,1,0,0
0.188,-0.112,0.079,compass,-104.004,-1.007,-148.973,-0.787,0.448,10.35,2.548,3.4646252409407223,-60.0,325.626,2.296,23063.971,False,-1.9847633976125585,0.6373766565286427,2.14,-0.051,-0.586,-9.914,-5.293,325.626,341.881,True,0,1,0,0
0.188,-0.112,0.079,compass,-104.004,-1.007,-148.973,-0.787,0.448,10.35,2.548,3.4646252409407223,-60.0,325.626,2.296,23063.971,False,-1.9847633976125585,0.6373766565286427,2.14,-0.051,-0.586,-9.914,-5.293,325.626,341.881,True,0,1,0,0
0.173,-0.448,0.085,compass,-111.026,-1.231,-148.592,-0.87,-0.448,8.55,2.568,3.4060964542407355,-60.0,325.279,2.189,23064.171,False,-1.8831124241484223,0.5949314049190421,2.14,-0.012,-0.625,-9.84,-5.667,325.279,342.753,True,0,1,0,0
0.173,-0.448,0.085,compass,-111.026,-1.231,-148.592,-0.87,-0.448,8.55,2.568,3.4060964542407355,-60.0,325.279,2.189,23064.171,False,-1.8831124241484223,0.5949314049190421,2.14,-0.012,-0.625,-9.84,-5.667,325.279,342.753,True,0,1,0,0
0.191,-0.895,0.091,compass,-114.413,-0.783,-147.028,-0.991,-0.224,6.6,2.727,3.4711545269635633,-60.0,325.091,2.117,23064.371,False,-1.7877570107136196,0.5687128367252064,2.14,-0.012,-0.586,-9.84,-6.08,325.091,341.494,True,0,1,0,0
0.191,-0.895,0.091,compass,-114.413,-0.783,-147.028,-0.991,-0.224,6.6,2.727,3.4711545269635633,-60.0,325.091,2.117,23064.371,False,-1.7877570107136196,0.5687128367252064,2.14,-0.012,-0.586,-9.84,-6.08,325.091,341.494,True,0,1,0,0
0.178,-0.56,0.097,compass,-78.367,-0.671,-145.559,-1.129,-0.336,5.69,2.787,3.404591201438116,-60.0,324.919,2.298,23064.571,False,-1.905888478735876,0.610630021057972,2.15,-0.051,-0.547,-9.84,-5.927,324.919,338.872,True,0,1,0,0
0.178,-0.56,0.097,compass,-78.367,-0.671,-145.559,-1.129,-0.336,5.69,2.787,3.404591201438116,-60.0,324.919,2.298,23064.571,False,-1.905888478735876,0.610630021057972,2.15,-0.051,-0.547,-9.84,-5.927,324.919,338.872,True,0,1,0,0
0.114,-0.224,0.099,compass,-73.673,-1.119,-143.206,-1.152,-0.56,7.24,2.647,3.224349568217842,-60.0,324.745,2.286,23064.771,False,-1.8406146894126756,0.6008150281873388,2.15,-0.051,-0.547,-9.879,-4.819,324.745,338.836,True,0,1,0,0
0.114,-0.224,0.099,compass,-73.673,-1.119,-143.206,-1.152,-0.56,7.24,2.647,3.224349568217842,-60.0,324.745,2.286,23064.771,False,-1.8406146894126756,0.6008150281873388,2.15,-0.051,-0.547,-9.879,-4.819,324.745,338.836,True,0,1,0,0
0.049,0.0,0.097,compass,-71.239,-0.895,-139.256,-1.123,-0.448,8.2,2.548,2.960050571196133,-60.0,324.541,2.1,23064.971,False,-1.6000490119766255,0.5445560779769628,2.15,-0.051,-0.547,-9.918,-3.858,324.541,339.652,True,0,1,0,0
0.049,0.0,0.097,compass,-71.239,-0.895,-139.256,-1.123,-0.448,8.2,2.389,2.960050571196133,-60.0,324.541,2.1,23064.971,False,-1.6000490119766255,0.5445560779769628,2.15,-0.051,-0.547,-9.918,-3.858,324.541,339.652,True,0,1,0,0
-0.029,0.336,0.09,compass,-67.266,-1.007,-136.844,-1.032,-0.336,8.2,2.389,2.688582720393013,-60.0,324.31,2.144,23065.172,False,-1.574396096197628,0.5478065150825535,2.15,-0.09,-0.547,-9.914,-3.858,324.31,339.919,True,0,1,0,0
-0.073,0.448,0.086,compass,-65.484,-1.119,-136.48,-0.984,-0.336,7.99,2.269,2.57455531817516,-60.0,324.201,2.23,23065.272,False,-1.6274703324117714,0.5655694346289474,2.15,-0.012,-0.547,-9.836,-3.542,324.201,338.916,True,0,1,0,0
-0.145,0.448,0.079,compass,-65.485,-0.895,-136.031,-0.892,-0.336,7.99,2.269,2.4709552830609027,-60.0,324.008,2.23,23065.372,False,-1.6171801263550774,0.5582835635455944,2.15,-0.012,-0.547,-9.914,-3.542,324.008,338.916,True,0,1,0,0
-0.166,0.56,0.071,compass,-65.43,-0.895,-134.507,-0.846,-0.112,6.21,2.289,2.4051226405875923,-60.0,323.936,2.216,23065.472,False,-1.564930169351862,0.552198370472207,2.15,-0.012,-0.508,-9.879,-4.077,323.936,337.494,True,0,1,0,0
-0.193,0.224,0.063,compass,-68.492,-0.895,-134.231,-0.808,-0.336,6.21,2.289,2.3305419499402493,-60.0,323.871,2.216,23065.572,False,-1.5562242753367683,0.549761518103768,2.15,-0.012,-0.469,-9.879,-4.077,323.871,337.494,True,0,1,0,0
-0.215,0.336,0.055,compass,-77.713,-0.895,-133.87,-0.785,0.112,6.21,2.209,2.3103679067557543,-60.0,323.821,2.302,23065.672,False,-1.6046828427169773,0.5690344182516034,2.15,0.027,-0.434,-9.875,-4.077,323.821,337.302,True,0,1,0,0
-0.23,0.0,0.046,compass,-81.774,-0.783,-134.579,-0.759,-0.112,5.42,2.209,2.295199348933379,-60.0,323.756,2.302,23065.772,False,-1.6243596109263496,0.5664844595573004,2.15,0.027,-0.434,-9.875,-3.933,323.756,337.302,True,0,1,0,0
-0.248,-0.112,0.038,compass,-83.934,-0.671,-134.157,-0.748,0.224,5.42,2.17,2.299080595917369,-60.0,323.683,2.177,23065.872,False,-1.5248625072895161,0.5331922813868055,2.15,0.027,-0.469,-9.836,-3.933,323.683,337.373,True,0,1,0,0
-0.276,-0.112,0.028,compass,-83.594,-0.895,-134.576,-0.749,0.0,5.59,2.17,2.2994224625104343,-60.0,323.653,2.177,23065.972,False,-1.5350459777490377,0.5320640018136317,2.15,0.027,-0.434,-9.875,-3.455,323.653,337.373,True,0,1,0,0
-0.287,-0.336,0.019,compass,-87.205,-0.783,-134.566,-0.759,0.56,5.59,2.17,2.3709332132218535,-60.0,323.617,2.339,23066.072,False,-1.6477017888063594,0.5700872922375472,2.15,0.027,-0.434,-9.875,-3.455,323.617,337.111,True,0,1,0,0
-0.305,-0.448,0.009,compass,-88.587,-0.895,-135.031,-0.772,0.448,5.59,2.17,2.4332105188043616,-60.0,323.595,2.339,23066.172,False,-1.6601607829760439,0.5692078869616212,2.15,-0.012,-0.508,-9.879,-3.455,323.595,337.111,True,0,1,0,0
-0.314,-0.448,-0.001,compass,-88.232,-0.895,-135.082,-0.788,0.336,5.65,2.289,2.4911916766938766,-60.0,323.55,2.271,23066.272,False,-1.6130780661365463,0.5509349167842852,2.16,-0.012,-0.469,-9.918,-3.089,323.55,337.173,True,0,1,0,0
-0.296,-0.56,-0.009,compass,-89.625,-0.783,-135.989,-0.84,0.0,5.65,2.289,2.5221898267609006,-60.0,323.489,2.271,23066.372,False,-1.6383569347572762,0.5485794907329978,2.16,-0.012,-0.469,-9.918,-3.089,323.489,337.173,True,0,1,0,0
-0.277,-0.448,-0.018,compass,-88.035,-0.895,-135.787,-0.877,0.56,5.55,2.408,2.6289423480669303,-60.0,323.459,2.413,23066.472,False,-1.7342861636024731,0.5816409822750168,2.16,-0.09,-0.508,-9.918,-2.829,323.459,336.818,True,0,1,0,0
-0.259,-0.336,-0.025,compass,-86.33,-1.119,-136.682,-0.907,0.0,5.55,2.408,2.6728170059491654,-60.0,323.414,2.413,23066.572,False,-1.760169911544602,0.5797914617995505,2.16,-0.051,-0.508,-9.914,-2.829,323.414,336.818,True,0,1,0,0
-0.237,-0.224,-0.031,compass,-85.192,-0.56,-136.195,-0.928,0.336,5.55,2.448,2.7229680760018713,-60.0,323.369,2.302,23066.673,False,-1.665825823607947,0.5514023286002869,2.16,-0.051,-0.469,-9.914,-2.829,323.369,336.878,True,0,1,0,0
-0.221,-0.112,-0.037,compass,-83.571,-1.119,-136.158,-0.95,0.112,5.65,2.448,2.7421074908610876,-60.0,323.295,2.302,23066.773,False,-1.6653496313030582,0.5485228446972341,2.16,-0.09,-0.508,-9.918,-2.513,323.295,336.878,True,0,1,0,0
-0.205,0.0,-0.042,compass,-82.552,-1.007,-135.936,-0.951,0.336,5.65,2.448,2.7761981090076557,-60.0,323.22,2.376,23066.873,False,-1.7129273907820124,0.5630887156039132,2.16,-0.051,-0.508,-9.875,-2.513,323.22,337.192,True,0,1,0,0
-0.19,0.224,-0.046,compass,-79.463,-0.671,-135.983,-0.951,0.112,5.65,2.448,2.7798276705334164,-60.0,323.146,2.376,23066.973,False,-1.714637782266693,0.5601378867770174,2.16,-0.051,-0.508,-9.836,-2.513,323.146,337.192,True,0,1,0,0
-0.172,0.336,-0.05,compass,-78.204,-0.895,-135.528,-0.912,0.112,5.67,2.508,2.770837617053695,-60.0,322.999,2.329,23067.073,False,-1.6699856649674396,0.543309967373767,2.16,-0.051,-0.547,-9.84,-2.256,322.999,337.989,True,0,1,0,0
-0.165,0.336,-0.054,compass,-78.204,-0.895,-135.062,-0.886,0.112,5.67,2.508,2.756365957768457,-60.0,322.94,2.329,23067.173,False,-1.6562563229210068,0.5409715881468895,2.16,-0.012,-0.547,-9.836,-2.256,322.94,337.989,True,0,1,0,0
-0.156,0.336,-0.057,compass,-66.744,-0.783,-133.787,-0.845,0.336,5.65,2.428,2.7230523635017505,-60.0,322.896,2.274,23067.273,False,-1.58084646848763,0.5266561777165023,2.18,-0.051,-0.547,-9.84,-2.041,322.896,337.993,True,0,1,0,0
-0.15,0.336,-0.059,compass,-64.495,-0.783,-133.298,-0.82,-0.112,5.65,2.428,2.6443158595381715,-60.0,322.868,2.274,23067.374,False,-1.5659403982173985,0.5255677513124747,2.18,-0.051,-0.547,-9.84,-2.041,322.868,337.993,True,0,1,0,0
-0.15,0.224,-0.062,compass,-66.801,-0.56,-133.385,-0.797,0.112,5.65,2.289,2.5843147790197536,-60.0,322.847,2.395,23067.474,False,-1.650649004169441,0.5525429610121131,2.18,-0.012,-0.586,-9.879,-1.837,322.847,336.756,True,0,1,0,0
-0.154,0.336,-0.065,compass,-62.846,-0.671,-134.182,-0.783,-0.336,5.65,2.289,2.49991193895707,-60.0,322.816,2.395,23067.574,False,-1.6741541825324118,0.5513000216480162,2.18,-0.012,-0.547,-9.836,-1.837,322.816,336.756,True,0,1,0,0
-0.165,0.224,-0.068,compass,-65.378,-0.783,-134.556,-0.771,-0.112,5.65,2.15,2.4087424609945867,-60.0,322.781,2.306,23067.674,False,-1.6220972509654388,0.5293479240741503,2.18,-0.012,-0.586,-9.918,-1.837,322.781,336.765,True,0,1,0,0
-0.165,0.112,-0.071,compass,-62.278,-0.895,-136.856,-0.77,-0.783,5.65,2.15,2.300755701533283,-60.0,322.744,2.306,23067.774,False,-1.686392398600699,0.5278754375390893,2.18,0.027,-0.586,-9.914,-1.653,322.744,336.765,True,0,1,0,0
-0.185,-0.112,-0.074,compass,135.002,-0.671,-70.089,-0.775,-0.112,5.65,0.0,2.30843676256768,-60.0,322.699,2.42,23067.874,False,-2.0833573346100924,0.5523205363437126,2.18,-0.012,-0.547,-9.914,-1.653,322.699,336.293,True,0,1,0,0
-0.198,-0.224,-0.078,compass,135.002,-0.671,-18.494,-0.779,-0.224,5.65,0.0,2.2990468542529436,-60.0,322.671,2.42,23067.974,False,-2.267826626447243,0.5511409891037905,2.18,-0.012,-0.547,-9.953,-1.488,322.671,336.293,True,0,1,0,0
-0.254,-0.112,-0.083,compass,104.037,-1.007,21.347,-0.791,-0.448,5.65,0.0,2.2798520453571767,-60.0,322.68,2.383,23068.074,False,-2.3299715481744174,0.5431063391029329,2.18,-0.051,-0.586,-9.914,-1.488,322.68,335.442,True,0,1,0,0
-0.293,-0.336,-0.09,compass,135.002,-0.783,52.125,-0.804,-0.336,5.65,0.0,2.2833701472661,-60.0,322.693,2.383,23068.174,False,-2.372853745649333,0.5436502770490037,2.22,-0.012,-0.508,-9.957,-1.339,322.693,335.442,True,0,1,0,0
-0.333,-0.224,-0.097,compass,101.311,-0.783,74.194,-0.818,-1.119,5.65,0.0,2.2981041022588666,-60.0,322.696,2.407,23068.274,False,-2.405412503484771,0.5490708206802146,2.22,-0.051,-0.547,-9.918,-1.339,322.696,335.308,True,0,1,0,0
-0.373,-0.112,-0.105,compass,99.463,-0.56,92.751,-0.832,-0.671,5.65,0.0,2.3211347784477994,-60.0,322.703,2.407,23068.374,False,-2.3928193864484752,0.549349940827375,2.22,-0.051,-0.434,-9.914,-1.339,322.703,335.308,True,0,1,0,0
-0.424,-0.112,-0.115,compass,101.311,-0.895,107.703,-0.855,-0.56,5.63,0.0,2.328307171032636,-60.0,322.674,2.331,23068.474,False,-2.3018100049068804,0.5309095479730106,2.22,-0.051,-0.434,-9.875,-1.212,322.674,334.369,True,0,1,0,0
-0.47,-0.224,-0.125,compass,104.037,-0.895,118.427,-0.87,-0.895,5.63,0.0,2.3517820030312695,-60.0,322.643,2.331,23068.574,False,-2.2776832868700354,0.5296928690360129,2.22,-0.012,-0.395,-9.797,-1.212,322.643,334.369,True,0,1,0,0
-0.516,-0.112,-0.137,compass,101.311,-0.56,128.183,-0.885,-0.56,5.63,0.0,2.3871605847952013,-60.0,322.602,2.449,23068.674,False,-2.3829349090430108,0.5549048556978596,2.22,-0.012,-0.355,-9.836,-1.212,322.602,332.802,True,0,1,0,0
-0.572,-0.112,-0.15,compass,108.436,-0.783,136.378,-0.895,-0.336,5.65,0.0,2.4117502303162404,-60.0,322.551,2.449,23068.775,False,-2.3799734216843205,0.552808740090489,2.22,-0.012,-0.355,-9.801,-1.084,322.551,332.802,True,0,1,0,0
-0.613,-0.112,-0.164,compass,116.567,-0.895,143.221,-0.901,-0.224,5.65,0.0,2.432251166184816,-60.0,322.492,2.461,23068.875,False,-2.393447758858352,0.5529602393287479,2.22,0.027,-0.316,-9.84,-1.084,322.492,332.027,True,0,1,0,0
-0.644,0.112,-0.178,compass,71.564,-1.119,148.246,-0.894,-0.336,5.69,0.0,2.448694043326338,-60.0,322.404,2.461,23068.975,False,-2.391737517423027,0.5492796478354268,2.22,-0.012,-0.355,-9.801,-0.956,322.404,332.027,True,0,1,0,0
-0.702,0.112,-0.194,compass,-68.501,-0.895,140.407,-0.873,0.895,5.69,1.99,2.5084547072593093,-60.0,322.197,2.438,23069.075,False,-2.198097221128851,0.535496616969432,2.26,-0.012,-0.355,-9.801,-0.956,322.197,332.916,True,0,1,0,0
-0.711,0.112,-0.21,compass,-64.899,-1.231,133.712,-0.843,0.224,5.69,1.99,2.312804822831743,-60.0,322.074,2.438,23069.175,False,-1.9850246756339933,0.5303860835316383,2.26,-0.012,-0.355,-9.836,-0.956,322.074,332.916,True,0,1,0,0
-0.704,0.112,-0.224,compass,-62.022,-1.343,130.166,-0.816,-0.224,5.65,2.13,2.0178066386297235,-60.0,321.949,2.521,23069.275,False,-1.8882844580570837,0.5431764226152969,2.26,-0.012,-0.395,-9.84,-0.873,321.949,333.704,True,0,1,0,0
-0.7,0.336,-0.239,compass,-66.901,-0.895,108.895,-0.782,1.119,5.65,2.13,1.6454357064510499,-60.0,321.808,2.521,23069.375,False,-1.0768775128314134,0.5371180300990701,2.26,-0.051,-0.395,-9.875,-0.873,321.808,333.704,True,0,1,0,0
-0.671,0.448,-0.252,compass,-64.71,-0.895,74.149,-0.755,0.895,5.67,2.389,1.4194643451712228,-60.0,321.669,2.413,23069.475,False,-2.239783426164788,0.5082031334301826,2.26,-0.051,-0.434,-9.801,-0.776,321.669,334.226,True,0,1,0,0
-0.641,0.224,-0.263,compass,-60.297,-1.455,31.049,-0.733,-0.336,5.67,2.389,1.2535517050780025,-60.0,321.521,2.413,23069.575,False,-2.405575642664916,0.5021032005850778,2.26,-0.051,-0.434,-9.875,-0.776,321.521,334.226,True,0,1,0,0
-0.599,0.112,-0.273,compass,-77.916,-0.783,4.506,-0.723,0.895,5.67,2.647,1.289546563996538,-60.0,321.385,2.479,23069.675,False,-2.378095157679883,0.5101319275750409,2.26,-0.051,-0.508,-9.875,-0.776,321.385,334.853,True,0,1,0,0
-0.552,0.112,-0.282,compass,-78.364,-0.671,-17.872,-0.726,1.119,5.59,2.647,1.4133168435133545,-60.0,321.258,2.479,23069.775,False,-2.1275061931742085,0.504763916447584,2.26,-0.012,-0.469,-9.918,-0.725,321.258,334.853,True,0,1,0,0
-0.436,-0.112,-0.286,compass,-79.73,-0.56,-37.135,-0.776,0.783,5.59,2.846,1.573595577096702,-60.0,321.041,2.508,23069.875,False,-1.912591158768773,0.5013886083361934,2.26,-0.051,-0.547,-9.918,-0.725,321.041,334.859,True,0,1,0,0
-0.393,-0.112,-0.29,compass,-79.729,-0.783,-53.263,-0.812,0.783,5.61,2.846,1.7501652311397455,-60.0,320.978,2.508,23069.975,False,-1.7206078726700278,0.4986644644671247,2.26,-0.051,-0.586,-9.914,-0.642,320.978,334.859,True,0,1,0,0
-0.348,-0.336,-0.291,compass,-79.887,-0.56,-68.919,-0.854,-0.336,5.61,2.926,1.8559745803378311,-60.0,320.941,2.496,23070.075,False,-1.6507914567225979,0.49476708451930385,2.3,-0.012,-0.508,-9.957,-0.642,320.941,335.125,True,0,1,0,0
-0.298,-0.448,-0.292,compass,-82.776,-0.336,-79.346,-0.91,0.783,5.61,2.926,2.0524451605971317,-60.0,320.914,2.496,23070.175,False,-1.5405453055036236,0.49363339857904703,2.3,-0.051,-0.586,-9.953,-0.642,320.914,335.125,True,0,1,0,0
-0.286,-0.224,-0.291,compass,-79.782,-0.56,-89.42,-0.943,0.224,5.63,2.906,2.213183775770892,-60.0,320.891,2.634,23070.275,False,-1.6027816996381445,0.5198880266386501,2.3,-0.051,-0.586,-10.027,-0.572,320.891,333.251,True,0,1,0,0
-0.288,-0.336,-0.291,compass,-78.03,-0.448,-100.48,-0.98,-1.119,5.63,2.906,2.272729991044125,-60.0,320.884,2.634,23070.375,False,-1.6993751433348818,0.5195492022765595,2.3,-0.051,-0.586,-9.992,-0.572,320.884,333.251,True,0,1,0,0
-0.301,-0.224,-0.292,compass,-79.219,-0.56,-106.693,-1.007,-0.112,5.61,2.787,2.361606706382058,-60.0,320.883,2.469,23070.476,False,-1.5823143810155644,0.48693702281907164,2.3,-0.051,-0.625,-9.992,-0.524,320.883,332.82,True,0,1,0,0
-0.311,-0.224,-0.292,compass,-78.715,-0.224,-112.128,-1.041,-0.336,5.61,2.787,2.42474384752963,-60.0,320.904,2.469,23070.576,False,-1.5930117849997785,0.4878421070921607,2.3,-0.051,-0.547,-9.918,-0.524,320.904,332.82,True,0,1,0,0
-0.353,-0.224,-0.294,compass,-73.208,-0.448,-121.403,-1.049,-1.79,5.61,2.488,2.3852636136028096,-60.0,320.927,2.473,23070.676,False,-1.762811562093183,0.4895649037449527,2.3,-0.012,-0.547,-9.992,-0.524,320.927,332.354,True,0,1,0,0
-0.388,0.112,-0.297,compass,-73.689,-0.56,-125.091,-1.054,-0.56,5.61,2.488,2.401505237109557,-60.0,320.95,2.473,23070.776,False,-1.7801661215575024,0.4905177578373916,2.3,-0.012,-0.469,-9.957,-0.472,320.95,332.354,True,0,1,0,0
-0.553,-0.112,-0.304,compass,-34.338,-0.56,-133.208,-1.032,-2.462,5.61,2.229,2.3267909650131084,-60.0,320.977,2.471,23070.876,False,-1.939946286592623,0.4912948607115784,2.3,-0.012,-0.508,-9.84,-0.472,320.977,330.596,True,0,1,0,0
-0.648,-0.112,-0.315,compass,-58.64,-0.112,-135.372,-1.013,-0.783,5.61,2.229,2.265769546415761,-60.0,320.979,2.471,23070.976,False,-1.9475894451832825,0.4913730744897816,2.35,-0.012,-0.434,-9.84,-0.425,320.979,330.596,True,0,1,0,0
-0.753,0.224,-0.328,compass,-52.986,-0.448,-137.49,-0.991,-0.783,5.61,2.03,2.2132888357215053,-60.0,320.983,2.51,23071.076,False,-1.9956994897885834,0.4992931842143206,2.35,-0.012,-0.316,-9.758,-0.425,320.983,329.297,True,0,1,0,0
