imu.roll,imu.pitchrate,imu.heel,ap.mode,ap.wind_angle,imu.headingrate,ap.true_wind_angle,imu.pitch,imu.rollrate,rudder.angle,wind.speed,ap.true_wind_speed,ap.heading_error,ap.heading,gps.speed,timestamp,ap.enabled,ap.vmg,ap.cmg,sow.speed,imu.accel_X,imu.accel_Y,imu.accel_Z,rudder.speed,imu.heading,gps.track,perf.quality_flag,perf.boat_config.Main,perf.boat_config.jib,perf.boat_config.spi,perf.boat_config.weight
-1.485,0.0,-1.352,compass,-38.401,-0.224,-60,-1.236,0.112,-0.19,7.066,3,-0.951,38.557,3.701,22955.2,True,2.006044835583554,3.90495852369512,3.57,-0.09,-0.277,-9.879,-0.03,38.557,46.886,True,0,1,0,0
-1.504,0.112,-1.361,compass,-37.317,-0.224,-59.78,-1.228,-0.112,-0.11,7.106,3.734807665140492,-1.016,38.492,3.701,22955.4,True,1.8591013958127036,3.7007935329005957,3.57,-0.09,-0.277,-9.918,0.017,38.492,46.886,True,0,1,0,0
-1.5,0.224,-1.365,compass,-37.792,-0.0,-60.389,-1.215,0.112,-0.11,7.166,3.8616685762659158,-1.025,38.483,3.882,22955.5,True,1.9146167409164372,3.881546469925272,3.57,-0.09,-0.316,-9.914,0.017,38.483,46.955,True,0,1,0,0
-1.502,0.336,-1.369,compass,-36.746,-0.112,-60.848,-1.199,-0.112,-0.11,7.186,3.9587037034135126,-1.032,38.476,3.882,22955.6,True,1.8879996081145005,3.8815387562946926,3.57,-0.09,-0.316,-9.914,0.017,38.476,46.955,True,0,1,0,0
-1.495,0.336,-1.373,compass,-37.131,-0.112,-60.992,-1.179,0.0,-0.17,7.225,4.050219707102898,-1.045,38.463,3.845,22955.7,True,1.8616567978559078,3.8445928979012574,3.57,-0.09,-0.316,-9.914,-0.005,38.463,47.332,True,0,1,0,0
-1.486,0.224,-1.376,compass,-36.278,-0.224,-61.194,-1.153,-0.336,-0.17,7.265,4.096173035258382,-1.044,38.464,3.845,22955.8,True,1.8504469143898705,3.8445931907558117,3.57,-0.09,-0.277,-9.918,-0.005,38.464,47.332,True,0,1,0,0
-1.459,0.224,-1.379,compass,-37.428,0.112,-61.13,-1.141,0.0,-0.17,7.345,4.18085258243536,-1.016,38.492,3.808,22955.9,True,1.8382032944208306,3.8076973584916933,3.57,-0.09,-0.316,-9.914,-0.005,38.492,46.965,True,0,1,0,0
-1.443,0.224,-1.38,compass,-37.428,-0.224,-61.113,-1.116,0.0,-0.13,7.345,4.248048968904972,-1.016,38.492,3.808,22956.0,True,1.8393004999772349,3.807697488761536,3.57,-0.09,-0.277,-9.918,0.009,38.492,46.965,True,0,1,0,0
-1.407,0.336,-1.381,compass,-37.4,-0.0,-61.059,-1.077,-0.224,-0.13,7.405,4.307474498020984,-1.016,38.492,3.801,22956.1,True,1.8387869439658309,3.799922753605637,3.57,-0.09,-0.277,-9.918,0.009,38.492,47.07,True,0,1,0,0
-1.38,0.112,-1.381,compass,-39.429,0.112,-61.079,-1.064,0.224,-0.17,7.444,4.37899345085726,-1.007,38.501,3.801,22956.2,True,1.8381242660275097,3.7999329327253744,3.57,-0.09,-0.316,-9.914,-0.012,38.501,47.07,True,0,1,0,0
-1.358,0.112,-1.381,compass,-39.784,0.224,-61.193,-1.065,0.336,-0.17,7.425,4.444548829559924,-1.007,38.501,3.789,22956.3,True,1.8258160127170338,3.788270330762374,3.57,-0.051,-0.316,-9.879,-0.012,38.501,47.158,True,0,1,0,0
-1.343,0.112,-1.379,compass,-39.429,-0.224,-61.418,-1.063,0.224,-0.17,7.425,4.4912370301708275,-1.008,38.5,3.789,22956.4,True,1.8127171340320156,3.788270088734243,3.57,-0.051,-0.355,-9.879,-0.012,38.5,47.158,True,0,1,0,0
-1.323,-0.112,-1.378,compass,-40.374,0.112,-61.608,-1.07,0.336,-0.21,7.444,4.5415479028990084,-1.01,38.498,3.697,22956.5,True,1.7581006284044822,3.6969131238362505,3.57,-0.051,-0.355,-9.879,-0.024,38.498,46.817,True,0,1,0,0
-1.306,-0.224,-1.376,compass,-40.671,0.112,-61.914,-1.083,0.336,-0.21,7.464,4.580239522818392,-1.002,38.506,3.697,22956.601,True,1.741086944136122,3.696922658611049,3.57,-0.051,-0.355,-9.879,-0.024,38.506,46.817,True,0,1,0,0
-1.282,-0.448,-1.373,compass,-41.629,0.224,-62.514,-1.099,0.448,-0.21,7.484,4.601352327229372,-0.98,38.528,3.769,22956.701,True,1.740923249644914,3.7688640997258642,3.57,-0.051,-0.316,-9.84,-0.024,38.528,46.837,True,0,1,0,0
-1.278,-0.336,-1.37,compass,-40.612,0.112,-63.061,-1.131,0.224,-0.17,7.504,4.617597736720301,-0.95,38.558,3.769,22956.801,True,1.710078343686715,3.7688978403658195,3.57,-0.09,-0.395,-9.84,-0.008,38.558,46.837,True,0,1,0,0
-1.271,-0.448,-1.367,compass,-39.465,0.336,-63.728,-1.156,-0.224,-0.17,7.484,4.57960580244487,-0.928,38.58,3.785,22956.901,True,1.6781977620980508,3.7844710984121726,3.57,-0.09,-0.355,-9.875,-0.008,38.58,47.133,True,0,1,0,0
-1.264,-0.336,-1.364,compass,-39.893,0.448,-64.084,-1.219,0.0,-0.19,7.504,4.579533912001208,-0.857,38.651,3.785,22957.001,True,1.6598213729960494,3.7845449556485713,3.57,-0.09,-0.355,-9.914,-0.018,38.651,47.133,True,0,1,0,0
-1.271,-0.224,-1.361,compass,-37.355,-0.112,-64.093,-1.239,-0.671,-0.19,7.524,4.557014275302431,-0.826,38.682,3.661,22957.101,True,1.604938835003408,3.6601717654627812,3.53,-0.09,-0.355,-9.914,-0.018,38.682,47.099,True,0,1,0,0
-1.289,-0.224,-1.359,compass,-38.49,0.448,-63.916,-1.248,-0.336,-0.19,7.524,4.56021053154613,-0.79,38.718,3.661,22957.201,True,1.6154200650312833,3.6602037296160237,3.53,-0.09,-0.316,-9.875,-0.018,38.718,47.099,True,0,1,0,0
-1.311,0.0,-1.357,compass,-36.415,0.224,-63.809,-1.249,-0.783,-0.15,7.584,4.554771651143581,-0.752,38.756,3.736,22957.301,True,1.6555398878538692,3.7360458871911812,3.53,-0.09,-0.316,-9.914,-0.002,38.756,46.55,True,0,1,0,0
-1.325,0.224,-1.356,compass,-36.617,0.224,-63.38,-1.245,-0.56,-0.15,7.604,4.584061192292868,-0.717,38.791,3.736,22957.401,True,1.680784845867829,3.7360756569021842,3.53,-0.09,-0.316,-9.914,-0.002,38.791,46.55,True,0,1,0,0
-1.349,0.224,-1.356,compass,-36.972,0.112,-62.805,-1.229,-0.448,-0.15,7.544,4.6070333010112146,-0.701,38.807,3.661,22957.501,True,1.678693963054485,3.6602783741593634,3.53,-0.09,-0.277,-9.918,-0.002,38.807,46.764,True,0,1,0,0
-1.37,0.112,-1.357,compass,-37.966,0.224,-62.531,-1.207,-0.224,-0.23,7.365,4.594333145133774,-0.691,38.817,3.661,22957.601,True,1.6934145407345107,3.660285854702111,3.53,-0.09,-0.277,-9.918,-0.029,38.817,46.764,True,0,1,0,0
-1.399,0.336,-1.358,compass,-37.751,-0.0,-62.431,-1.182,-0.112,-0.23,7.305,4.5858149509752195,-0.683,38.825,3.756,22957.701,True,1.742496732785154,3.755540791574416,3.53,-0.09,-0.277,-9.918,-0.029,38.825,46.831,True,0,1,0,0
-1.425,0.336,-1.36,compass,-38.478,0.112,-62.449,-1.151,0.112,-0.09,7.186,4.571883470437282,-0.683,38.825,3.756,22957.801,True,1.740547991906724,3.7555415035208504,3.53,-0.09,-0.242,-9.918,0.043,38.825,46.831,True,0,1,0,0
-1.479,0.448,-1.364,compass,-38.183,0.112,-62.333,-1.072,0.112,-0.09,7.146,4.579559621636491,-0.681,38.827,3.672,22957.901,True,1.7077995965100874,3.6719569906119074,3.53,-0.051,-0.277,-9.914,0.043,38.827,46.333,True,0,1,0,0
-1.489,0.448,-1.367,compass,-38.917,-0.0,-62.309,-1.039,0.336,-0.15,7.066,4.587072777599546,-0.673,38.835,3.672,22958.001,True,1.7088670009216278,3.6719624819917804,3.5,-0.051,-0.277,-9.875,0.009,38.835,46.333,True,0,1,0,0
-1.498,0.56,-1.371,compass,-38.622,-0.112,-62.069,-0.999,0.336,-0.15,7.046,4.612618890344953,-0.673,38.835,3.571,22958.101,True,1.674587733196671,3.570881982044472,3.5,-0.051,-0.242,-9.875,0.009,38.835,46.317,True,0,1,0,0
-1.502,0.336,-1.375,compass,-39.588,-0.0,-62.072,-0.968,0.448,-0.15,7.007,4.616197004698029,-0.681,38.827,3.571,22958.201,True,1.6736686156316782,3.570875793539757,3.5,-0.012,-0.277,-9.879,0.009,38.827,46.317,True,0,1,0,0
-1.497,0.112,-1.379,compass,-40.203,-0.224,-62.399,-0.954,0.448,-0.11,7.007,4.583632259328477,-0.701,38.807,3.657,22958.301,True,1.6941488173728545,3.6563906226499405,3.5,-0.012,-0.277,-9.84,0.021,38.807,47.163,True,0,1,0,0
-1.479,0.112,-1.382,compass,-41.291,-0.336,-62.681,-0.945,0.783,-0.11,7.007,4.587707113986264,-0.725,38.783,3.657,22958.401,True,1.677101646109572,3.656371115785372,3.5,-0.012,-0.316,-9.836,0.021,38.783,47.163,True,0,1,0,0
-1.474,0.0,-1.385,compass,-39.769,-0.56,-63.318,-0.932,0.224,-0.11,7.007,4.53141434551399,-0.769,38.739,3.717,22958.501,True,1.6661718376024999,3.716592984145013,3.5,-0.051,-0.355,-9.84,0.019,38.739,47.49,True,0,1,0,0
-1.452,-0.224,-1.387,compass,-40.028,-0.112,-64.05,-0.932,0.112,-0.11,6.987,4.458797813045959,-0.776,38.732,3.717,22958.602,True,1.6239011030494241,3.716586929687325,3.5,-0.051,-0.395,-9.836,0.019,38.732,47.49,True,0,1,0,0
-1.428,-0.448,-1.388,compass,-39.502,-0.224,-64.416,-0.948,-0.224,-0.11,7.007,4.381985132237315,-0.783,38.725,3.548,22958.702,True,1.5298593136559568,3.547468393199262,3.5,-0.051,-0.355,-9.879,0.019,38.725,47.695,True,0,1,0,0
-1.371,-0.336,-1.387,compass,-38.389,-0.448,-64.395,-0.998,-0.448,-0.15,7.206,4.352986104406784,-0.763,38.745,3.548,22958.802,True,1.5324033380735074,3.54748552865084,3.5,-0.051,-0.355,-9.84,0.004,38.745,47.695,True,0,1,0,0
-1.336,-0.336,-1.386,compass,-39.169,-0.224,-64.503,-1.025,-0.224,-0.15,7.206,4.337829647197987,-0.735,38.773,3.631,22958.902,True,1.563763454450974,3.6310931122551287,3.5,-0.051,-0.355,-9.879,0.004,38.773,47.451,True,0,1,0,0
-1.317,-0.224,-1.384,compass,-38.475,-0.112,-64.418,-1.054,-0.336,-0.15,7.285,4.341674813278968,-0.727,38.781,3.631,22959.002,True,1.568844390618005,3.6310997028360634,3.5,-0.129,-0.316,-9.914,0.004,38.781,47.451,True,0,1,0,0
-1.3,-0.336,-1.381,compass,-40.293,-0.112,-64.327,-1.09,0.112,-0.19,7.285,4.368312146459721,-0.712,38.796,3.639,22959.102,True,1.5779000403655237,3.638886776604693,3.5,-0.129,-0.316,-9.914,-0.01,38.796,47.446,True,0,1,0,0
-1.289,-0.112,-1.378,compass,-40.043,0.112,-64.176,-1.124,0.224,-0.19,7.265,4.413482981595088,-0.691,38.817,3.639,22959.202,True,1.587214891970904,3.638903418058788,3.5,-0.129,-0.277,-9.918,-0.01,38.817,47.446,True,0,1,0,0
-1.277,-0.224,-1.375,compass,-40.348,0.336,-64.103,-1.173,0.224,-0.11,7.285,4.460235030163217,-0.663,38.845,3.589,22959.302,True,1.5700429796014914,3.5883835920138427,3.5,-0.164,-0.277,-9.914,0.031,38.845,46.734,True,0,1,0,0
-1.28,-0.112,-1.373,compass,-40.402,0.448,-64.003,-1.202,0.336,-0.11,7.285,4.5159181315670835,-0.642,38.866,3.589,22959.402,True,1.576036406209605,3.588399052766366,3.5,-0.129,-0.242,-9.918,0.031,38.866,46.734,True,0,1,0,0
-1.274,0.0,-1.37,compass,-40.455,0.448,-63.665,-1.227,0.448,-0.11,7.285,4.586351892314039,-0.611,38.897,3.501,22959.502,True,1.5568316838801612,3.5009449233293535,3.5,-0.09,-0.277,-9.957,0.031,38.897,47.016,True,0,1,0,0
-1.27,0.224,-1.367,compass,-39.142,0.224,-63.532,-1.237,0.224,-0.17,7.086,4.602239779166793,-0.596,38.912,3.501,22959.602,True,1.5639094821361663,3.5009547665202616,3.5,-0.051,-0.277,-9.953,0.008,38.912,47.016,True,0,1,0,0
-1.267,0.336,-1.364,compass,-39.578,0.448,-63.57,-1.23,0.448,-0.17,7.066,4.613388581982567,-0.596,38.912,3.639,22959.702,True,1.6226200942139088,3.638971353130716,3.5,-0.051,-0.355,-9.957,0.008,38.912,47.399,True,0,1,0,0
-1.269,0.224,-1.361,compass,-39.522,0.336,-63.817,-1.214,0.336,-0.15,6.947,4.580364117369259,-0.604,38.904,3.639,22959.802,True,1.6075464838614717,3.6389656130142805,3.5,-0.012,-0.355,-9.914,0.018,38.904,47.399,True,0,1,0,0
-1.26,0.112,-1.358,compass,-40.578,0.336,-63.823,-1.188,0.56,-0.15,6.947,4.566817283292233,-0.611,38.897,3.567,22959.902,True,1.5748182179445915,3.5670374490807557,3.46,-0.012,-0.395,-9.918,0.018,38.897,47.854,True,0,1,0,0
-1.266,0.224,-1.355,compass,-37.989,0.112,-63.908,-1.163,-0.112,-0.15,6.947,4.514709867728491,-0.61,38.898,3.567,22960.002,True,1.5698350685017493,3.567037788336,3.46,-0.051,-0.395,-9.875,0.018,38.898,47.854,True,0,1,0,0
-1.257,-0.112,-1.352,compass,-39.709,0.112,-64.045,-1.137,0.112,-0.15,6.927,4.4679006189505035,-0.603,38.905,3.526,22960.102,True,1.5443534647635413,3.526220589724387,3.46,-0.051,-0.355,-9.879,0.016,38.905,47.389,True,0,1,0,0
-1.261,0.112,-1.349,compass,-36.63,-0.112,-64.328,-1.128,-0.56,-0.15,6.768,4.36699187106614,-0.596,38.912,3.526,22960.202,True,1.5287588348663175,3.5262249792270173,3.46,-0.09,-0.395,-9.879,0.016,38.912,47.389,True,0,1,0,0
-1.259,-0.112,-1.347,compass,-38.517,0.112,-64.743,-1.122,-0.224,-0.15,6.768,4.2777117588929015,-0.587,38.921,3.622,22960.302,True,1.5465377464960102,3.621481693408863,3.46,-0.09,-0.355,-9.836,0.016,38.921,47.501,True,0,1,0,0
-1.265,-0.112,-1.344,compass,-36.826,0.224,-65.214,-1.12,-0.671,-0.11,6.728,4.166603982010161,-0.565,38.943,3.622,22960.403,True,1.5203156610825734,3.6214958423583115,3.46,-0.051,-0.355,-9.879,0.027,38.943,47.501,True,0,1,0,0
-1.273,-0.112,-1.342,compass,-37.25,0.112,-65.481,-1.14,-0.56,-0.11,6.708,4.0843647607826075,-0.537,38.971,3.614,22960.503,True,1.5025906380037488,3.61373749618242,3.46,-0.051,-0.316,-9.84,0.027,38.971,47.258,True,0,1,0,0
-1.302,-0.224,-1.341,compass,-37.999,0.336,-65.767,-1.16,-0.448,-0.21,6.668,4.010695975598873,-0.483,39.025,3.614,22960.603,True,1.487941459562521,3.613767420267685,3.46,-0.09,-0.355,-9.836,-0.024,39.025,47.258,True,0,1,0,0
-1.324,-0.112,-1.34,compass,-37.24,0.224,-65.632,-1.16,-0.56,-0.21,6.668,3.969700577199511,-0.461,39.047,3.503,22960.703,True,1.4498332991113092,3.5029746872381677,3.46,-0.051,-0.316,-9.84,-0.024,39.047,46.973,True,0,1,0,0
-1.349,-0.112,-1.341,compass,-33.537,0.112,-65.227,-1.167,-0.448,-0.17,6.608,3.9249454940807307,-0.438,39.07,3.503,22960.803,True,1.4723068476007737,3.5029854409587444,3.38,-0.051,-0.316,-9.84,-0.002,39.07,46.973,True,0,1,0,0
-1.388,0.112,-1.342,compass,-34.271,0.224,-64.283,-1.153,-0.112,-0.17,6.608,3.9251050997563475,-0.431,39.077,3.464,22960.903,True,1.506917491224669,3.464110000805703,3.38,-0.09,-0.316,-9.836,-0.002,39.077,47.318,True,0,1,0,0
-1.417,0.336,-1.344,compass,-33.266,0.112,-63.179,-1.128,-0.224,-0.15,6.648,3.9397535544488247,-0.417,39.091,3.464,22961.003,True,1.5665279303078097,3.4641162756230424,3.38,-0.09,-0.316,-9.836,0.009,39.091,47.318,True,0,1,0,0
-1.452,0.224,-1.347,compass,-33.984,0.448,-62.361,-1.101,-0.112,-0.15,6.648,3.930054961760594,-0.4,39.108,3.54,22961.103,True,1.6456690966540803,3.539937536088084,3.38,-0.09,-0.277,-9.918,0.009,39.108,47.653,True,0,1,0,0
-1.48,0.336,-1.351,compass,-33.246,0.112,-61.652,-1.077,-0.224,-0.09,6.569,3.9053949209124923,-0.378,39.13,3.54,22961.204,True,1.6845369801797683,3.539947153718766,3.38,-0.09,-0.277,-9.918,0.037,39.13,47.653,True,0,1,0,0
-1.497,0.448,-1.356,compass,-34.671,0.336,-60.758,-1.041,0.224,-0.09,6.569,3.94455928498008,-0.355,39.153,3.456,22961.304,True,1.6921563911382562,3.4563657955564673,3.38,-0.09,-0.242,-9.957,0.037,39.153,46.752,True,0,1,0,0
-1.516,0.336,-1.361,compass,-35.389,0.448,-60.296,-1.012,0.336,-0.09,6.429,3.9453380315656483,-0.345,39.163,3.456,22961.404,True,1.7159982117951453,3.456369350076296,3.38,-0.051,-0.242,-9.953,0.037,39.163,46.752,True,0,1,0,0
-1.555,0.56,-1.366,compass,-32.189,-0.112,-60.063,-0.954,-0.336,-0.11,6.429,3.9038121426982295,-0.337,39.171,3.548,22961.504,True,1.773446545009129,3.5477386413663403,3.38,-0.051,-0.242,-9.953,0.027,39.171,47.027,True,0,1,0,0
-1.568,0.224,-1.372,compass,-35.272,0.224,-60.16,-0.927,0.224,-0.11,6.27,3.845234710288359,-0.352,39.156,3.548,22961.604,True,1.7669789745140227,3.5477330726206198,3.38,-0.012,-0.242,-9.957,0.027,39.156,47.027,True,0,1,0,0
-1.592,0.224,-1.379,compass,-32.054,-0.112,-60.111,-0.911,-0.56,-0.11,6.25,3.7490306399190576,-0.396,39.112,3.458,22961.704,True,1.7228666479543937,3.4582935688342697,3.38,-0.012,-0.242,-9.918,0.027,39.112,47.571,True,0,1,0,0
-1.598,-0.112,-1.386,compass,-35.792,-0.0,-60.221,-0.908,0.112,-0.15,6.19,3.676239128415932,-0.433,39.075,3.458,22961.804,True,1.7156786285227534,3.4582771968611965,3.38,-0.051,-0.242,-9.875,0.011,39.075,47.571,True,0,1,0,0
-1.607,-0.112,-1.392,compass,-34.397,0.224,-60.518,-0.911,-0.224,-0.15,6.19,3.5916147857853886,-0.477,39.031,3.486,22961.904,True,1.7120817602121476,3.4854710788818513,3.38,-0.051,-0.316,-9.84,0.011,39.031,47.869,True,0,1,0,0
-1.605,-0.336,-1.399,compass,-35.526,0.224,-60.878,-0.926,-0.112,-0.27,6.23,3.5229932051712103,-0.515,38.993,3.486,22962.004,True,1.692134947211566,3.485451126304024,3.38,-0.012,-0.316,-9.875,-0.05,38.993,47.869,True,0,1,0,0
-1.594,-0.336,-1.405,compass,-35.055,0.224,-61.353,-0.959,-0.224,-0.27,6.21,3.457993698889781,-0.544,38.964,3.503,22962.104,True,1.6749094323388949,3.502929845137004,3.38,-0.051,-0.316,-9.84,-0.05,38.964,47.793,True,0,1,0,0
-1.577,-0.336,-1.41,compass,-35.522,-0.224,-61.613,-0.995,-0.112,-0.27,6.27,3.427495044693546,-0.554,38.954,3.503,22962.205,True,1.6615298860716903,3.5029241754844826,3.38,-0.051,-0.316,-9.84,-0.05,38.954,47.793,True,0,1,0,0
-1.502,-0.224,-1.416,compass,-36.972,0.112,-61.533,-1.074,0.336,-0.15,6.37,3.5031696760379463,-0.541,38.967,3.449,22962.405,True,1.6419665032878579,3.4485023315791747,3.38,-0.051,-0.316,-9.84,-0.006,38.967,47.118,True,0,1,0,0
-1.502,-0.224,-1.416,compass,-36.972,0.112,-61.533,-1.074,0.336,-0.15,6.409,3.5031696760379463,-0.541,38.967,3.427,22962.405,True,1.6419665032878579,3.4485023315791747,3.38,-0.051,-0.316,-9.84,-0.006,38.967,47.279,True,0,1,0,0
-1.449,-0.224,-1.419,compass,-37.39,0.112,-61.5,-1.093,0.448,-0.19,6.409,3.5854764764745566,-0.489,39.019,3.427,22962.605,True,1.6362341812274155,3.4271472604694693,3.38,-0.09,-0.277,-9.918,-0.027,39.019,47.279,True,0,1,0,0
-1.449,-0.224,-1.419,compass,-37.39,0.112,-61.5,-1.093,0.448,-0.19,6.409,3.5854764764745566,-0.489,39.019,3.521,22962.605,True,1.6362341812274155,3.4271472604694693,3.34,-0.09,-0.277,-9.918,-0.027,39.019,47.732,True,0,1,0,0
-1.425,0.0,-1.419,compass,-37.602,0.224,-61.601,-1.11,0.671,-0.17,6.37,3.658494292612384,-0.439,39.069,3.521,22962.805,True,1.6768870768121131,3.5204808268933467,3.34,-0.09,-0.277,-9.879,-0.018,39.069,47.732,True,0,1,0,0
-1.419,0.112,-1.419,compass,-35.136,-0.224,-61.412,-1.113,0.112,-0.17,6.37,3.687071074566576,-0.417,39.091,3.402,22962.905,True,1.6306283424106471,3.401910039205624,3.34,-0.051,-0.277,-9.914,-0.018,39.091,47.495,True,0,1,0,0
-1.405,-0.112,-1.419,compass,-36.635,0.224,-61.289,-1.118,0.336,-0.13,6.409,3.7132186450449556,-0.408,39.1,3.402,22963.005,True,1.6367671331409588,3.4019137344238155,3.34,-0.051,-0.277,-9.914,0.004,39.1,47.495,True,0,1,0,0
-1.394,0.112,-1.418,compass,-34.694,-0.224,-61.225,-1.107,0.0,-0.13,6.409,3.7031427218624273,-0.415,39.093,3.505,22963.105,True,1.6889483312778875,3.504940222564529,3.34,-0.051,-0.316,-9.879,0.004,39.093,48.593,True,0,1,0,0
-1.363,0.112,-1.417,compass,-37.242,-0.0,-61.336,-1.103,-0.112,-0.19,6.409,3.6906481155453674,-0.424,39.084,3.505,22963.205,True,1.6822163162175123,3.5049360319088314,3.34,-0.051,-0.277,-9.875,-0.026,39.084,48.593,True,0,1,0,0
-1.313,0.0,-1.414,compass,-38.843,0.112,-61.416,-1.068,0.224,-0.19,6.449,3.718915041007924,-0.46,39.048,3.46,22963.305,True,1.6548748300993936,3.4602087202389487,3.34,-0.051,-0.355,-9.879,-0.026,39.048,48.079,True,0,1,0,0
-1.284,0.112,-1.41,compass,-38.093,-0.224,-61.425,-1.048,0.112,-0.21,6.549,3.7655568707911122,-0.491,39.017,3.46,22963.405,True,1.6532557005370496,3.4601931113276114,3.34,-0.051,-0.277,-9.875,-0.034,39.017,48.079,True,0,1,0,0
-1.26,-0.112,-1.405,compass,-39.162,-0.112,-61.381,-1.041,0.224,-0.21,6.549,3.79627305729062,-0.498,39.01,3.388,22963.505,True,1.6212875041939039,3.388264248489572,3.34,-0.051,-0.395,-9.875,-0.034,39.01,48.921,True,0,1,0,0
-1.253,-0.112,-1.401,compass,-39.561,0.112,-61.399,-1.022,0.336,-0.21,6.589,3.8406520349535676,-0.491,39.017,3.388,22963.605,True,1.6209889856752069,3.3882677260450436,3.27,-0.051,-0.395,-9.875,-0.034,39.017,48.921,True,0,1,0,0
-1.235,0.0,-1.396,compass,-39.23,-0.336,-61.515,-1.013,0.336,-0.13,6.589,3.8762912052658383,-0.482,39.026,3.437,22963.705,True,1.6387377556954803,3.436870424918286,3.27,-0.09,-0.395,-9.879,-0.004,39.026,49.383,True,0,1,0,0
-1.22,-0.112,-1.39,compass,-39.565,0.224,-61.791,-1.012,0.336,-0.13,6.569,3.8939017870597006,-0.46,39.048,3.437,22963.806,True,1.6251417317206684,3.4368812287091997,3.27,-0.09,-0.395,-9.918,-0.004,39.048,49.383,True,0,1,0,0
-1.198,0.0,-1.385,compass,-36.735,-0.0,-62.073,-1.013,-0.336,-0.13,6.608,3.8814292580353658,-0.416,39.092,3.425,22963.906,True,1.6064807983698124,3.425237662465375,3.27,-0.09,-0.395,-9.918,-0.004,39.092,49.053,True,0,1,0,0
-1.191,0.112,-1.379,compass,-39.295,0.224,-61.957,-1.016,0.448,-0.15,6.628,3.9409032857086164,-0.385,39.123,3.425,22964.006,True,1.6133692215674837,3.4252505811819174,3.27,-0.051,-0.355,-9.957,-0.01,39.123,49.053,True,0,1,0,0
-1.187,-0.112,-1.373,compass,-38.327,0.448,-62.052,-1.026,0.0,-0.15,6.628,3.94695842146133,-0.35,39.158,3.369,22964.106,True,1.5826468397547309,3.3688890888996905,3.27,-0.09,-0.355,-9.914,-0.01,39.158,48.896,True,0,1,0,0
-1.198,-0.112,-1.368,compass,-36.198,0.112,-62.196,-1.038,-0.56,-0.17,6.648,3.914803349547417,-0.262,39.246,3.369,22964.206,True,1.577952070864476,3.3689168508407783,3.27,-0.09,-0.355,-9.914,-0.019,39.246,48.896,True,0,1,0,0
-1.201,0.0,-1.363,compass,-36.743,0.224,-62.002,-1.045,-0.336,-0.17,6.648,3.9223584277638706,-0.215,39.293,3.324,22964.306,True,1.567400085018756,3.324216544448983,3.27,-0.09,-0.316,-9.914,-0.019,39.293,48.454,True,0,1,0,0
-1.232,0.112,-1.359,compass,-34.678,-0.0,-61.784,-1.05,-0.783,-0.11,6.628,3.8995320329102645,-0.171,39.337,3.324,22964.406,True,1.578810797390523,3.32422526364375,3.27,-0.051,-0.355,-9.957,0.013,39.337,48.454,True,0,1,0,0
-1.25,0.112,-1.356,compass,-36.846,0.112,-61.498,-1.059,-0.224,-0.13,6.628,3.9218767511879524,-0.126,39.382,3.342,22964.506,True,1.601965793069723,3.3417278873876746,3.27,-0.051,-0.355,-9.879,-0.008,39.382,47.794,True,0,1,0,0
-1.275,0.0,-1.353,compass,-31.238,0.336,-60.836,-1.066,-0.448,-0.11,6.748,3.9302337120856055,-0.097,39.411,3.342,22964.606,True,1.6352814976921197,3.341731183443675,3.27,-0.012,-0.355,-9.875,0.013,39.411,47.794,True,0,1,0,0
-1.293,-0.112,-1.351,compass,-32.408,-0.0,-60.009,-1.074,-0.224,-0.09,6.748,3.93096588772785,-0.082,39.426,3.334,22964.706,True,1.6724293920535303,3.333956617533205,3.27,-0.012,-0.355,-9.836,0.031,39.426,48.057,True,0,1,0,0
-1.308,-0.224,-1.35,compass,-33.566,0.224,-59.146,-1.076,0.0,-0.25,6.827,3.948025361595084,-0.075,39.433,3.334,22964.806,True,1.7146582558716277,3.3339571573301483,3.27,-0.051,-0.355,-9.84,-0.135,39.433,48.057,True,0,1,0,0
-1.326,-0.336,-1.349,compass,-32.98,-0.112,-58.589,-1.085,-0.224,-0.21,6.867,3.930617928182011,-0.081,39.427,3.404,22964.906,True,1.7775950205318085,3.4039405763301316,3.27,-0.051,-0.355,-9.84,-0.082,39.427,48.152,True,0,1,0,0
-1.335,-0.224,-1.349,compass,-33.564,0.224,-57.98,-1.089,0.0,-0.23,6.847,3.935297496371555,-0.09,39.418,3.404,22965.006,True,1.807237253143893,3.403939788162864,3.27,-0.051,-0.316,-9.84,-0.094,39.418,48.152,True,0,1,0,0
-1.386,-0.224,-1.35,compass,-33.133,0.112,-57.521,-1.107,-0.112,-0.17,6.847,3.9264572631057106,-0.118,39.39,3.427,22965.106,True,1.8411832736346938,3.427264692464185,3.27,-0.09,-0.355,-9.836,-0.027,39.39,48.132,True,0,1,0,0
-1.411,0.0,-1.352,compass,-31.713,0.224,-56.9,-1.113,-0.336,-0.03,6.887,3.9306505598879573,-0.127,39.381,3.427,22965.206,True,1.8719018330628088,3.427263585335999,3.27,-0.09,-0.316,-9.875,0.121,39.381,48.132,True,0,1,0,0
-1.417,0.112,-1.354,compass,-31.881,0.112,-55.961,-1.111,-0.224,0.2,6.907,3.9704092933213664,-0.133,39.375,3.318,22965.306,True,1.8574357971483317,3.318399004566258,3.27,-0.09,-0.277,-9.879,0.34,39.375,47.98,True,0,1,0,0
-1.433,0.112,-1.356,compass,-30.577,-0.0,-55.134,-1.112,-0.56,0.2,6.907,3.976920569849491,-0.14,39.368,3.318,22965.406,True,1.8967434607203422,3.3183981253660333,3.27,-0.129,-0.277,-9.918,0.34,39.368,47.98,True,0,1,0,0
-1.45,0.336,-1.359,compass,-30.499,0.112,-54.296,-1.099,-0.448,0.14,6.907,4.003281191189545,-0.148,39.36,3.351,22965.506,True,1.9553580228553704,3.351444783758968,3.24,-0.09,-0.277,-9.957,0.276,39.36,47.698,True,0,1,0,0
-1.467,0.224,-1.362,compass,-30.295,-0.112,-53.652,-1.085,-0.56,0.14,6.847,3.9907166843066815,-0.154,39.354,3.351,22965.607,True,1.98574120711085,3.3514438405423648,3.24,-0.051,-0.242,-9.953,0.276,39.354,47.698,True,0,1,0,0
-1.483,0.336,-1.366,compass,-30.906,-0.0,-52.941,-1.064,-0.336,0.14,6.827,3.9971139754528955,-0.163,39.345,3.348,22965.707,True,2.016560311944297,3.3475544961036254,3.24,-0.012,-0.277,-9.957,0.276,39.345,47.977,True,0,1,0,0
-1.493,0.336,-1.37,compass,-31.343,-0.0,-52.32,-1.031,-0.224,0.14,6.847,4.012336571727441,-0.175,39.333,3.348,22965.807,True,2.045140534994529,3.3475523385394155,3.24,-0.012,-0.277,-9.957,0.248,39.333,47.977,True,0,1,0,0
-1.499,0.336,-1.374,compass,-31.77,-0.224,-51.773,-1.006,-0.112,0.14,6.847,4.035979800542931,-0.206,39.302,3.32,22965.907,True,2.052650623998134,3.3203305686792164,3.24,-0.012,-0.277,-9.879,0.248,39.302,47.933,True,0,1,0,0
-1.5,0.112,-1.377,compass,-33.565,-0.112,-51.418,-0.945,0.224,0.14,6.927,4.0730970334256815,-0.309,39.199,3.32,22966.007,True,2.0655787433084924,3.3203037344621134,3.24,-0.012,-0.316,-9.914,0.248,39.199,47.933,True,0,1,0,0
-1.488,0.0,-1.381,compass,-34.262,-0.448,-51.198,-0.933,0.336,0.16,6.867,4.102640733733769,-0.353,39.155,3.237,22966.107,True,2.022866786969601,3.2366985146802802,3.24,-0.012,-0.316,-9.875,0.23,39.155,48.057,True,0,1,0,0
-1.47,-0.112,-1.383,compass,-34.515,-0.448,-51.093,-0.924,0.336,0.16,7.007,4.147659527150669,-0.398,39.11,3.237,22966.207,True,2.02713473441339,3.236682101709353,3.24,-0.012,-0.277,-9.84,0.23,39.11,48.057,True,0,1,0,0
-1.446,-0.224,-1.385,compass,-35.604,-0.112,-51.478,-0.939,0.56,0.16,7.007,4.172577978542906,-0.427,39.081,3.367,22966.307,True,2.0913173865706796,3.3669145870141883,3.24,-0.051,-0.316,-9.797,0.23,39.081,47.852,True,0,1,0,0
-1.431,-0.224,-1.387,compass,-33.963,-0.224,-51.886,-0.959,0.112,0.09,7.066,4.17624363958143,-0.458,39.05,3.367,22966.407,True,2.072596309082179,3.3669002584042342,3.2,-0.051,-0.316,-9.84,0.184,39.05,47.852,True,0,1,0,0
-1.403,-0.448,-1.387,compass,-35.732,-0.0,-52.186,-0.984,0.448,0.09,7.126,4.191960776128581,-0.488,39.02,3.355,22966.507,True,2.0516927728503314,3.3552223657690887,3.2,-0.051,-0.316,-9.84,0.184,39.02,48.541,True,0,1,0,0
-1.374,-0.336,-1.387,compass,-33.792,-0.112,-52.252,-1.008,0.0,0.09,7.365,4.234512026202019,-0.533,38.975,3.355,22966.607,True,2.048234450498494,3.3551988737333183,3.2,-0.09,-0.316,-9.801,0.184,38.975,48.541,True,0,1,0,0
-1.348,-0.448,-1.386,compass,-34.462,-0.112,-52.267,-1.039,0.112,0.11,7.365,4.275538615022175,-0.571,38.937,3.301,22966.707,True,2.014220583378554,3.3007478405452724,3.2,-0.129,-0.355,-9.836,0.172,38.937,48.319,True,0,1,0,0
-1.322,-0.112,-1.384,compass,-32.862,-0.224,-52.091,-1.07,-0.112,0.11,7.385,4.326750214406434,-0.601,38.907,3.301,22966.807,True,2.0224862985124163,3.300730385036823,3.2,-0.09,-0.316,-9.875,0.172,38.907,48.319,True,0,1,0,0
-1.265,-0.224,-1.38,compass,-33.122,0.336,-52.019,-1.119,-0.112,0.11,7.385,4.357174138834976,-0.625,38.883,3.311,22966.907,True,2.032122018383009,3.3104351249116957,3.2,-0.051,-0.355,-9.879,0.172,38.883,47.821,True,0,1,0,0
-1.232,0.112,-1.376,compass,-33.138,-0.112,-51.738,-1.13,0.112,0.09,7.385,4.425727859328153,-0.632,38.876,3.311,22967.007,True,2.0457848496117332,3.310430485499762,3.2,-0.09,-0.355,-9.914,0.148,38.876,47.821,True,0,1,0,0
-1.208,0.0,-1.371,compass,-34.171,-0.0,-51.547,-1.124,0.336,0.09,7.385,4.473301097102478,-0.648,38.86,3.346,22967.107,True,2.0765549244467545,3.3454100477507462,3.2,-0.051,-0.355,-9.918,0.148,38.86,48.371,True,0,1,0,0
-1.183,0.112,-1.365,compass,-33.921,-0.112,-51.438,-1.118,0.336,0.09,7.305,4.504617491453379,-0.655,38.853,3.346,22967.207,True,2.082184144293498,3.3454054813988487,3.2,-0.051,-0.355,-9.918,0.148,38.853,48.371,True,0,1,0,0
-1.161,0.224,-1.359,compass,-34.046,0.112,-51.211,-1.095,0.448,0.14,7.305,4.5579684832588665,-0.686,38.822,3.285,22967.307,True,2.054473437885641,3.2851246162047882,3.2,-0.09,-0.355,-9.914,0.15,38.822,48.26,True,0,1,0,0
-1.154,0.224,-1.353,compass,-32.878,-0.112,-51.31,-1.075,0.112,0.14,6.987,4.509775458003743,-0.699,38.809,3.285,22967.407,True,2.050426627288221,3.285115641967938,3.15,-0.051,-0.316,-9.918,0.15,38.809,48.26,True,0,1,0,0
-1.14,0.112,-1.346,compass,-34.365,0.224,-51.353,-1.058,0.448,0.18,6.987,4.497146812005474,-0.708,38.8,3.231,22967.508,True,2.014936523705386,3.2306815874036836,3.15,-0.051,-0.316,-9.918,0.154,38.8,47.753,True,0,1,0,0
-1.138,0.112,-1.34,compass,-33.152,0.112,-51.716,-1.051,0.112,0.18,6.688,4.402695992183664,-0.714,38.794,3.231,22967.608,True,1.9992941779157778,3.230677029343846,3.15,-0.051,-0.355,-9.918,0.154,38.794,47.753,True,0,1,0,0
-1.14,-0.112,-1.334,compass,-32.401,-0.112,-52.126,-1.035,-0.224,0.18,6.688,4.279476890586202,-0.72,38.788,3.25,22967.708,True,1.993320626769351,3.2501110519319045,3.15,-0.051,-0.316,-9.879,0.154,38.788,48.042,True,0,1,0,0
-1.151,-0.112,-1.329,compass,-32.841,-0.0,-52.601,-1.024,-0.112,0.14,6.489,4.148034766186774,-0.729,38.779,3.25,22967.808,True,1.9721825118865473,3.250104915036795,3.15,-0.051,-0.395,-9.875,0.126,38.779,48.042,True,0,1,0,0
-1.157,0.0,-1.323,compass,-30.201,-0.0,-52.908,-1.022,-0.671,0.14,6.449,4.009694231477446,-0.698,38.81,3.248,22967.908,True,1.9586388716989833,3.248183076303492,3.15,-0.051,-0.355,-9.879,0.126,38.81,48.084,True,0,1,0,0
-1.164,0.112,-1.319,compass,-31.358,-0.336,-52.78,-1.021,-0.336,0.14,6.529,3.9460728291348515,-0.66,38.848,3.248,22968.008,True,1.965892167374075,3.2482084497944306,3.15,-0.051,-0.355,-9.918,0.113,38.848,48.084,True,0,1,0,0
-1.179,-0.112,-1.314,compass,-31.46,-0.112,-52.759,-1.023,-0.448,0.14,6.529,3.8532348264776877,-0.631,38.877,3.291,22968.108,True,1.9935142866263864,3.290992322215876,3.15,-0.051,-0.355,-9.879,0.113,38.877,48.91,True,0,1,0,0
-1.189,-0.112,-1.311,compass,-34.43,-0.448,-52.763,-1.028,-0.224,0.14,6.608,3.814642398344478,-0.596,38.912,3.291,22968.208,True,1.9942143738001348,3.291014070306263,3.15,-0.051,-0.355,-9.879,0.113,38.912,48.91,True,0,1,0,0
-1.211,-0.112,-1.308,compass,-35.737,-0.0,-52.817,-1.028,0.112,0.16,6.608,3.8380812183472814,-0.558,38.95,3.19,22968.308,True,1.931292456963527,3.1899528176071437,3.11,-0.051,-0.395,-9.914,0.109,38.95,47.79,True,0,1,0,0
-1.224,0.0,-1.305,compass,-34.14,-0.56,-52.901,-1.024,-0.224,0.16,6.688,3.863430875171198,-0.52,38.988,3.19,22968.409,True,1.9281712197324148,3.1899726679864346,3.11,-0.051,-0.355,-9.918,0.109,38.988,47.79,True,0,1,0,0
-1.249,0.112,-1.303,compass,-34.707,-0.224,-52.973,-1.031,0.0,0.16,6.728,3.913202083393294,-0.498,39.01,3.225,22968.509,True,1.9460078782899324,3.224974410603478,3.11,-0.051,-0.355,-9.879,0.098,39.01,47.775,True,0,1,0,0
-1.264,-0.112,-1.302,compass,-34.876,-0.112,-53.131,-1.033,-0.112,0.16,6.847,3.9512496549368366,-0.475,39.033,3.225,22968.609,True,1.9388214967097535,3.224985072957334,3.11,-0.051,-0.316,-9.879,0.098,39.033,47.775,True,0,1,0,0
-1.297,0.112,-1.302,compass,-32.587,-0.224,-53.149,-1.022,-0.56,0.09,6.847,3.9802546130313994,-0.437,39.071,3.188,22968.709,True,1.9163229735849563,3.188067317234884,3.11,-0.051,-0.316,-9.84,0.054,39.071,47.432,True,0,1,0,0
-1.324,0.0,-1.303,compass,-33.723,-0.112,-53.212,-1.013,-0.336,0.09,6.788,3.9938649667645163,-0.43,39.078,3.188,22968.809,True,1.9128332419453358,3.188070322495623,3.11,-0.09,-0.277,-9.879,0.054,39.078,47.432,True,0,1,0,0
-1.363,0.224,-1.305,compass,-31.403,-0.224,-53.361,-0.999,-0.783,0.09,6.788,3.9772539968737997,-0.429,39.079,3.297,22968.909,True,1.9704752378529544,3.296931612644889,3.11,-0.09,-0.277,-9.879,0.054,39.079,47.44,True,0,1,0,0
-1.383,0.112,-1.307,compass,-33.86,-0.112,-53.447,-0.992,-0.224,0.09,6.748,3.9806266398776002,-0.429,39.079,3.297,22969.009,True,1.9658756418570336,3.296931786985063,3.11,-0.09,-0.277,-9.84,0.048,39.079,47.44,True,0,1,0,0
-1.403,0.0,-1.31,compass,-32.836,-0.112,-53.491,-0.985,-0.56,0.09,6.748,3.9527359567740006,-0.428,39.08,3.258,22969.109,True,1.9401966362797984,3.258053045495872,3.11,-0.051,-0.277,-9.875,0.048,39.08,47.94,True,0,1,0,0
-1.425,0.224,-1.313,compass,-33.985,-0.336,-53.435,-0.984,-0.112,0.11,6.648,3.9605307924891955,-0.421,39.087,3.258,22969.209,True,1.942644862433621,3.258055963968721,3.06,-0.051,-0.316,-9.879,0.054,39.087,47.94,True,0,1,0,0
-1.438,0.224,-1.317,compass,-33.553,-0.112,-53.409,-0.98,-0.224,0.11,6.648,3.9662703712929392,-0.421,39.087,3.231,22969.31,True,1.927250611053149,3.2308408095991297,3.06,-0.012,-0.277,-9.84,0.054,39.087,47.703,True,0,1,0,0
-1.442,0.112,-1.321,compass,-35.557,-0.336,-53.517,-0.97,0.224,0.11,6.589,3.98046197295673,-0.443,39.065,3.231,22969.41,True,1.921293631351043,3.230831495211228,3.06,-0.012,-0.277,-9.84,0.054,39.065,47.703,True,0,1,0,0
-1.444,0.224,-1.324,compass,-35.258,-0.336,-53.35,-0.954,0.224,0.09,6.589,4.029735975037405,-0.465,39.043,3.079,22969.51,True,1.8375512743874587,3.079194725052175,3.06,-0.09,-0.277,-9.879,0.042,39.043,47.48,True,0,1,0,0
-1.434,0.224,-1.328,compass,-41.695,0.224,-53.698,-0.905,0.671,0.09,6.489,4.094178381531621,-0.546,38.962,3.079,22969.61,True,1.8198687791677146,3.0791562108822994,3.06,-0.051,-0.316,-9.879,0.042,38.962,47.48,True,0,1,0,0
-1.423,0.224,-1.331,compass,-39.732,-0.112,-54.886,-0.894,0.112,0.11,6.489,4.090502721952834,-0.561,38.947,3.248,22969.71,True,1.8652703569490372,3.2482680354271163,3.06,-0.051,-0.277,-9.914,0.048,38.947,47.071,True,0,1,0,0
-1.403,0.224,-1.333,compass,-41.331,-0.0,-56.078,-0.878,0.56,0.11,6.389,4.10944163417785,-0.562,38.946,3.248,22969.81,True,1.8102581075040827,3.248268009075252,3.06,-0.09,-0.355,-9.953,0.048,38.946,47.071,True,0,1,0,0
-1.394,0.112,-1.335,compass,-40.071,-0.224,-57.239,-0.874,0.112,0.11,6.389,4.084234893643266,-0.553,38.955,3.211,22969.91,True,1.7361814877268131,3.2113386148753027,3.06,-0.051,-0.316,-9.957,0.048,38.955,47.954,True,0,1,0,0
-1.374,0.0,-1.336,compass,-46.845,0.112,-58.503,-0.882,0.56,0.11,6.469,4.126398505986976,-0.538,38.97,3.211,22970.01,True,1.6770852601824096,3.211346684905061,3.06,-0.012,-0.316,-9.953,0.043,38.97,47.954,True,0,1,0,0
-1.352,-0.112,-1.336,compass,-44.223,-0.224,-60.155,-0.904,-0.336,0.11,6.37,4.0914188598710535,-0.532,38.976,3.18,22970.11,True,1.5823580957220396,3.180247125640412,3.02,-0.012,-0.355,-9.953,0.043,38.976,48.209,True,0,1,0,0
-1.331,-0.336,-1.336,compass,-46.57,0.224,-61.842,-0.927,0.112,0.11,6.37,4.074341090280257,-0.532,38.976,3.18,22970.211,True,1.500533745717558,3.1802467806050956,3.02,-0.012,-0.316,-9.914,0.039,38.976,48.209,True,0,1,0,0
-1.32,-0.448,-1.336,compass,-45.809,-0.0,-63.718,-0.96,-0.224,0.11,6.429,4.042421494785779,-0.548,38.96,3.184,22970.311,True,1.4090919294867719,3.1841261171443245,3.02,-0.012,-0.355,-9.875,0.039,38.96,47.467,True,0,1,0,0
-1.29,-0.448,-1.334,compass,-47.329,-0.0,-65.132,-0.999,0.224,0.11,6.429,4.073592226141401,-0.594,38.914,3.184,22970.411,True,1.3365812871677718,3.184101006192995,3.02,-0.012,-0.316,-9.875,0.035,38.914,47.467,True,0,1,0,0
-1.269,-0.448,-1.33,compass,-46.93,-0.0,-67.358,-1.086,0.112,0.11,6.509,4.139758133023329,-0.759,38.749,3.159,22970.511,True,1.2090865554355001,3.158722629202225,3.02,-0.09,-0.355,-9.875,0.035,38.749,47.57,True,0,1,0,0
-1.269,-0.448,-1.33,compass,-46.93,-0.0,-67.358,-1.086,0.112,0.14,6.509,4.139758133023329,-0.759,38.749,3.159,22970.611,True,1.2090865554355001,3.158722629202225,3.02,-0.09,-0.355,-9.875,0.047,38.749,47.57,True,0,1,0,0
-1.258,0.0,-1.326,compass,-46.084,0.112,-68.352,-1.118,0.336,0.14,6.688,4.276738006879057,-0.84,38.668,3.169,22970.811,True,1.161838348299718,3.1683798475276466,3.02,-0.09,-0.355,-9.914,0.042,38.668,47.986,True,0,1,0,0
-1.258,0.0,-1.326,compass,-46.084,0.112,-68.352,-1.118,0.336,0.14,6.688,4.276738006879057,-0.84,38.668,3.169,22970.811,True,1.161838348299718,3.1683798475276466,3.02,-0.09,-0.355,-9.914,0.042,38.668,47.986,True,0,1,0,0
-1.245,0.112,-1.322,compass,-44.638,0.112,-69.113,-1.122,0.0,-0.03,6.728,4.359823195600195,-0.877,38.631,3.246,22971.011,True,1.1516223633600937,3.2460993122210238,3.02,-0.09,-0.355,-9.953,-0.126,38.631,48.037,True,0,1,0,0
-1.245,0.112,-1.322,compass,-44.638,0.112,-69.113,-1.122,0.0,-0.03,6.728,4.359823195600195,-0.877,38.631,3.246,22971.011,True,1.1516223633600937,3.2460993122210238,3.02,-0.09,-0.355,-9.953,-0.126,38.631,48.037,True,0,1,0,0
-1.251,0.112,-1.317,compass,-43.185,-0.224,-68.985,-1.096,-0.224,-0.03,6.688,4.4188361502015185,-0.899,38.609,3.153,22971.111,True,1.125504589353344,3.1527795724462195,2.99,-0.051,-0.355,-9.918,-0.126,38.587,47.031,True,0,1,0,0
-1.251,0.112,-1.317,compass,-43.891,-0.224,-68.972,-1.096,-0.224,-0.03,6.688,4.437013916167304,-0.921,38.587,3.153,22971.212,True,1.126444495323049,3.152760495836266,2.99,-0.051,-0.355,-9.918,-0.126,38.587,47.031,True,0,1,0,0
-1.253,0.0,-1.315,compass,-43.876,-0.224,-69.057,-1.08,-0.336,0.11,6.608,4.4211389972839905,-0.95,38.558,3.19,22971.312,True,1.13515030579851,3.189665888593132,2.99,-0.012,-0.355,-9.914,-0.068,38.558,47.693,True,0,1,0,0
-1.279,0.112,-1.314,compass,-42.709,-0.112,-69.156,-1.048,-0.56,0.18,6.608,4.380626817610767,-1.002,38.506,3.19,22971.412,True,1.1290094275504958,3.1896163915318194,2.99,-0.012,-0.355,-9.836,0.008,38.506,47.693,True,0,1,0,0
-1.294,0.0,-1.313,compass,-38.755,0.112,-69.051,-1.028,-0.336,0.01,6.529,4.287958358820684,-1.017,38.491,3.221,22971.612,True,1.1474137812177787,3.220700837345277,2.99,-0.012,-0.355,-9.836,-0.166,38.491,47.785,True,0,1,0,0
-1.294,0.0,-1.313,compass,-38.755,0.112,-69.051,-1.028,-0.336,0.01,6.529,4.287958358820684,-1.017,38.491,3.221,22971.612,True,1.1474137812177787,3.220700837345277,2.99,-0.012,-0.355,-9.836,-0.166,38.491,47.785,True,0,1,0,0
-1.302,-0.112,-1.312,compass,-41.592,0.112,-68.196,-1.01,0.336,0.16,6.37,4.229340581955089,-1.023,38.485,3.171,22971.812,True,1.1749340803260981,3.1701587078381035,2.99,-0.051,-0.316,-9.797,0.0,38.485,47.253,True,0,1,0,0
-1.302,-0.112,-1.312,compass,-41.592,0.112,-68.196,-1.01,0.336,0.16,6.37,4.229340581955089,-1.023,38.485,3.171,22971.812,True,1.1749340803260981,3.1701587078381035,2.99,-0.051,-0.316,-9.797,0.0,38.485,47.253,True,0,1,0,0
-1.307,-0.224,-1.312,compass,-42.003,0.112,-67.509,-1.023,0.336,0.05,6.21,4.1560565346585605,-1.032,38.476,3.118,22972.012,True,1.1908119767017284,3.117670237635509,2.96,-0.051,-0.277,-9.836,-0.102,38.476,47.442,True,0,1,0,0
-1.307,-0.112,-1.312,compass,-39.933,0.112,-67.753,-1.023,-0.112,-0.15,6.21,4.079327853314648,-1.052,38.456,3.248,22972.112,True,1.2274460686899178,3.2478766883949843,2.96,-0.051,-0.316,-9.879,-0.292,38.456,47.377,True,0,1,0,0
-1.318,-0.112,-1.312,compass,-41.653,0.112,-67.843,-1.033,0.336,-0.25,6.131,4.035492452032,-1.067,38.441,3.248,22972.212,True,1.2226187637975252,3.247860419847513,2.96,-0.051,-0.316,-9.879,-0.363,38.441,47.377,True,0,1,0,0
-1.327,-0.112,-1.312,compass,-39.932,-0.112,-67.6,-1.037,-0.112,-0.25,6.131,3.977638746417318,-1.105,38.403,3.108,22972.312,True,1.1811729283670316,3.1078780822639827,2.96,-0.051,-0.316,-9.918,-0.363,38.403,47.83,True,0,1,0,0
-1.333,-0.112,-1.313,compass,-33.398,-0.224,-67.136,-1.035,-0.448,-0.42,6.051,3.879742529895809,-1.111,38.397,3.108,22972.412,True,1.2049071125797872,3.1078712969109095,2.96,-0.051,-0.316,-9.918,-0.412,38.397,47.83,True,0,1,0,0
-1.316,-0.112,-1.313,compass,-35.806,-0.671,-66.216,-1.026,0.112,-0.42,6.051,3.829463166971527,-1.12,38.388,3.101,22972.512,True,1.2479295666485275,3.100087239045662,2.96,-0.012,-0.316,-9.914,-0.412,38.388,47.977,True,0,1,0,0
-1.313,0.112,-1.313,compass,-33.692,-0.448,-65.375,-1.019,-0.224,-0.42,5.892,3.7472122891268658,-1.127,38.381,3.101,22972.612,True,1.2897474340866504,3.1000803068621967,2.96,-0.051,-0.355,-9.918,-0.412,38.381,47.977,True,0,1,0,0
-1.307,-0.224,-1.313,compass,-35.201,-0.448,-65.014,-1.021,-0.112,-0.36,5.892,3.6510331659460964,-1.127,38.381,3.173,22972.712,True,1.338307691073655,3.171994246001393,2.96,-0.051,-0.316,-9.918,-0.35,38.381,47.433,True,0,1,0,0
-1.304,-0.112,-1.312,compass,-36.327,-0.0,-64.585,-1.015,0.224,-0.36,5.792,3.5855133794171983,-1.134,38.374,3.173,22972.812,True,1.359957923890197,3.1719871113174243,2.96,-0.051,-0.316,-9.879,-0.35,38.374,47.433,True,0,1,0,0
-1.295,0.112,-1.312,compass,-35.148,-0.448,-63.805,-1.01,0.112,-0.34,5.792,3.552652703388203,-1.149,38.359,3.101,22972.912,True,1.3669076210089877,3.1000564030575233,2.96,-0.09,-0.355,-9.836,-0.305,38.359,47.437,True,0,1,0,0
-1.289,0.0,-1.311,compass,-35.979,0.112,-63.209,-1.012,0.224,-0.34,5.772,3.519105895233494,-1.156,38.352,3.101,22973.013,True,1.395918593848909,3.100049063379285,2.93,-0.09,-0.355,-9.875,-0.305,38.352,47.437,True,0,1,0,0
-1.284,0.0,-1.31,compass,-35.978,-0.112,-62.749,-1.021,0.224,-0.34,5.772,3.4940808047923806,-1.172,38.336,3.103,22973.113,True,1.4187659445457663,3.10197537940144,2.93,-0.09,-0.355,-9.875,-0.305,38.336,47.184,True,0,1,0,0
-1.278,0.224,-1.309,compass,-34.315,-0.112,-62.287,-1.023,0.0,-0.36,5.713,3.4643658173017466,-1.178,38.33,3.103,22973.213,True,1.4411103102139107,3.101967890559502,2.93,-0.051,-0.355,-9.879,-0.281,38.33,47.184,True,0,1,0,0
-1.275,0.224,-1.308,compass,-34.807,0.224,-61.76,-1.017,0.112,-0.36,5.713,3.441458827042806,-1.181,38.327,3.108,22973.313,True,1.4693762355290116,3.1077961791534823,2.93,-0.051,-0.355,-9.879,-0.281,38.327,47.577,True,0,1,0,0
-1.271,0.224,-1.307,compass,-32.813,-0.112,-61.314,-1.003,-0.336,-0.36,5.733,3.394745893135574,-1.187,38.321,3.108,22973.413,True,1.4907531365001658,3.1077889442171602,2.93,-0.051,-0.355,-9.879,-0.253,38.321,47.577,True,0,1,0,0
-1.273,0.224,-1.306,compass,-32.813,-0.224,-61.106,-0.987,-0.336,-0.36,5.733,3.3522939287489173,-1.2,38.308,3.175,22973.513,True,1.532372968588833,3.173855844909017,2.93,-0.051,-0.355,-9.918,-0.253,38.308,46.752,True,0,1,0,0
-1.279,0.336,-1.305,compass,-31.966,-0.112,-60.742,-0.963,-0.448,-0.36,5.713,3.313359412091623,-1.224,38.284,3.175,22973.613,True,1.549448447744402,3.1738278302167062,2.93,-0.09,-0.316,-9.914,-0.253,38.284,46.752,True,0,1,0,0
-1.283,0.224,-1.305,compass,-32.291,-0.112,-60.364,-0.931,-0.448,-0.4,5.713,3.2653502027568777,-1.245,38.263,3.176,22973.713,True,1.5682669443823825,3.1757456568461326,2.93,-0.051,-0.316,-9.918,-0.241,38.263,47.122,True,0,1,0,0
-1.298,0.224,-1.305,compass,-42.427,-0.0,-60.67,-0.911,-0.448,-0.4,5.812,3.2568103487315776,-1.258,38.25,3.176,22973.813,True,1.5535506352732815,3.175730316291251,2.93,-0.051,-0.316,-9.879,-0.241,38.25,47.122,True,0,1,0,0
-1.303,0.224,-1.305,compass,-43.311,-0.0,-61.262,-0.902,-0.224,-0.32,5.812,3.2885578593961333,-1.289,38.219,3.142,22973.913,True,1.5074410941315348,3.1407092158512167,2.89,-0.051,-0.316,-9.918,-0.177,38.219,47.006,True,0,1,0,0
-1.311,0.224,-1.305,compass,-43.739,-0.0,-62.159,-0.883,-0.112,-0.23,5.792,3.3314702303774753,-1.326,38.182,3.142,22974.013,True,1.4633448860427813,3.140662669715418,2.89,-0.012,-0.277,-9.879,-0.072,38.182,47.006,True,0,1,0,0
-1.322,0.112,-1.305,compass,-45.83,0.112,-63.374,-0.872,0.336,-0.34,5.792,3.398075142412938,-1.339,38.169,3.211,22974.113,True,1.4357147304179594,3.2106111325468274,2.89,-0.012,-0.277,-9.879,-0.176,38.169,46.988,True,0,1,0,0
-1.331,0.112,-1.306,compass,-45.004,0.112,-64.724,-0.875,0.112,-0.4,5.832,3.451449246492324,-1.399,38.109,3.211,22974.213,True,1.366079291369172,3.210531228485315,2.89,-0.012,-0.277,-9.879,-0.219,38.109,46.988,True,0,1,0,0
-1.337,0.112,-1.307,compass,-45.824,0.224,-65.614,-0.872,0.336,-0.5,5.832,3.5300209483922775,-1.427,38.081,3.103,22974.313,True,1.276017008005536,3.1016614781803677,2.89,-0.012,-0.277,-9.879,-0.297,38.081,47.184,True,0,1,0,0
-1.34,-0.112,-1.308,compass,-45.84,-0.112,-66.715,-0.878,0.112,-0.5,5.892,3.577058670675858,-1.465,38.043,3.103,22974.413,True,1.2210629624240452,3.1016099711834553,2.89,-0.012,-0.316,-9.875,-0.267,38.043,47.184,True,0,1,0,0
-1.342,-0.224,-1.309,compass,-47.473,0.224,-67.677,-0.884,0.448,-0.48,5.892,3.6439616420384224,-1.503,38.005,3.083,22974.513,True,1.1653750872177122,3.082123808577003,2.89,-0.051,-0.316,-9.84,-0.22,38.005,47.117,True,0,1,0,0
-1.34,-0.112,-1.31,compass,-46.296,-0.0,-68.993,-0.899,0.224,-0.36,5.673,3.649465228264831,-1.532,37.976,3.083,22974.613,True,1.0996564054388933,3.0820824858081153,2.89,-0.051,-0.355,-9.879,-0.078,37.976,47.117,True,0,1,0,0
-1.329,-0.224,-1.31,compass,-45.448,-0.0,-70.223,-0.91,-0.112,-0.64,5.673,3.617130609088904,-1.547,37.961,3.054,22974.713,True,1.0283699647432427,3.0529102271451514,2.89,-0.051,-0.316,-9.879,-0.348,37.961,47.889,True,0,1,0,0
-1.32,-0.112,-1.311,compass,-41.521,-0.112,-71.504,-0.928,-0.448,-0.79,5.474,3.531694860580175,-1.554,37.954,3.054,22974.813,True,0.964633639425583,3.0529000918712663,2.86,-0.051,-0.355,-9.879,-0.464,37.954,47.889,True,0,1,0,0
-1.305,-0.224,-1.311,compass,-43.416,-0.0,-72.385,-0.948,-0.112,-0.58,5.474,3.4844863935791346,-1.548,37.96,3.062,22974.914,True,0.9234772441041389,3.0606820074661085,2.86,-0.051,-0.316,-9.879,-0.207,37.96,47.247,True,0,1,0,0
-1.274,-0.224,-1.309,compass,-43.431,-0.112,-73.461,-0.989,-0.112,-0.81,5.275,3.4098786734277065,-1.527,37.981,3.062,22975.014,True,0.8700080433064793,3.060712130448461,2.86,-0.051,-0.355,-9.879,-0.409,37.981,47.247,True,0,1,0,0
-1.268,-0.224,-1.308,compass,-45.333,0.224,-74.183,-1.013,0.336,-0.68,5.275,3.3783604052863443,-1.504,38.004,3.11,22975.114,True,0.8475023159926062,3.1093291569512385,2.86,-0.051,-0.355,-9.918,-0.234,38.004,47.662,True,0,1,0,0
-1.257,-0.112,-1.307,compass,-43.976,-0.112,-75.32,-1.025,0.112,-0.68,5.056,3.305982832722649,-1.482,38.026,3.11,22975.214,True,0.7889435000133053,3.10935993084711,2.86,-0.09,-0.316,-9.875,-0.234,38.026,47.662,True,0,1,0,0
-1.248,-0.112,-1.305,compass,-46.353,-0.0,-75.76,-1.043,0.671,-0.68,5.056,3.29942917031212,-1.469,38.039,3.075,22975.314,True,0.7575453886031367,3.0743973118517953,2.86,-0.09,-0.355,-9.914,-0.234,38.039,47.464,True,0,1,0,0
-1.24,-0.112,-1.303,compass,-33.992,-0.112,-76.361,-1.061,0.112,-0.85,4.877,3.1945967564171287,-1.454,38.054,3.075,22975.414,True,0.7266303674844092,3.074417939095654,2.86,-0.051,-0.355,-9.918,-0.267,38.054,47.464,True,0,1,0,0
-1.238,-0.224,-1.301,compass,-36.718,0.112,-76.172,-1.077,0.56,-0.85,4.877,3.108931714861538,-1.439,38.069,3.079,22975.514,True,0.7377190472213387,3.0783253164241944,2.86,-0.051,-0.355,-9.957,-0.267,38.069,48.087,True,0,1,0,0
-1.236,0.0,-1.299,compass,-33.001,-0.224,-76.272,-1.092,0.0,-0.85,4.658,2.9709430640325767,-1.426,38.082,3.079,22975.614,True,0.7326348233487309,3.078342681913023,2.86,-0.051,-0.355,-9.957,-0.267,38.082,48.087,True,0,1,0,0
-1.229,-0.112,-1.297,compass,-34.656,-0.0,-75.76,-1.095,0.224,-0.73,4.658,2.863211415106117,-1.417,38.091,3.029,22975.714,True,0.7468276224373207,3.0278258015496844,2.86,-0.051,-0.355,-9.957,-0.2,38.091,47.807,True,0,1,0,0
-1.238,-0.112,-1.295,compass,-30.787,-0.112,-75.634,-1.099,-0.448,-0.73,4.598,2.7167250082295404,-1.426,38.082,3.029,22975.814,True,0.7525075057989836,3.0278142294202115,2.82,-0.051,-0.355,-9.918,-0.2,38.082,47.807,True,0,1,0,0
-1.231,-0.112,-1.293,compass,-29.414,-0.112,-75.137,-1.102,-0.671,-0.77,4.598,2.5706644473119877,-1.417,38.091,3.029,22975.914,True,0.7780600287872944,3.0278257013471306,2.82,-0.051,-0.316,-9.918,-0.2,38.091,48.264,True,0,1,0,0
-1.245,0.0,-1.292,compass,-31.713,-0.0,-73.854,-1.098,-0.224,-0.77,4.598,2.4806934778499485,-1.381,38.127,3.029,22976.014,True,0.8445401691184397,3.0278716839729327,2.82,-0.09,-0.316,-9.875,-0.2,38.127,48.264,True,0,1,0,0
-1.258,-0.112,-1.291,compass,-30.787,-0.0,-73.245,-1.094,-0.448,-0.64,4.598,2.3862669686930427,-1.35,38.158,3.06,22976.114,True,0.8851352146207649,3.0590064773048162,2.82,-0.09,-0.355,-9.875,-0.115,38.158,47.569,True,0,1,0,0
-1.265,-0.112,-1.29,compass,-31.493,-0.112,-72.139,-1.092,-0.336,-0.64,4.698,2.3315931809470714,-1.315,38.193,3.06,22976.214,True,0.9422459205309,3.05905053121027,2.82,-0.051,-0.355,-9.879,-0.115,38.193,47.569,True,0,1,0,0
-1.283,0.112,-1.29,compass,-31.981,0.448,-70.266,-1.101,-0.112,-0.66,4.698,2.3272142918402055,-1.268,38.24,2.976,22976.314,True,1.0095737228389903,2.975535150823402,2.82,-0.051,-0.355,-9.84,-0.114,38.24,47.66,True,0,1,0,0
-1.287,0.224,-1.29,compass,-30.994,-0.336,-68.436,-1.093,-0.224,-0.66,4.757,2.335513152229567,-1.239,38.269,2.976,22976.414,True,1.098540169346213,2.9755680364542547,2.82,-0.051,-0.355,-9.879,-0.114,38.269,47.66,True,0,1,0,0
-1.298,0.112,-1.29,compass,-34.4,0.224,-67.256,-1.082,0.336,-0.79,4.757,2.359382821631762,-1.21,38.298,3.056,22976.514,True,1.1862774144806296,3.0552865423150974,2.82,-0.051,-0.316,-9.84,-0.164,38.298,47.439,True,0,1,0,0
-1.3,0.224,-1.29,compass,-31.64,-0.112,-66.19,-1.067,-0.112,-0.79,4.857,2.379104091029632,-1.188,38.32,3.056,22976.615,True,1.2382920344012576,3.0553115382796974,2.82,-0.051,-0.355,-9.84,-0.164,38.32,47.439,True,0,1,0,0
-1.318,0.112,-1.291,compass,-33.795,0.112,-65.221,-1.054,0.224,-0.79,4.857,2.4084094574185717,-1.172,38.336,3.031,22976.715,True,1.274321602696688,3.0300623885490454,2.79,-0.051,-0.316,-9.879,-0.164,38.336,47.559,True,0,1,0,0
-1.333,-0.112,-1.292,compass,-32.784,0.224,-65.274,-1.034,-0.112,-0.75,4.757,2.3741813601003847,-1.171,38.337,3.031,22976.815,True,1.2708878750791381,3.030062992672669,2.79,-0.051,-0.316,-9.879,-0.134,38.337,47.559,True,0,1,0,0
-1.364,0.0,-1.295,compass,-30.48,0.112,-64.809,-1.016,-0.448,-0.75,4.757,2.350877310358842,-1.157,38.351,2.924,22976.915,True,1.2473942524728874,2.923179803777016,2.79,-0.051,-0.316,-9.879,-0.134,38.351,47.245,True,0,1,0,0
-1.375,-0.112,-1.297,compass,-32.776,0.112,-64.893,-1.005,-0.112,-0.85,4.578,2.3084716372272944,-1.141,38.367,2.924,22977.015,True,1.2434549671678758,2.9231960235168217,2.79,-0.051,-0.355,-9.918,-0.171,38.367,47.245,True,0,1,0,0
-1.395,0.112,-1.3,compass,-28.631,0.112,-64.554,-0.998,-0.671,-0.85,4.578,2.2642717639249703,-1.125,38.383,2.875,22977.115,True,1.238083141674337,2.8746214569550492,2.79,-0.051,-0.316,-9.918,-0.171,38.383,47.275,True,0,1,0,0
-1.406,0.224,-1.303,compass,-28.847,0.224,-64.108,-0.987,-0.56,-0.85,4.479,2.221461404223204,-1.103,38.405,2.875,22977.215,True,1.25846470331887,2.874643361770391,2.79,-0.051,-0.277,-9.875,-0.171,38.405,47.275,True,0,1,0,0
-1.423,0.112,-1.307,compass,-29.921,0.336,-65.092,-0.974,-0.448,-0.77,4.479,2.1529134861295804,-1.074,38.434,3.124,22977.315,True,1.3193339381077085,3.123459488048985,2.79,-0.051,-0.277,-9.914,-0.127,38.434,47.165,True,0,1,0,0
-1.432,0.112,-1.31,compass,-31.929,-0.0,-65.677,-0.957,-0.112,-0.77,4.459,2.1151862014778176,-1.058,38.45,3.124,22977.415,True,1.2901781186135584,3.1234756207511754,2.79,-0.051,-0.242,-9.875,-0.127,38.45,47.165,True,0,1,0,0
-1.443,0.224,-1.314,compass,-32.815,0.448,-65.037,-0.946,0.112,-0.83,4.459,2.1331909820717163,-1.035,38.473,2.949,22977.515,True,1.2479670642695582,2.948566534995595,2.79,-0.051,-0.242,-9.875,-0.144,38.473,47.07,True,0,1,0,0
-1.454,0.336,-1.319,compass,-40.117,0.224,-64.813,-0.935,0.112,-0.83,4.578,2.195701761880696,-1.022,38.486,2.949,22977.615,True,1.25813199070892,2.948579039145503,2.76,-0.051,-0.242,-9.875,-0.144,38.486,47.07,True,0,1,0,0
-1.467,0.112,-1.323,compass,-41.079,-0.112,-65.691,-0.93,0.112,-0.83,4.578,2.241836451798034,-1.019,38.489,2.982,22977.715,True,1.2301518965482678,2.981624158910039,2.76,-0.051,-0.242,-9.836,-0.144,38.489,46.871,True,0,1,0,0
-1.469,0.0,-1.327,compass,-44.182,0.112,-66.284,-0.915,0.671,-0.75,4.717,2.3535958931336944,-1.012,38.496,2.982,22977.815,True,1.2016918889342547,2.981630492228109,2.76,-0.012,-0.277,-9.879,-0.103,38.496,46.871,True,0,1,0,0
-1.467,0.112,-1.332,compass,-41.077,-0.224,-67.147,-0.908,0.112,-0.75,4.717,2.4218102194582216,-1.012,38.496,2.922,22977.915,True,1.1364968242228057,2.9213759591437323,2.76,-0.012,-0.277,-9.879,-0.103,38.496,47.287,True,0,1,0,0
-1.458,0.112,-1.335,compass,-42.623,-0.0,-67.514,-0.904,0.448,-0.75,4.877,2.5381737920421763,-0.999,38.509,2.922,22978.015,True,1.1193371708162552,2.921387725035492,2.76,-0.012,-0.316,-9.875,-0.093,38.509,47.287,True,0,1,0,0
-1.442,-0.112,-1.339,compass,-41.478,-0.112,-69.1,-0.902,0.0,-0.75,4.877,2.57630492607048,-0.99,38.518,3.048,22978.115,True,1.0892599762066846,3.0477365655500868,2.76,-0.051,-0.316,-9.84,-0.093,38.518,47.172,True,0,1,0,0
-1.416,0.0,-1.341,compass,-42.036,-0.0,-69.863,-0.89,0.224,-0.75,5.016,2.6609807400079757,-0.94,38.568,3.048,22978.215,True,1.0528354998552965,3.0477819538604423,2.76,-0.051,-0.316,-9.84,-0.093,38.568,47.172,True,0,1,0,0
-1.382,0.0,-1.342,compass,-40.477,-0.112,-70.731,-0.88,-0.112,-0.77,5.016,2.706643202508963,-0.894,38.614,3.038,22978.315,True,1.007196022986213,3.0381024888056922,2.76,-0.051,-0.277,-9.875,-0.09,38.614,47.228,True,0,1,0,0
-1.345,0.0,-1.342,compass,-42.035,-0.224,-71.26,-0.879,0.224,-0.77,5.016,2.7691270078979797,-0.859,38.649,3.038,22978.415,True,0.9810551409181344,3.038130722570114,2.76,-0.051,-0.355,-9.879,-0.09,38.649,47.228,True,0,1,0,0
-1.318,0.0,-1.342,compass,-41.524,0.112,-71.671,-0.867,0.112,-0.73,5.016,2.8139303753109526,-0.828,38.68,3.002,22978.515,True,0.9488845718258535,3.001222668223559,2.76,-0.09,-0.355,-9.914,-0.061,38.68,47.461,True,0,1,0,0
-1.291,0.112,-1.34,compass,-42.137,0.224,-71.772,-0.855,0.56,-0.73,4.956,2.8795958270901525,-0.79,38.718,3.002,22978.615,True,0.9442181205019881,3.0012503884420827,2.73,-0.09,-0.395,-9.918,-0.061,38.718,47.461,True,0,1,0,0
-1.225,0.448,-1.337,compass,-39.311,-0.224,-71.552,-0.836,0.224,-0.71,4.956,2.9319862634414173,-0.652,38.856,2.968,22978.715,True,0.9487877695553303,2.9682959748010265,2.73,-0.09,-0.395,-9.918,-0.045,38.856,47.781,True,0,1,0,0
-1.194,0.224,-1.332,compass,-42.251,0.224,-71.69,-0.834,0.671,-0.71,4.797,2.9596547303904703,-0.568,38.94,2.968,22978.815,False,0.9431617726581164,2.9683421956764087,2.73,-0.051,-0.395,-9.914,-0.045,38.94,47.781,True,0,1,0,0
-1.17,0.224,-1.327,compass,-39.636,-0.0,-72.58,-0.829,0.112,-0.71,4.797,2.923828848492352,-0.486,39.022,3.089,22978.916,False,0.9366422519118934,3.088904760246586,2.73,-0.051,-0.395,-9.914,-0.045,39.022,48.45,True,0,1,0,0
-1.15,0.112,-1.322,compass,-41.736,0.112,-73.528,-0.837,0.448,-0.77,4.658,2.887166732091128,-0.414,39.094,3.089,22979.016,False,0.8881359853859474,3.088935471826376,2.73,-0.012,-0.395,-9.918,-0.061,39.094,48.45,True,0,1,0,0
-1.13,-0.112,-1.316,compass,-41.057,-0.0,-74.624,-0.846,0.112,-0.77,4.658,2.824975096541757,-0.332,39.176,3.035,22979.116,False,0.8173271444917692,3.034532975772143,2.73,-0.012,-0.355,-9.914,-0.061,39.176,48.62,True,0,1,0,0
-1.115,-0.224,-1.31,compass,-40.987,0.112,-75.807,-0.867,0.0,-0.75,4.638,2.7589818341352106,-0.267,39.241,3.035,22979.216,False,0.75663771875849,3.0345511739940982,2.73,-0.012,-0.355,-9.875,-0.045,39.241,48.62,True,0,1,0,0
-1.116,-0.336,-1.304,compass,-39.708,0.112,-77.119,-0.89,-0.336,-0.75,4.638,2.689133726192046,-0.236,39.272,3.005,22979.316,False,0.680979788664759,3.0053985378603523,2.73,-0.012,-0.395,-9.918,-0.045,39.272,47.709,True,0,1,0,0
-1.112,-0.336,-1.299,compass,-24.877,-0.0,-77.45,-0.921,-0.336,-0.75,4.518,2.5794705855280635,-0.199,39.309,3.005,22979.416,False,0.66313128596496,3.005405903755139,2.73,-0.051,-0.355,-9.918,-0.045,39.309,47.709,True,0,1,0,0
-1.121,-0.448,-1.293,compass,-25.224,-0.224,-76.803,-0.948,-0.336,-0.79,4.518,2.463590649600447,-0.177,39.331,2.957,22979.516,False,0.6836146781764532,2.956809881626051,2.71,-0.051,-0.355,-9.918,-0.054,39.331,47.455,True,0,1,0,0
-1.141,-0.336,-1.289,compass,-24.86,-0.112,-75.553,-1.023,-0.336,-0.79,4.459,2.350765301641228,-0.149,39.359,2.957,22979.616,False,0.7453776374094251,2.956813945771125,2.71,-0.051,-0.355,-9.918,-0.054,39.359,47.455,True,0,1,0,0
-1.155,-0.448,-1.285,compass,-24.45,-0.224,-74.741,-1.063,-0.448,-0.77,4.459,2.2200352759530366,-0.134,39.374,3.042,22979.716,False,0.807461462880401,3.0423516326277174,2.71,-0.051,-0.316,-9.918,-0.038,39.374,47.722,True,0,1,0,0
-1.176,-0.448,-1.282,compass,-28.258,0.224,-74.113,-1.1,0.112,-0.77,4.28,2.105237656084375,-0.128,39.38,3.042,22979.816,False,0.8383396196973414,3.0423523934565435,2.71,-0.09,-0.316,-9.914,-0.038,39.38,47.722,True,0,1,0,0
-1.201,-0.336,-1.279,compass,-26.355,-0.224,-72.285,-1.129,-0.112,-0.77,4.28,2.022577571990842,-0.122,39.386,2.889,22979.916,False,0.8833014442918014,2.8887774907258317,2.71,-0.09,-0.316,-9.914,-0.038,39.386,47.852,True,0,1,0,0
-1.214,-0.112,-1.277,compass,-27.132,0.112,-70.557,-1.146,0.112,-0.75,4.14,1.9580331447452546,-0.106,39.402,2.889,22980.016,False,0.9654713197522435,2.8887790389287757,2.71,-0.09,-0.355,-9.914,-0.028,39.402,47.852,True,0,1,0,0
-1.241,-0.112,-1.276,compass,-25.606,0.112,-69.527,-1.159,-0.112,-0.75,4.14,1.8827405637421584,-0.09,39.418,2.953,22980.116,False,1.0365314741031875,2.9529323212029666,2.71,-0.09,-0.355,-9.914,-0.028,39.418,47.976,True,0,1,0,0
-1.25,-0.112,-1.275,compass,-28.722,0.224,-69.018,-1.164,0.336,-0.75,3.981,1.8170632026897156,-0.077,39.431,2.953,22980.216,False,1.0606997205962079,2.9529333196995218,2.71,-0.09,-0.355,-9.875,-0.028,39.431,47.976,True,0,1,0,0
-1.264,0.224,-1.275,compass,-22.903,0.336,-68.404,-1.159,-0.336,-0.79,3.981,1.7550934425643847,-0.055,39.453,2.988,22980.316,False,1.103196244249656,2.9879266336940438,2.71,-0.051,-0.355,-9.918,-0.038,39.453,47.605,True,0,1,0,0
-1.277,0.224,-1.275,compass,-22.061,0.112,-67.76,-1.155,-0.448,-0.79,3.941,1.6853420222731845,-0.054,39.454,2.988,22980.416,False,1.1335881505930272,2.9879266482792257,2.68,-0.051,-0.355,-9.918,-0.038,39.454,47.605,True,0,1,0,0
-1.296,0.224,-1.276,compass,-23.674,0.224,-66.225,-1.125,-0.224,-0.79,3.941,1.649948932046617,-0.06,39.448,2.895,22980.516,False,1.1687600663772062,2.8946143974761656,2.68,-0.012,-0.355,-9.875,-0.038,39.448,47.196,True,0,1,0,0
-1.307,0.112,-1.277,compass,-22.223,0.112,-66.276,-1.114,-0.448,-0.75,3.762,1.5672558506472423,-0.044,39.464,2.895,22980.616,False,1.1665914243861055,2.8946151306795187,2.68,-0.012,-0.316,-9.875,-0.021,39.464,47.196,True,0,1,0,0
-1.309,0.0,-1.278,compass,-21.699,0.112,-66.988,-1.099,-0.56,-0.75,3.762,1.473621010353696,-0.038,39.47,2.953,22980.716,False,1.1562453881989838,2.9529353662470292,2.68,0.027,-0.316,-9.879,-0.021,39.47,47.57,True,0,1,0,0
-1.32,-0.224,-1.279,compass,-24.22,0.112,-68.254,-1.088,-0.336,-0.77,3.742,1.3881623413915236,-0.044,39.464,2.953,22980.816,False,1.0952404684287342,2.952935138461535,2.68,-0.012,-0.316,-9.836,-0.029,39.464,47.57,True,0,1,0,0
-1.323,-0.112,-1.28,compass,-24.701,-0.112,-67.813,-1.056,-0.224,-0.77,3.742,1.3401644928698504,-0.087,39.421,2.875,22980.916,False,1.0850998685144002,2.87517265286549,2.68,-0.012,-0.355,-9.836,-0.029,39.421,47.863,True,0,1,0,0
-1.334,-0.224,-1.282,compass,-27.748,-0.0,-68.549,-1.044,0.112,-0.77,3.623,1.2949792104157964,-0.125,39.383,2.875,22981.017,False,1.0496091863045347,2.8751691888265896,2.68,-0.012,-0.355,-9.836,-0.029,39.383,47.863,True,0,1,0,0
-1.351,0.0,-1.284,compass,-25.133,-0.224,-69.281,-1.03,-0.112,-0.77,3.623,1.260932480476124,-0.171,39.337,2.937,22981.117,False,1.035995480493643,2.9373709477742773,2.68,-0.051,-0.355,-9.84,-0.026,39.337,47.93,True,0,1,0,0
-1.351,-0.112,-1.286,compass,-28.175,-0.0,-70.257,-1.006,0.224,-0.77,3.583,1.2389260039866943,-0.23,39.278,2.937,22981.217,False,0.9874852086006863,2.9373602915874555,2.68,-0.09,-0.355,-9.836,-0.026,39.278,47.93,True,0,1,0,0
-1.352,0.0,-1.288,compass,-26.87,-0.0,-71.258,-0.99,0.112,-0.77,3.583,1.2309325756274858,-0.274,39.234,2.961,22981.317,False,0.9458324820887779,2.960678109063532,2.68,-0.09,-0.316,-9.836,-0.023,39.234,47.41,True,0,1,0,0
-1.349,0.112,-1.29,compass,-23.833,-0.0,-72.014,-0.961,-0.224,-0.77,3.583,1.2162046073762147,-0.296,39.212,2.961,22981.417,False,0.9091277459279365,2.960672533405892,2.64,-0.09,-0.316,-9.875,-0.023,39.212,47.41,True,0,1,0,0
-1.354,0.224,-1.292,compass,-25.177,0.224,-71.989,-0.952,0.0,-0.71,3.583,1.2164238546084905,-0.28,39.228,2.988,22981.517,False,0.9204734539133926,2.987892292687185,2.64,-0.09,-0.277,-9.879,0.009,39.228,47.486,True,0,1,0,0
-1.365,0.448,-1.294,compass,-22.709,0.336,-71.237,-0.941,-0.224,-0.71,3.583,1.2201151265208086,-0.28,39.228,2.988,22981.617,False,0.958467806519388,2.9878923783115994,2.64,-0.09,-0.316,-9.875,0.009,39.228,47.486,True,0,1,0,0
-1.375,0.336,-1.296,compass,-23.933,0.336,-69.622,-0.93,-0.112,-0.66,3.563,1.2438741117166892,-0.273,39.235,2.823,22981.717,False,0.9812198806130193,2.822655992832048,2.64,-0.051,-0.277,-9.875,0.032,39.235,46.549,True,0,1,0,0
-1.389,0.336,-1.299,compass,-21.293,0.224,-68.581,-0.925,-0.448,-0.66,3.563,1.240670742765117,-0.264,39.244,2.823,22981.817,False,1.029852081372446,2.8226581141401543,2.64,-0.051,-0.316,-9.918,0.032,39.244,46.549,True,0,1,0,0
-1.39,0.336,-1.302,compass,-23.057,0.112,-69.351,-0.91,-0.224,-0.66,3.563,1.2111136431183112,-0.263,39.245,3.058,22981.917,False,1.077533585569631,3.0578796898756746,2.64,-0.012,-0.277,-9.918,0.032,39.245,47.273,True,0,1,0,0
-1.39,0.224,-1.307,compass,-24.38,0.112,-67.364,-0.888,-0.112,-0.77,3.722,1.2069476979086513,-0.263,39.245,2.902,22982.117,False,1.116627408947424,2.9023614121120658,2.64,-0.012,-0.277,-9.918,-0.008,39.245,47.635,True,0,1,0,0
