imu.roll,imu.pitchrate,imu.heel,ap.mode,ap.wind_angle,imu.headingrate,ap.true_wind_angle,imu.pitch,imu.rollrate,rudder.angle,wind.speed,ap.true_wind_speed,ap.heading_error,ap.heading,gps.speed,timestamp,ap.enabled,ap.vmg,ap.cmg,sow.speed,imu.accel_X,imu.accel_Y,imu.accel_Z,rudder.speed,imu.heading,gps.track,perf.quality_flag,perf.boat_config.Main,perf.boat_config.jib,perf.boat_config.spi,perf.boat_config.weight
-0.714,-0.895,-0.431,compass,138.821,1.343,166.375,-1.437,-0.783,-1.01,0.0,4.083807186575784,-60.0,315.891,3.816,23136.722,False,-3.7475856806432586,0.42426592174520045,3.79,-0.051,-0.625,-10.145,-0.108,315.891,320.449,True,0,1,0,0
-0.799,-0.671,-0.442,compass,110.56,1.007,165.929,-1.475,-1.79,-1.01,0.0,4.168056895341425,-60.0,316.036,3.816,23136.822,False,-3.735292991997794,0.43386411422181625,3.79,-0.051,-0.547,-10.066,-0.098,316.036,320.449,True,0,1,0,0
-0.851,-0.448,-0.454,compass,104.935,1.007,165.795,-1.483,-1.679,-1.01,0.0,4.211346211416674,-60.0,316.203,3.824,23136.922,False,-3.735917267533037,0.4458254054519321,3.79,-0.051,-0.547,-10.066,-0.098,316.203,320.035,True,0,1,0,0
-0.952,-0.336,-0.469,compass,101.312,0.895,165.657,-1.481,-1.679,-1.01,0.0,4.234007175469513,-60.0,316.356,3.824,23137.022,False,-3.729619060332392,0.45594287162970026,3.79,-0.09,-0.508,-9.996,-0.098,316.356,320.035,True,0,1,0,0
-1.061,-0.112,-0.487,compass,93.18,0.56,165.266,-1.459,-2.014,-0.79,0.0,4.250041747724302,-60.0,316.487,3.799,23137.122,False,-3.695371931124619,0.46155756500415757,3.79,-0.051,-0.395,-9.875,-0.015,316.487,318.834,True,0,1,0,0
-1.164,0.336,-0.507,compass,77.904,0.224,165.398,-1.412,-1.567,-0.79,0.0,4.215654673021142,-60.0,316.612,3.799,23137.222,False,-3.694341707982471,0.4697750658267736,3.8,-0.09,-0.316,-9.836,-0.015,316.612,318.834,True,0,1,0,0
-1.288,0.336,-0.53,compass,81.469,0.224,164.398,-1.349,-2.238,-0.4,0.0,4.217018641426005,-60.0,316.7,3.839,23137.322,False,-3.714791640861349,0.4806581338946727,3.8,-0.051,-0.203,-9.684,0.183,316.7,319.171,True,0,1,0,0
-1.414,0.448,-0.557,compass,70.018,0.448,165.022,-1.28,-1.231,-0.4,0.0,4.157874403699042,-60.0,316.763,3.839,23137.422,False,-3.7224737435407933,0.4848524694444067,3.8,-0.09,-0.203,-9.68,0.183,316.763,319.171,True,0,1,0,0
-1.554,0.895,-0.587,compass,51.344,0.56,165.684,-1.193,-1.119,-0.4,0.0,4.11357286948584,-60.0,316.791,3.974,23137.522,False,-3.8610017891189585,0.5037407573794984,3.8,-0.051,-0.012,-9.613,0.183,316.791,317.498,True,0,1,0,0
-1.679,0.783,-0.62,compass,35.544,0.56,167.039,-1.107,-0.56,-0.09,0.0,4.055950529047766,-60.0,316.794,3.974,23137.622,False,-3.8800504619761784,0.5039605471100669,3.8,-0.012,-0.012,-9.574,0.268,316.794,317.498,True,0,1,0,0
-1.9,0.895,-0.658,compass,26.575,0.448,167.87,-0.945,-0.448,-0.09,0.0,3.977872146135737,-60.0,316.711,3.909,23137.722,False,-3.8267879110581418,0.4902046497663257,3.8,-0.012,0.027,-9.57,0.268,316.711,318.329,True,0,1,0,0
-1.951,0.56,-0.697,compass,-45.013,0.56,169.195,-0.874,0.56,-0.09,0.0,3.8930178285705965,-60.0,316.653,3.909,23137.822,False,-3.842770894278203,0.4862606355830169,3.8,-0.012,0.066,-9.574,0.268,316.653,318.329,True,0,1,0,0
-1.985,0.671,-0.735,compass,-18.444,0.336,170.615,-0.804,0.224,-0.23,0.0,3.8487539112229467,-60.0,316.57,4.028,23137.922,False,-3.975202453276123,0.49520574892573815,3.8,-0.012,0.027,-9.613,0.194,316.57,318.156,True,0,1,0,0
-2.142,0.448,-0.778,compass,-72.907,0.224,172.007,-0.732,1.455,-0.23,0.0,3.7075359524908227,-60.0,316.597,4.028,23138.022,False,-3.989806710331065,0.49711766026716825,3.8,-0.012,-0.012,-9.684,0.194,316.597,318.156,True,0,1,0,0
-2.119,0.56,-0.818,compass,-67.393,0.336,173.256,-0.676,1.343,-0.27,0.0,3.603045149922206,-60.0,316.485,4.014,23138.122,False,-3.9865056405453485,0.4875961832319574,3.81,-0.012,-0.047,-9.758,0.155,316.485,320.596,True,0,1,0,0
-2.084,0.336,-0.856,compass,-79.998,0.448,96.277,-0.63,1.902,-0.27,0.0,3.4857120679059954,-60.0,316.334,4.014,23138.222,False,-4.000951617529689,0.47711767647298503,3.81,0.027,-0.086,-9.836,0.155,316.334,320.596,True,0,1,0,0
-1.962,0.448,-0.889,compass,-79.701,0.224,37.693,-0.596,2.462,-0.38,0.0,3.3447378452821743,-60.0,316.233,3.886,23138.322,False,-3.8846093241620423,0.455061219205594,3.81,-0.012,-0.316,-9.953,0.084,316.233,321.458,True,0,1,0,0
-1.84,0.448,-0.918,compass,-78.695,-0.0,-7.926,-0.56,2.238,-0.38,0.0,3.285417592472025,-60.0,316.112,3.886,23138.422,False,-3.8855352664509732,0.446946153026824,3.81,-0.012,-0.355,-9.992,0.084,316.112,321.458,True,0,1,0,0
-1.481,0.224,-0.934,compass,-83.292,-0.56,-44.37,-0.534,1.902,-0.38,0.0,3.3276676530049754,-60.0,315.955,4.079,23138.522,False,-4.0760163620375955,0.45798655956229434,3.81,0.027,-0.434,-9.992,0.084,315.955,322.554,True,0,1,0,0
-1.27,0.224,-0.945,compass,-83.992,-0.56,-72.24,-0.531,2.126,-0.42,0.0,3.3740789487106877,-60.0,315.9,4.079,23138.622,False,-4.0710094028152675,0.45406130062170086,3.81,0.027,-0.508,-10.027,0.063,315.9,322.554,True,0,1,0,0
-1.066,0.112,-0.948,compass,-85.602,-0.783,-94.982,-0.53,1.455,-0.42,0.0,3.447279188568226,-60.0,315.851,4.034,23138.722,False,-4.025717072947622,0.4456567070406642,3.81,-0.012,-0.586,-10.023,0.063,315.851,322.218,True,0,1,0,0
-0.844,0.112,-0.945,compass,-84.806,-0.671,-113.082,-0.536,1.231,-0.42,0.0,3.522831081027671,-60.0,315.748,4.034,23138.822,False,-4.026928106639518,0.4384789057326106,3.81,-0.012,-0.66,-9.996,0.063,315.748,322.218,True,0,1,0,0
-0.647,0.0,-0.936,compass,-90.0,-0.671,-127.691,-0.538,1.007,-0.4,0.0,3.6055124272510097,-60.0,315.684,4.071,23138.922,False,-4.066332089032451,0.43793399705533403,3.81,-0.012,-0.625,-9.957,0.063,315.684,322.67,True,0,1,0,0
-0.418,0.224,-0.921,compass,-79.695,-1.007,-138.623,-0.547,1.231,-0.4,0.0,3.666241374554229,-60.0,315.851,4.071,23139.022,False,-4.065943773885213,0.44975838587238565,3.81,-0.012,-0.625,-9.879,0.063,315.851,322.67,True,0,1,0,0
-0.252,0.224,-0.901,compass,-79.695,-1.231,-147.003,-0.545,1.231,-0.4,0.0,3.7363637551631195,-60.0,315.765,4.156,23139.123,False,-4.1512377317926665,0.4529904617265597,3.81,-0.051,-0.586,-9.758,0.063,315.765,321.76,True,0,1,0,0
-0.077,0.336,-0.876,compass,-63.434,-1.231,-75.278,-0.543,0.671,-0.19,0.0,3.7985417123820695,-60.0,315.55,4.156,23139.223,False,-4.154105276755002,0.4374856891632381,3.81,-0.051,-0.547,-9.723,0.127,315.55,321.76,True,0,1,0,0
0.079,0.336,-0.847,compass,-74.744,-1.119,-97.593,-0.553,1.231,-0.19,0.0,3.8103442825447615,-60.0,315.455,4.061,23139.323,False,-4.058336784459177,0.4207222327268614,3.81,-0.051,-0.547,-9.68,0.127,315.455,321.791,True,0,1,0,0
0.246,0.224,-0.814,compass,-74.054,-0.783,-36.587,-0.557,0.783,-0.3,0.0,3.833590851134481,-60.0,315.619,4.061,23139.423,False,-4.059196541051117,0.4323059130784881,3.81,-0.051,-0.508,-9.684,0.06,315.619,321.791,True,0,1,0,0
0.292,0.224,-0.781,compass,-44.999,-0.671,10.255,-0.561,0.224,-0.3,0.0,3.8745785616563952,-60.0,315.625,4.098,23139.523,False,-4.097758375895141,0.43665367394208565,3.81,-0.051,-0.547,-9.762,0.06,315.625,321.359,True,0,1,0,0
0.345,0.112,-0.747,compass,-78.69,-0.671,47.203,-0.577,0.56,-0.21,0.0,3.896367142331359,-60.0,315.608,4.098,23139.623,False,-4.0979508492892585,0.43546802459043465,3.81,-0.051,-0.547,-9.762,0.101,315.608,321.359,True,0,1,0,0
0.38,0.112,-0.714,compass,-81.87,-0.56,-2.685,-0.607,0.783,-0.21,0.0,3.9167336766444953,-60.0,315.582,4.135,23139.723,False,-4.134883231379412,0.4375230631625983,3.81,-0.09,-0.586,-9.84,0.101,315.582,320.948,True,0,1,0,0
0.418,0.0,-0.68,compass,-90.0,-0.448,36.654,-0.644,0.224,-0.25,0.0,3.956404486048813,-60.0,315.552,4.135,23139.823,False,-4.1344961912540175,0.43536012976622024,3.81,-0.051,-0.586,-9.953,0.071,315.552,320.948,True,0,1,0,0
0.451,-0.224,-0.646,compass,-101.31,-0.0,-10.419,-0.705,1.119,-0.25,0.0,3.9508935294970597,-60.0,315.509,4.038,23139.923,False,-4.037684119636113,0.4221371476290491,3.81,-0.012,-0.586,-9.996,0.071,315.509,321.706,True,0,1,0,0
0.477,-0.448,-0.612,compass,-165.965,-0.224,30.859,-0.768,0.112,-0.3,0.0,3.9756975214506727,-60.0,315.476,4.038,23140.023,False,-4.037400901298288,0.41978435909427986,3.87,-0.051,-0.699,-10.105,0.039,315.476,321.706,True,0,1,0,0
0.505,-0.783,-0.579,compass,-144.464,0.336,-15.379,-0.854,0.56,-0.3,0.0,4.015230730189844,-60.0,315.444,4.001,23140.123,False,-4.000640274021666,0.4137441459581555,3.87,-0.012,-0.699,-10.145,0.039,315.444,321.874,True,0,1,0,0
0.511,-0.895,-0.546,compass,-172.876,0.448,27.458,-0.942,0.112,-0.3,0.0,4.06662005496446,-60.0,315.425,4.001,23140.223,False,-4.0006142713038635,0.4124582753027289,3.87,-0.051,-0.777,-10.219,0.039,315.425,321.874,True,0,1,0,0
0.513,-0.895,-0.514,compass,153.438,0.224,-18.038,-1.039,-0.448,-0.4,0.0,3.984949566013048,-60.0,315.416,3.968,23140.323,False,-3.9676649420197623,0.40838721106545084,3.87,-0.051,-0.777,-10.219,0.002,315.416,321.89,True,0,1,0,0
0.47,-1.007,-0.485,compass,131.993,0.224,24.843,-1.208,-1.119,-0.4,0.0,3.807711189503099,-60.0,315.395,3.968,23140.423,False,-3.9672337408619986,0.40698810642748634,3.87,-0.051,-0.777,-10.258,0.002,315.395,321.89,True,0,1,0,0
0.412,-0.895,-0.458,compass,131.64,-0.112,56.633,-1.269,-1.007,-0.48,0.0,3.7015149455533276,-60.0,315.379,4.005,23140.523,False,-3.9990417855477123,0.4096259763014135,3.87,-0.051,-0.777,-10.219,-0.039,315.379,321.727,True,0,1,0,0
0.314,-0.671,-0.435,compass,108.439,-0.448,79.397,-1.323,-2.014,-0.48,0.0,3.595184486641895,-60.0,315.357,4.005,23140.623,False,-3.976922171735387,0.4080925169285321,3.87,-0.09,-0.777,-10.18,-0.039,315.357,321.727,True,0,1,0,0
0.227,-0.448,-0.415,compass,103.244,-0.336,97.243,-1.351,-1.902,-0.48,0.0,3.584323440253395,-60.0,315.338,4.051,23140.724,False,-3.9951121022656193,0.4115318351071346,3.87,-0.09,-0.699,-10.027,-0.039,315.338,320.651,True,0,1,0,0
0.084,-0.336,-0.4,compass,98.132,-0.336,110.214,-1.371,-2.35,-0.38,0.0,3.6110992358277136,-60.0,315.318,4.051,23140.824,False,-3.9522535305428055,0.4101187910732591,3.87,-0.09,-0.66,-9.996,-0.002,315.318,320.651,True,0,1,0,0
-0.047,0.112,-0.389,compass,87.273,-0.783,120.388,-1.363,-2.35,-0.38,0.0,3.660097104041413,-60.0,315.277,4.049,23140.924,False,-3.9093956304657858,0.40699989291820443,3.92,-0.09,-0.625,-9.84,-0.002,315.277,320.412,True,0,1,0,0
-0.205,0.112,-0.384,compass,87.273,-0.783,128.326,-1.344,-2.35,-0.32,0.0,3.721367309829446,-60.0,315.229,4.049,23141.024,False,-3.8725556086821036,0.40367725438604246,3.92,-0.09,-0.586,-9.762,0.029,315.229,320.412,True,0,1,0,0
-0.363,0.224,-0.383,compass,84.558,-0.671,135.152,-1.31,-2.35,-0.32,0.0,3.777356638376402,-60.0,315.189,4.082,23141.124,False,-3.8864278092736257,0.4041022027178121,3.92,-0.09,-0.434,-9.613,0.029,315.189,317.583,True,0,1,0,0
-0.52,0.224,-0.387,compass,81.868,-0.671,141.807,-1.275,-1.567,-0.42,0.0,3.824808555297391,-60.0,315.148,4.082,23141.224,False,-3.901010878689809,0.4012256932633507,3.92,-0.09,-0.395,-9.535,-0.024,315.148,317.583,True,0,1,0,0
-0.823,0.224,-0.4,compass,82.404,-0.224,146.746,-1.217,-1.679,-0.42,0.0,3.850769335404783,-60.0,315.076,4.005,23141.324,False,-3.8318839991487526,0.38852670953194274,3.92,-0.09,-0.203,-9.457,-0.024,315.076,317.555,True,0,1,0,0
-0.969,0.224,-0.417,compass,81.869,0.56,150.788,-1.194,-1.567,-0.4,0.0,3.8740187398636534,-60.0,315.056,4.005,23141.424,False,-3.840494886735091,0.38719344284537016,3.92,-0.09,-0.164,-9.418,-0.012,315.056,317.555,True,0,1,0,0
-1.1,0.112,-0.438,compass,78.69,0.671,155.681,-1.188,-0.56,-0.4,0.0,3.9047222149717986,-60.0,315.059,4.051,23141.524,False,-3.924531935448706,0.39186584045380884,3.92,-0.09,-0.086,-9.418,-0.012,315.059,317.651,True,0,1,0,0
-1.22,0.0,-0.461,compass,90.0,0.783,159.705,-1.192,-0.448,-0.52,0.0,3.932420179101058,-60.0,315.063,4.051,23141.624,False,-3.954787253034693,0.3921883890584772,3.92,-0.09,-0.047,-9.492,-0.069,315.063,317.651,True,0,1,0,0
-1.283,-0.224,-0.486,compass,-153.434,1.119,163.191,-1.203,0.112,-0.52,0.0,3.9267269508632703,-60.0,315.093,4.02,23141.724,False,-3.9499086740879497,0.39122996920511943,3.92,-0.09,-0.047,-9.609,-0.069,315.093,318.459,True,0,1,0,0
-1.318,-0.224,-0.511,compass,-108.434,1.455,166.103,-1.211,0.671,-0.52,0.0,3.8628537466985753,-60.0,315.14,4.02,23141.824,False,-3.969400290916785,0.3945306376531602,3.92,-0.09,-0.086,-9.797,-0.069,315.14,318.459,True,0,1,0,0
-1.317,-0.224,-0.535,compass,-116.564,1.455,168.33,-1.233,0.448,-0.66,0.0,3.830452657719939,-60.0,315.146,3.968,23141.924,False,-3.929702824391826,0.3897985470168345,3.92,-0.09,-0.203,-9.996,-0.109,315.146,320.423,True,0,1,0,0
-1.346,-0.112,-0.559,compass,-95.194,1.679,91.987,-1.25,1.231,-0.66,0.0,3.746381832242713,-60.0,314.996,3.968,23142.024,False,-3.945574956322641,0.37942840972628117,3.92,-0.09,-0.242,-10.105,-0.109,314.996,320.423,True,0,1,0,0
-1.386,0.112,-0.584,compass,-85.602,1.343,32.751,-1.254,1.455,-0.73,0.0,3.6890397998938,-60.0,314.642,4.005,23142.125,False,-3.9927021725146314,0.3583257103787428,3.92,-0.012,-0.395,-10.223,-0.132,314.642,321.221,True,0,1,0,0
-1.343,0.224,-0.607,compass,-78.691,0.895,-13.827,-1.228,1.119,-0.73,0.0,3.6789758670981154,-60.0,314.601,4.005,23142.225,False,-3.998087742581754,0.3554938074000529,3.92,-0.012,-0.469,-10.297,-0.132,314.601,321.221,True,0,1,0,0
-1.275,0.224,-0.627,compass,-75.964,0.783,28.603,-1.193,0.895,-0.73,0.0,3.695393023066827,-60.0,314.616,4.024,23142.325,False,-4.019487165375958,0.3582723736386695,3.92,-0.012,-0.547,-10.336,-0.132,314.616,321.711,True,0,1,0,0
-1.212,0.224,-0.644,compass,-56.311,0.56,60.909,-1.144,0.336,-0.71,0.0,3.7396789533168837,-60.0,314.647,4.024,23142.425,False,-4.0182003872882035,0.3604412341583825,3.92,0.027,-0.586,-10.301,-0.112,314.647,321.711,True,0,1,0,0
-1.08,0.224,-0.672,compass,63.435,0.112,105.288,-1.045,-0.448,-0.71,0.0,3.813480449364887,-60.0,314.76,4.152,23142.625,False,-4.1420361351526545,0.3800658447954689,3.92,-0.012,-0.586,-10.105,-0.112,314.76,322.209,True,0,1,0,0
-1.08,0.224,-0.672,compass,63.435,0.112,105.288,-1.045,-0.448,-0.71,0.0,3.813480449364887,-60.0,314.76,4.152,23142.625,False,-4.1420361351526545,0.3800658447954689,3.92,-0.012,-0.586,-10.105,-0.112,314.76,322.209,True,0,1,0,0
-0.986,0.224,-0.691,compass,68.199,-0.448,131.543,-0.949,-0.56,-0.36,0.0,3.755235121610564,-60.0,314.933,4.042,23142.825,False,-4.024077696992842,0.3820839779018963,3.93,-0.012,-0.469,-9.84,0.02,314.933,321.572,True,0,1,0,0
-0.986,0.224,-0.691,compass,68.199,-0.448,131.543,-0.949,-0.56,-0.36,0.0,3.755235121610564,-60.0,314.933,4.042,23142.825,False,-4.024077696992842,0.3820839779018963,3.93,-0.012,-0.469,-9.84,0.02,314.933,321.572,True,0,1,0,0
-0.966,-0.112,-0.708,compass,96.34,-0.56,146.102,-0.888,-1.007,-0.03,0.0,3.689744003690794,-60.0,314.971,4.045,23143.025,False,-4.009702347595949,0.38516128887315887,3.93,0.027,-0.203,-9.574,0.128,314.971,319.824,True,0,1,0,0
-0.966,-0.112,-0.708,compass,96.34,-0.56,146.102,-0.888,-1.007,-0.03,0.0,3.689744003690794,-60.0,314.971,4.045,23143.025,False,-4.009702347595949,0.38516128887315887,3.93,0.027,-0.203,-9.574,0.128,314.971,319.824,True,0,1,0,0
-1.055,-0.112,-0.726,compass,116.564,0.112,157.507,-0.859,-0.224,-0.15,0.0,3.8868561857262107,-60.0,315.102,4.255,23143.225,False,-4.2286941143609775,0.4147893355027359,3.93,-0.012,-0.125,-9.379,0.055,315.102,317.87,True,0,1,0,0
-1.055,-0.112,-0.726,compass,116.564,0.112,157.507,-0.859,-0.224,-0.15,0.0,3.8868561857262107,-60.0,315.102,4.255,23143.225,False,-4.2286941143609775,0.4147893355027359,3.93,-0.012,-0.125,-9.379,0.055,315.102,317.87,True,0,1,0,0
-1.123,-0.112,-0.749,compass,-96.34,-0.224,164.643,-0.856,1.007,-0.15,0.0,3.848003603677901,-60.0,315.021,4.15,23143.425,False,-4.130375422143203,0.39873134084359096,3.93,-0.051,-0.086,-9.492,0.055,315.021,319.019,True,0,1,0,0
-1.123,-0.112,-0.749,compass,-96.34,-0.224,164.643,-0.856,1.007,-0.15,0.0,3.848003603677901,-60.0,315.021,4.15,23143.425,False,-4.130375422143203,0.39873134084359096,3.93,-0.051,-0.086,-9.492,0.055,315.021,319.019,True,0,1,0,0
-1.164,0.112,-0.773,compass,-86.186,-0.224,91.937,-0.847,1.679,-0.09,0.0,3.838933979737469,-60.0,314.871,4.322,23143.626,False,-4.315232350286839,0.4039058397379597,3.93,-0.051,-0.203,-9.758,0.069,314.871,319.093,True,0,1,0,0
-1.164,0.112,-0.773,compass,-86.186,-0.224,91.937,-0.847,1.679,-0.09,0.0,3.838933979737469,-60.0,314.871,4.322,23143.626,False,-4.315232350286839,0.4039058397379597,3.93,-0.051,-0.203,-9.758,0.069,314.871,319.093,True,0,1,0,0
-1.13,0.448,-0.795,compass,-70.019,-0.448,47.217,-0.815,1.231,-0.09,0.0,3.834113832916261,-60.0,314.696,4.244,23143.826,False,-4.241093107806077,0.38370921179555223,3.96,-0.051,-0.469,-10.145,0.062,314.696,321.303,True,0,1,0,0
-1.13,0.448,-0.795,compass,-70.019,-0.448,47.217,-0.815,1.231,-0.09,0.0,3.834113832916261,-60.0,314.696,4.244,23143.826,False,-4.241093107806077,0.38370921179555223,3.96,-0.051,-0.469,-10.145,0.062,314.696,321.303,True,0,1,0,0
-0.855,0.56,-0.804,compass,-68.963,-0.895,-39.623,-0.69,1.455,-0.09,0.0,3.8208231212239907,-60.0,314.535,4.275,23144.026,False,-4.274484833649139,0.3745626261547618,3.96,-0.012,-0.625,-10.262,0.062,314.535,320.028,True,0,1,0,0
-0.855,0.56,-0.804,compass,-68.963,-0.895,-39.623,-0.69,1.455,-0.09,0.0,3.8208231212239907,-60.0,314.535,4.275,23144.026,False,-4.274484833649139,0.3745626261547618,3.96,-0.012,-0.625,-10.262,0.062,314.535,320.028,True,0,1,0,0
-0.602,0.56,-0.796,compass,-50.194,-0.783,45.719,-0.605,0.671,-0.15,0.0,3.89130844616729,-60.0,314.493,4.308,23144.226,False,-4.307878784534209,0.374345064417153,3.96,-0.012,-0.699,-10.219,0.036,314.493,321.858,True,0,1,0,0
-0.602,0.56,-0.796,compass,-50.194,-0.783,45.719,-0.605,0.671,-0.15,0.0,3.89130844616729,-60.0,314.493,4.308,23144.226,False,-4.307878784534209,0.374345064417153,3.96,-0.012,-0.699,-10.219,0.036,314.493,321.858,True,0,1,0,0
-0.363,0.448,-0.773,compass,14.036,-1.119,96.3,-0.54,-0.112,-0.13,0.0,3.9240272920742334,-60.0,314.376,4.193,23144.426,False,-4.19013993061986,0.35585814043020125,3.96,0.027,-0.625,-10.027,0.039,314.376,321.168,True,0,1,0,0
-0.363,0.448,-0.773,compass,14.036,-1.119,96.3,-0.54,-0.112,-0.13,0.0,3.9240272920742334,-60.0,314.376,4.193,23144.426,False,-4.19013993061986,0.35585814043020125,3.96,0.027,-0.625,-10.027,0.039,314.376,321.168,True,0,1,0,0
-0.18,0.224,-0.741,compass,-26.564,-1.679,126.42,-0.521,0.112,-0.07,0.0,4.0146127992216565,-60.0,314.288,4.316,23144.626,False,-4.305033514949376,0.3595923644698999,3.96,-0.012,-0.547,-9.684,0.065,314.288,321.114,True,0,1,0,0
-0.18,0.224,-0.741,compass,-26.564,-1.679,126.42,-0.521,0.112,-0.07,0.0,4.0146127992216565,-60.0,314.288,4.316,23144.626,False,-4.305033514949376,0.3595923644698999,3.96,-0.012,-0.547,-9.684,0.065,314.288,321.114,True,0,1,0,0
-0.063,-0.224,-0.703,compass,153.436,-1.567,144.637,-0.564,-0.112,-0.19,0.0,4.004363200809515,-60.0,314.292,4.166,23144.826,False,-4.1488050018915485,0.3474133819305707,4.03,-0.051,-0.434,-9.414,-0.001,314.292,319.982,True,0,1,0,0
-0.063,-0.224,-0.703,compass,153.436,-1.567,144.637,-0.564,-0.112,-0.19,0.0,4.004363200809515,-60.0,314.292,4.166,23144.826,False,-4.1488050018915485,0.3474133819305707,4.03,-0.051,-0.434,-9.414,-0.001,314.292,319.982,True,0,1,0,0
-0.003,-0.671,-0.662,compass,-126.872,-0.336,157.219,-0.736,0.895,-0.11,0.0,3.8917324055006333,-60.0,314.029,4.203,23145.026,False,-4.189359449523643,0.33128639144096667,4.03,-0.09,-0.395,-9.457,0.039,314.029,318.686,True,0,1,0,0
-0.003,-0.671,-0.662,compass,-126.872,-0.336,157.219,-0.736,0.895,-0.11,0.0,3.8917324055006333,-60.0,314.029,4.203,23145.026,False,-4.189359449523643,0.33128639144096667,4.03,-0.09,-0.395,-9.457,0.039,314.029,318.686,True,0,1,0,0
0.068,-0.671,-0.62,compass,-111.804,-0.0,27.274,-0.898,1.679,-0.11,0.0,3.872976492806043,-60.0,313.854,4.329,23145.226,False,-4.328794354470409,0.32809729251649034,4.03,-0.09,-0.469,-9.762,0.039,313.854,318.275,True,0,1,0,0
0.068,-0.671,-0.62,compass,-111.804,-0.0,27.274,-0.898,1.679,-0.11,0.0,3.872976492806043,-60.0,313.854,4.329,23145.226,False,-4.328794354470409,0.32809729251649034,4.03,-0.09,-0.469,-9.762,0.039,313.854,318.275,True,0,1,0,0
0.161,-0.56,-0.575,compass,-109.657,0.336,9.038,-1.076,1.567,-0.21,0.0,3.9672899032895703,-60.0,313.745,4.271,23145.426,False,-4.270776473601366,0.31554644882516725,4.03,-0.09,-0.625,-10.141,0.002,313.745,320.649,True,0,1,0,0
0.161,-0.56,-0.575,compass,-109.657,0.336,9.038,-1.076,1.567,-0.21,0.0,3.9672899032895703,-60.0,313.745,4.271,23145.426,False,-4.270776473601366,0.31554644882516725,4.03,-0.09,-0.625,-10.141,0.002,313.745,320.649,True,0,1,0,0
0.254,-0.336,-0.527,compass,-126.876,0.336,74.834,-1.203,0.448,-0.34,0.0,4.054588142103489,-60.0,313.686,4.18,23145.627,False,-4.179156390970401,0.30453854187972457,4.1,-0.09,-0.777,-10.379,-0.063,313.686,321.479,True,0,1,0,0
0.254,-0.336,-0.527,compass,-126.876,0.336,74.834,-1.203,0.448,-0.34,0.0,4.054588142103489,-60.0,313.686,4.18,23145.627,False,-4.179156390970401,0.30453854187972457,4.1,-0.09,-0.777,-10.379,-0.063,313.686,321.479,True,0,1,0,0
0.361,0.224,-0.476,compass,63.43,-0.224,114.114,-1.244,-0.448,-0.27,0.0,4.0340693412156545,-60.0,313.796,4.108,23145.827,False,-4.104330685113574,0.3071593451544941,4.1,-0.09,-0.852,-10.418,-0.034,313.796,321.595,True,0,1,0,0
0.361,0.224,-0.476,compass,63.43,-0.224,114.114,-1.244,-0.448,-0.27,0.0,4.0340693412156545,-60.0,313.796,4.108,23145.827,False,-4.104330685113574,0.3071593451544941,4.1,-0.09,-0.852,-10.418,-0.034,313.796,321.595,True,0,1,0,0
0.328,0.448,-0.428,compass,74.052,-0.56,137.646,-1.172,-1.567,-0.27,0.0,3.775575190810366,-60.0,313.981,4.15,23146.027,False,-4.142546135666736,0.32369775890902697,4.1,-0.09,-0.852,-10.262,-0.034,313.981,321.214,True,0,1,0,0
0.248,0.336,-0.408,compass,81.468,-0.56,144.108,-1.132,-2.238,-0.19,0.0,3.622902084727971,-60.0,314.055,4.217,23146.127,False,-4.196765828948414,0.3342925605779194,4.1,-0.051,-0.699,-10.066,-0.004,314.055,319.553,True,0,1,0,0
0.141,0.336,-0.391,compass,81.868,-0.336,147.971,-1.095,-2.35,-0.19,0.0,3.536397987034162,-60.0,314.118,4.217,23146.227,False,-4.172255592205819,0.3388783135651697,4.1,-0.051,-0.586,-9.836,-0.004,314.118,319.553,True,0,1,0,0
0.141,0.336,-0.391,compass,81.868,-0.336,147.971,-1.095,-2.35,-0.19,0.0,3.536397987034162,-60.0,314.118,4.217,23146.227,False,-4.172255592205819,0.3388783135651697,4.1,-0.051,-0.586,-9.836,-0.004,314.118,319.553,True,0,1,0,0
-0.119,-0.112,-0.371,compass,93.815,-0.224,152.77,-1.078,-1.679,-0.15,0.0,3.491792942628016,-60.0,314.203,3.993,23146.427,False,-3.8946891739627465,0.32683909695908403,4.1,-0.012,-0.355,-9.414,0.017,314.203,318.842,True,0,1,0,0
-0.265,-0.56,-0.368,compass,102.806,-0.224,154.256,-1.11,-2.462,-0.13,0.0,3.6193090134897394,-60.0,314.223,4.413,23146.527,False,-4.2737842400139305,0.3627300108055456,4.14,-0.012,-0.316,-9.375,0.025,314.223,316.679,True,0,1,0,0
-0.429,-1.455,-0.37,compass,132.884,0.336,156.054,-1.172,-1.567,-0.13,0.0,3.791041962568367,-60.0,314.246,4.413,23146.627,False,-4.260575546355622,0.3645081890764099,4.14,-0.012,-0.125,-9.297,0.025,314.246,316.679,True,0,1,0,0
-0.747,-1.679,-0.381,compass,158.203,1.231,157.948,-1.376,-0.671,-0.13,0.0,3.9438023523660197,-60.0,314.35,4.217,23146.727,False,-4.071556610920479,0.3558949882362311,4.14,-0.051,-0.164,-9.453,0.025,314.35,317.223,True,0,1,0,0
-0.887,-1.679,-0.396,compass,172.407,1.567,159.957,-1.497,-0.224,-0.4,0.0,4.1089727745754745,-60.0,314.434,4.217,23146.827,False,-4.0816978948643765,0.36209950595180274,4.14,-0.09,-0.164,-9.57,-0.067,314.434,317.223,True,0,1,0,0
-1.038,-1.231,-0.416,compass,164.748,1.231,162.014,-1.592,-0.336,-0.4,0.0,4.198218069857793,-60.0,314.517,4.051,23146.927,False,-3.937376872807669,0.3537500000765129,4.14,-0.129,-0.277,-9.879,-0.067,314.517,318.302,True,0,1,0,0
-1.168,-1.007,-0.438,compass,-161.569,1.119,163.434,-1.664,0.336,-0.4,0.0,4.1210623266287705,-60.0,314.603,4.051,23147.027,False,-3.9459744209103906,0.35979796495177235,4.14,-0.09,-0.316,-9.992,-0.067,314.603,318.302,True,0,1,0,0
-1.25,-0.448,-0.462,compass,128.666,0.56,164.923,-1.706,-0.56,-0.52,0.0,4.09385169428023,-60.0,314.682,4.042,23147.127,False,-3.9487175335838582,0.36448535217736294,4.14,-0.129,-0.434,-10.262,-0.101,314.682,318.962,True,0,1,0,0
-1.319,0.0,-0.488,compass,90.0,0.336,167.126,-1.691,-0.112,-0.52,0.0,4.080972074107937,-60.0,314.759,4.042,23147.227,False,-3.971925743286115,0.3698969157358374,4.14,-0.129,-0.508,-10.34,-0.101,314.759,318.962,True,0,1,0,0
-1.378,0.56,-0.515,compass,60.943,0.112,167.144,-1.625,-1.007,-0.62,0.0,4.104728755220016,-60.0,314.83,4.255,23147.327,False,-4.176281575809959,0.3947293109130817,4.14,-0.09,-0.547,-10.414,-0.141,314.83,319.17,True,0,1,0,0
-1.405,1.343,-0.542,compass,44.998,-0.224,165.95,-1.524,-1.343,-0.62,0.0,4.098069275192272,-60.0,314.886,4.255,23147.427,False,-4.1527420857574535,0.3988267258189317,4.14,-0.09,-0.586,-10.418,-0.141,314.886,319.17,True,0,1,0,0
-1.405,1.343,-0.542,compass,44.998,-0.224,165.95,-1.524,-1.343,-0.62,0.0,4.098069275192272,-60.0,314.886,4.141,23147.427,False,-4.1527420857574535,0.3988267258189317,4.14,-0.09,-0.586,-10.418,-0.141,314.886,319.051,True,0,1,0,0
-1.459,1.679,-0.595,compass,38.664,-0.895,164.006,-1.071,-1.343,-0.54,0.0,3.962420723272381,-60.0,315.041,4.141,23147.628,False,-3.9993550424802646,0.39920926378725324,4.14,-0.051,-0.508,-10.145,-0.089,315.041,319.051,True,0,1,0,0
-1.483,1.343,-0.622,compass,47.296,-0.783,163.757,-0.922,-1.455,-0.54,0.0,3.9488488591900013,-60.0,315.096,4.368,23147.728,False,-4.210609548205979,0.42537467459158407,4.14,-0.051,-0.434,-10.027,-0.089,315.096,318.757,True,0,1,0,0
-1.49,1.007,-0.648,compass,45.007,-0.56,164.513,-0.813,-1.007,-0.62,0.0,3.9563514180272814,-60.0,315.173,4.368,23147.828,False,-4.223309176423993,0.4312209612615708,4.14,-0.012,-0.277,-9.68,-0.107,315.173,318.757,True,0,1,0,0
-1.538,0.56,-0.675,compass,63.441,-0.224,165.837,-0.735,-1.119,-0.62,0.0,3.9819454905594176,-60.0,315.213,4.413,23147.928,False,-4.289257271888412,0.4386560802390438,4.14,0.027,-0.047,-9.34,-0.107,315.213,316.725,True,0,1,0,0
-1.58,0.112,-0.702,compass,82.877,-0.0,167.325,-0.707,-0.895,-0.77,0.0,4.0314813131256475,-60.0,315.245,4.413,23148.028,False,-4.313123453944689,0.4411171212616193,4.14,0.062,0.066,-9.188,-0.172,315.245,316.725,True,0,1,0,0
-1.621,-0.336,-0.729,compass,161.56,0.56,169.121,-0.717,-0.112,-0.77,0.0,4.0748962338243,-60.0,315.258,4.242,23148.128,False,-4.170734345054109,0.42499743495349335,4.14,-0.012,0.066,-9.074,-0.172,315.258,317.175,True,0,1,0,0
-1.668,-0.671,-0.758,compass,170.535,0.336,170.05,-0.751,-0.112,-0.71,0.0,4.134683387770443,-60.0,315.252,4.242,23148.228,False,-4.181644711983456,0.4245302898312561,4.14,-0.051,0.145,-9.109,-0.126,315.252,317.175,True,0,1,0,0
-1.657,-0.671,-0.785,compass,-109.434,0.448,168.754,-0.815,1.902,-0.71,0.0,4.0666395945351725,-60.0,315.251,4.3,23148.328,False,-4.220806189107112,0.4302934275816953,4.14,-0.09,0.105,-9.258,-0.126,315.251,317.115,True,0,1,0,0
-1.511,-0.56,-0.806,compass,-105.521,0.448,169.307,-0.92,2.014,-0.68,0.0,3.8917970007357776,-60.0,315.724,4.3,23148.429,False,-4.2328388994945225,0.46561805492605096,4.14,-0.129,-0.047,-9.645,-0.099,315.724,317.115,True,0,1,0,0
-1.476,-0.336,-0.826,compass,-98.971,0.895,171.455,-0.951,2.126,-0.68,0.0,3.7150317677839846,-60.0,315.752,4.253,23148.529,False,-4.211048844625354,0.462601852146581,4.14,-0.129,-0.125,-9.797,-0.099,315.752,318.066,True,0,1,0,0
-1.476,0.448,-0.846,compass,-81.256,0.336,96.134,-0.95,2.91,-0.68,0.0,3.515465210699771,-60.0,315.683,4.253,23148.629,False,-4.240893884568942,0.4575209183471774,4.14,-0.09,-0.355,-10.184,-0.099,315.683,318.066,True,0,1,0,0
-1.417,0.56,-0.863,compass,-75.259,0.224,36.74,-0.926,2.126,-0.71,0.0,3.484300378916766,-60.0,315.623,4.355,23148.729,False,-4.351473987778231,0.46384477237289173,4.14,-0.09,-0.434,-10.297,-0.099,315.623,319.77,True,0,1,0,0
-1.31,1.007,-0.876,compass,-68.632,-0.336,-8.302,-0.874,2.574,-0.71,0.0,3.4423774540403,-60.0,315.569,4.355,23148.829,False,-4.354030219650195,0.459768000015162,4.14,-0.051,-0.586,-10.445,-0.099,315.569,319.77,True,0,1,0,0
-1.169,1.119,-0.885,compass,-54.465,-0.895,-44.705,-0.792,1.567,-0.73,0.0,3.4989284256230557,-60.0,315.521,4.436,23148.929,False,-4.4334671780073736,0.4647455948784241,4.14,-0.051,-0.66,-10.488,-0.099,315.521,319.868,True,0,1,0,0
-1.036,1.455,-0.89,compass,-69.537,-1.343,-65.775,-0.692,1.567,-0.73,2.05,3.426740196772235,-60.0,315.462,4.436,23149.029,False,-4.36601851652865,0.4601565665181082,4.14,-0.012,-0.699,-10.414,-0.099,315.462,319.868,True,0,1,0,0
-0.95,1.119,-0.892,compass,-68.027,-0.783,-84.574,-0.587,0.336,-0.77,2.05,3.3874494103259987,-60.0,315.394,4.267,23149.129,False,-4.136195049762631,0.43758502649428593,4.14,-0.012,-0.699,-10.301,-0.109,315.394,320.346,True,0,1,0,0
-0.887,0.895,-0.891,compass,-71.324,-1.343,-98.93,-0.499,0.336,-0.77,2.17,3.389953540853141,-60.0,315.301,4.267,23149.229,False,-4.0660898732672806,0.4307287304732432,4.14,-0.012,-0.625,-10.141,-0.109,315.301,320.346,True,0,1,0,0
-0.789,0.448,-0.888,compass,-76.145,-1.119,-111.009,-0.441,0.112,-0.79,2.17,3.4693396407567816,-60.0,315.167,4.456,23149.329,False,-4.202251699668753,0.43932531574876216,4.18,0.027,-0.508,-9.836,-0.108,315.167,319.718,True,0,1,0,0
-0.495,0.112,-0.877,compass,82.875,-1.343,-47.423,-0.487,-0.895,-0.79,0.0,3.5899585090122486,-60.0,314.893,4.456,23149.429,False,-4.313209782079431,0.4181873318138262,4.18,0.027,-0.434,-9.645,-0.108,314.893,319.718,True,0,1,0,0
-0.412,-0.56,-0.863,compass,-141.341,-0.336,-76.377,-0.541,0.448,-0.75,0.0,3.68292453430855,-60.0,314.794,4.246,23149.529,False,-4.161142906559773,0.39113507038479084,4.18,-0.012,-0.316,-9.336,-0.077,314.794,318.212,True,0,1,0,0
-0.358,-1.007,-0.847,compass,-146.311,-0.112,-98.004,-0.63,0.671,-0.75,0.0,3.770579865620416,-60.0,314.722,4.246,23149.629,False,-4.180685325304835,0.38584598311063584,4.18,0.027,-0.242,-9.258,-0.077,314.722,318.212,True,0,1,0,0
-0.279,-1.343,-0.83,compass,-143.132,-0.0,-114.105,-0.747,1.007,-0.83,0.0,3.904865682904875,-60.0,314.656,4.341,23149.729,False,-4.278762538554184,0.38949855800877903,4.18,-0.012,-0.242,-9.227,-0.109,314.656,317.861,True,0,1,0,0
-0.181,-1.119,-0.811,compass,-129.809,0.112,-126.661,-0.872,1.343,-0.83,0.0,4.041953008253281,-60.0,314.614,4.341,23149.829,False,-4.281714714203683,0.38631502137314705,4.18,-0.09,-0.316,-9.414,-0.109,314.614,317.861,True,0,1,0,0
-0.137,-1.119,-0.791,compass,-132.278,0.112,-136.71,-0.972,1.231,-0.68,0.0,4.173198697149822,-60.0,314.488,4.357,23149.929,False,-4.303170689187035,0.3781989221636432,4.18,-0.09,-0.355,-9.609,-0.024,314.488,317.799,True,0,1,0,0
-0.138,-0.895,-0.771,compass,-115.205,-0.0,-144.048,-1.036,1.902,-0.68,0.0,4.304985798049918,-60.0,314.333,4.357,23150.029,False,-4.302136132898178,0.3664484861255197,4.18,-0.09,-0.586,-9.957,-0.024,314.333,317.799,True,0,1,0,0
-0.109,-0.336,-0.751,compass,-113.202,-0.448,-151.66,-1.081,0.783,-0.68,0.0,4.287845482176825,-60.0,314.187,4.088,23150.129,False,-4.055557529454245,0.33350928223519816,4.18,-0.129,-0.66,-10.105,-0.024,314.187,318.937,True,0,1,0,0
-0.072,0.336,-0.731,compass,-66.798,-0.895,-157.571,-1.092,0.783,-0.62,0.0,4.25831649483508,-60.0,314.027,4.088,23150.229,False,-4.066935841618483,0.322078176641651,4.18,-0.09,-0.777,-10.379,-0.001,314.027,318.937,True,0,1,0,0
0.041,0.56,-0.708,compass,-21.798,-0.895,-83.723,-1.045,0.224,-0.62,0.0,4.270210410660325,-60.0,313.782,4.376,23150.33,False,-4.365340102442273,0.32610066984194375,4.22,-0.129,-0.852,-10.449,-0.001,313.782,319.76,True,0,1,0,0
0.053,0.671,-0.685,compass,9.461,-1.007,-26.142,-0.999,-0.112,-0.58,0.0,4.250885855156043,-60.0,313.67,4.376,23150.43,False,-4.371394333115687,0.3175786013127415,4.22,-0.09,-0.891,-10.488,0.019,313.67,319.76,True,0,1,0,0
0.022,0.671,-0.664,compass,33.687,-1.343,18.642,-0.94,-0.448,-0.58,0.0,4.161571855875217,-60.0,313.556,4.195,23150.53,False,-4.193893488990915,0.2961565690799518,4.22,-0.09,-0.852,-10.449,0.019,313.556,319.791,True,0,1,0,0
-0.038,0.448,-0.645,compass,60.252,-1.007,53.095,-0.903,-0.783,-0.58,0.0,4.064199868003816,-60.0,313.461,4.195,23150.63,False,-4.195151946706365,0.2891825436723287,4.22,-0.09,-0.852,-10.34,0.019,313.461,319.791,True,0,1,0,0
-0.023,0.336,-0.626,compass,79.379,-1.343,79.414,-0.902,-1.79,-0.73,0.0,3.90925365284406,-60.0,313.407,4.337,23150.73,False,-4.335293722818286,0.2949253737517399,4.22,-0.051,-0.699,-10.141,-0.033,313.407,318.385,True,0,1,0,0
0.007,-0.112,-0.607,compass,94.764,-0.56,99.458,-0.935,-1.343,-0.73,0.0,3.8489621726270467,-60.0,313.397,4.271,23150.83,False,-4.26362919168083,0.2896483573352815,4.22,-0.051,-0.66,-9.992,-0.033,313.397,317.57,True,0,1,0,0
-0.005,-0.448,-0.589,compass,100.786,-0.224,112.916,-0.978,-2.35,-0.71,0.0,3.7636223308991865,-60.0,313.396,4.271,23150.93,False,-4.240258138572798,0.28957194974505746,4.22,-0.051,-0.434,-9.684,-0.02,313.396,317.57,True,0,1,0,0
-0.075,-0.671,-0.574,compass,110.559,0.112,123.795,-1.047,-1.79,-0.71,0.0,3.7832997776975237,-60.0,313.41,4.271,23151.03,False,-4.2157378162777395,0.2906717911223286,4.22,-0.051,-0.355,-9.457,-0.02,313.41,317.57,True,0,1,0,0
-0.177,-1.007,-0.562,compass,117.902,0.448,131.996,-1.129,-1.902,-0.64,0.0,3.8474392484283513,-60.0,313.413,4.275,23151.13,False,-4.191211978064042,0.2910985059040217,4.22,-0.09,-0.316,-9.336,0.017,313.413,316.469,True,0,1,0,0
-0.437,-0.895,-0.558,compass,138.821,0.671,139.973,-1.301,-0.783,-0.64,0.0,3.946317858023485,-60.0,313.378,4.275,23151.23,False,-4.189592733121627,0.2885046377335469,4.22,-0.09,-0.242,-9.379,0.017,313.378,316.469,True,0,1,0,0
-0.545,-0.895,-0.558,compass,153.441,0.783,146.645,-1.386,-0.448,-0.64,0.0,4.054470336586737,-60.0,313.378,4.288,23151.33,False,-4.20864347511791,0.28941916103839227,4.22,-0.09,-0.277,-9.496,0.017,313.378,316.198,True,0,1,0,0
-0.64,-0.671,-0.56,compass,140.202,0.783,152.115,-1.449,-0.56,-0.68,0.0,4.148858514357813,-60.0,313.372,4.288,23151.43,False,-4.2165626545406285,0.28896324546607066,4.22,-0.09,-0.355,-9.684,0.002,313.372,316.198,True,0,1,0,0
-0.723,-0.224,-0.565,compass,135.007,0.671,156.989,-1.485,-0.224,-0.68,0.0,4.180424594871553,-60.0,313.35,4.209,23151.53,False,-4.151398599121253,0.28203639311098755,4.22,-0.09,-0.355,-9.801,0.002,313.35,317.045,True,0,1,0,0
-0.786,0.112,-0.572,compass,44.993,0.56,160.979,-1.496,-0.112,-0.68,0.0,4.191050068574354,-60.0,313.314,4.209,23151.63,False,-4.162675913573814,0.2793474211328316,4.22,-0.09,-0.434,-10.023,0.002,313.314,317.045,True,0,1,0,0
-0.877,0.224,-0.581,compass,71.562,0.224,163.021,-1.456,-0.671,-0.66,0.0,4.196283137710177,-60.0,313.172,4.147,23151.73,False,-4.096938718074652,0.26498757117647687,4.22,-0.09,-0.508,-10.141,0.009,313.172,317.725,True,0,1,0,0
-0.934,0.224,-0.591,compass,-26.561,0.112,165.335,-1.411,0.112,-0.66,0.0,4.176277221017517,-60.0,313.067,4.147,23151.83,False,-4.101833095775043,0.25743376004155516,4.22,-0.129,-0.469,-10.18,0.009,313.067,317.725,True,0,1,0,0
-0.975,0.224,-0.603,compass,74.052,0.224,166.186,-1.367,-0.783,-0.66,0.0,4.156762110836297,-60.0,313.016,4.193,23151.93,False,-4.141760282520585,0.25655635074696465,4.22,-0.09,-0.469,-10.18,0.009,313.016,317.865,True,0,1,0,0
-0.998,0.112,-0.615,compass,84.289,0.224,166.441,-1.331,-1.119,-0.71,0.0,4.1750553006707,-60.0,313.01,4.341,23152.03,False,-4.277668829346444,0.26519408611328893,4.22,-0.09,-0.469,-10.105,-0.009,313.01,317.615,True,0,1,0,0
-1.051,-0.224,-0.628,compass,111.803,0.895,167.488,-1.318,-0.56,-0.71,0.0,4.2081315018521055,-60.0,313.14,4.341,23152.13,False,-4.281736564917326,0.2750071648260077,4.23,-0.051,-0.355,-10.023,-0.009,313.14,317.615,True,0,1,0,0
-1.072,-0.56,-0.641,compass,135.003,1.231,168.109,-1.344,-0.56,-0.91,0.0,4.219042776980519,-60.0,313.278,4.187,23152.23,False,-4.130982603385979,0.2753183048188904,4.23,-0.012,-0.316,-9.875,-0.107,313.278,317.212,True,0,1,0,0
-1.099,-0.783,-0.655,compass,164.056,1.119,168.708,-1.374,-0.224,-0.91,0.0,4.252919101645659,-60.0,313.422,4.187,23152.331,False,-4.132958466673714,0.28583094406541565,4.23,-0.051,-0.242,-9.801,-0.107,313.422,317.212,True,0,1,0,0
-1.147,-0.895,-0.67,compass,-180.0,1.231,169.209,-1.427,0.0,-0.91,0.0,4.1715066473003946,-60.0,313.582,4.187,23152.431,False,-4.135004389080579,0.29747757647528617,4.23,-0.051,-0.242,-9.684,-0.107,313.582,317.212,True,0,1,0,0
-1.189,-0.895,-0.685,compass,147.998,1.231,169.043,-1.477,-0.56,-0.91,0.0,4.1471843460559,-60.0,313.729,4.207,23152.531,False,-4.149104347799797,0.30961334370026955,4.23,-0.051,-0.203,-9.684,-0.096,313.729,317.587,True,0,1,0,0
-1.254,-0.783,-0.702,compass,-164.056,0.895,170.123,-1.507,0.224,-0.91,0.0,4.069785967812752,-60.0,313.867,4.207,23152.631,False,-4.159150827457542,0.3197551941539215,4.23,-0.051,-0.203,-9.684,-0.096,313.867,317.587,True,0,1,0,0
-1.303,-0.448,-0.72,compass,165.965,1.119,171.099,-1.522,-0.112,-0.91,0.0,4.094974585326439,-60.0,313.981,4.333,23152.731,False,-4.292650753726362,0.3379318243425045,4.23,-0.09,-0.277,-9.68,-0.087,313.981,316.708,True,0,1,0,0
-1.345,0.112,-0.739,compass,-71.564,0.895,172.223,-1.495,0.336,-0.91,0.0,4.109402692117068,-60.0,314.06,4.333,23152.831,False,-4.301895016351767,0.343911439600584,4.23,-0.09,-0.277,-9.797,-0.087,314.06,316.708,True,0,1,0,0
-1.364,1.007,-0.758,compass,-18.434,0.224,172.566,-1.435,0.336,-0.91,0.0,4.054767724881112,-60.0,314.112,4.407,23152.931,False,-4.376940573554439,0.3537497617987551,4.23,-0.09,-0.355,-9.914,-0.087,314.112,317.767,True,0,1,0,0
-1.359,1.231,-0.776,compass,-5.195,-0.0,172.893,-1.214,0.112,-0.93,0.0,3.9892554847271837,-60.0,314.162,4.407,23153.031,False,-4.3787560763710545,0.35760403350574155,4.23,-0.09,-0.434,-9.957,-0.085,314.162,317.767,True,0,1,0,0
-1.341,1.455,-0.793,compass,-17.104,-0.0,173.185,-1.078,0.448,-0.93,0.0,3.897165982180759,-60.0,314.202,4.316,23153.131,False,-4.361046831821353,0.3590451011865466,4.23,-0.09,-0.469,-10.023,-0.085,314.202,318.612,True,0,1,0,0
-1.301,1.343,-0.808,compass,-4.764,0.112,173.447,-0.94,0.112,-0.93,0.0,3.8294659526645782,-60.0,314.257,4.316,23153.231,False,-4.291133141733966,0.3572808108753577,4.23,-0.051,-0.434,-10.027,-0.085,314.257,318.612,True,0,1,0,0
-1.258,1.231,-0.822,compass,-5.195,-0.0,173.76,-0.809,0.112,-0.91,0.0,3.789389727159575,-60.0,314.327,4.384,23153.331,False,-4.293261114411276,0.3625696217386603,4.23,-0.051,-0.434,-9.992,-0.07,314.327,318.521,True,0,1,0,0
-1.204,1.231,-0.833,compass,-0.0,0.224,174.057,-0.705,0.0,-0.91,0.0,3.773635622258827,-60.0,314.413,4.384,23153.431,False,-4.363048804798905,0.37481005032998393,4.23,-0.012,-0.395,-9.918,-0.07,314.413,318.521,True,0,1,0,0
-1.155,0.895,-0.843,compass,20.559,-0.112,174.222,-0.625,-0.336,-0.97,0.0,3.7951560949388905,-60.0,314.495,4.384,23153.531,False,-4.364122681942634,0.3811050133077816,4.23,0.027,-0.316,-9.879,-0.091,314.495,318.521,True,0,1,0,0
-1.114,0.56,-0.851,compass,-50.198,-0.112,174.698,-0.577,0.671,-0.97,0.0,3.820438782190373,-60.0,314.502,4.384,23153.631,False,-4.366924224121601,0.38162560211120283,4.23,0.062,-0.277,-9.758,-0.091,314.502,318.521,True,0,1,0,0
-1.076,-0.224,-0.858,compass,-104.035,-0.0,175.67,-0.56,0.895,-0.99,0.0,3.8599871973319035,-60.0,314.433,4.53,23153.732,False,-4.43808569300027,0.382041353375397,4.23,0.062,-0.277,-9.719,-0.092,314.433,317.831,True,0,1,0,0
-1.036,-0.448,-0.863,compass,165.962,0.224,175.644,-0.581,-0.112,-0.99,0.0,3.9548648980771874,-60.0,314.395,4.53,23153.832,False,-4.517040113006159,0.38585281296512036,4.23,0.027,-0.316,-9.68,-0.092,314.395,317.831,True,0,1,0,0
-1.007,-0.448,-0.867,compass,-116.563,-0.0,176.187,-0.615,0.895,-0.95,0.0,3.964312575476169,-60.0,314.431,4.403,23153.932,False,-4.520050599880886,0.3887428858692691,4.26,0.027,-0.277,-9.684,-0.062,314.431,318.452,True,0,1,0,0
-0.982,-0.448,-0.871,compass,-119.743,0.112,177.002,-0.657,0.783,-0.95,0.0,3.973244136165963,-60.0,314.452,4.403,23154.032,False,-4.39752894733158,0.379501483554614,4.26,-0.012,-0.316,-9.719,-0.062,314.452,318.452,True,0,1,0,0
-0.95,-0.448,-0.873,compass,-116.564,-0.56,98.922,-0.697,0.895,-0.95,0.0,3.9974686112701736,-60.0,314.445,4.469,23154.132,False,-4.400885516712563,0.37891952297752896,4.26,-0.051,-0.395,-9.801,-0.062,314.445,318.215,True,0,1,0,0
-0.905,-0.224,-0.874,compass,-104.036,-0.448,38.063,-0.731,0.895,-0.99,0.0,4.054592168242718,-60.0,314.412,4.469,23154.232,False,-4.468593601569651,0.3820867435958965,4.26,-0.09,-0.395,-9.797,-0.069,314.412,318.215,True,0,1,0,0
-0.854,-0.224,-0.873,compass,-123.689,-0.448,69.033,-0.762,0.336,-0.99,0.0,4.134181409904386,-60.0,314.373,4.39,23154.332,False,-4.468517423947458,0.37906065330258787,4.26,-0.129,-0.508,-9.879,-0.069,314.373,318.304,True,0,1,0,0
-0.787,0.112,-0.871,compass,-83.66,-0.56,14.966,-0.793,1.007,-0.97,0.0,4.167753623064323,-60.0,314.325,4.39,23154.432,False,-4.3895360150969545,0.3686097864562761,4.26,-0.129,-0.508,-9.918,-0.052,314.325,318.304,True,0,1,0,0
-0.63,0.112,-0.859,compass,-80.537,-0.0,0.284,-0.839,0.671,-0.97,0.0,4.219132018169745,-60.0,314.244,4.384,23154.633,False,-4.383671281169851,0.3619339321189036,4.26,-0.09,-0.469,-9.957,-0.052,314.244,318.486,True,0,1,0,0
-0.63,0.112,-0.859,compass,-80.537,-0.0,0.284,-0.839,0.671,-0.97,0.0,4.219132018169745,-60.0,314.244,4.384,23154.633,False,-4.383671281169851,0.3619339321189036,4.26,-0.09,-0.469,-9.957,-0.052,314.244,318.486,True,0,1,0,0
-0.396,0.224,-0.836,compass,-63.433,0.224,9.057,-0.904,0.448,-0.97,0.0,4.246122809902058,-60.0,314.101,4.444,23154.833,False,-4.443978941578258,0.3558915332892335,4.26,-0.051,-0.434,-9.914,-0.046,314.101,318.602,True,0,1,0,0
-0.32,0.336,-0.821,compass,-71.563,-0.112,-31.94,-0.902,1.007,-0.95,0.0,4.246551095907931,-60.0,314.076,4.444,23154.933,False,-4.44382171495847,0.3538973976169537,4.3,-0.051,-0.469,-9.914,-0.032,314.076,318.602,True,0,1,0,0
-0.261,0.224,-0.804,compass,-68.196,-0.0,14.501,-0.899,0.56,-0.95,0.0,4.2438501404103075,-60.0,314.053,4.358,23155.033,False,-4.358421680272276,0.34535558729780036,4.3,-0.012,-0.469,-9.879,-0.032,314.053,318.841,True,0,1,0,0
-0.195,0.112,-0.786,compass,-83.659,-0.224,-27.782,-0.893,1.007,-0.95,0.0,4.231762568442392,-60.0,314.036,4.358,23155.133,False,-4.35818447786634,0.34411236374915055,4.3,-0.012,-0.508,-9.879,-0.032,314.036,318.841,True,0,1,0,0
-0.14,0.224,-0.766,compass,-63.432,-0.112,17.404,-0.877,0.448,-0.97,0.0,4.248903597066845,-60.0,314.011,4.415,23155.233,False,-4.414823276836674,0.3466337857726201,4.3,-0.012,-0.547,-9.875,-0.035,314.011,319.597,True,0,1,0,0
-0.083,0.112,-0.746,compass,-81.869,-0.56,53.099,-0.867,0.783,-0.97,0.0,4.253968488890177,-60.0,313.98,4.415,23155.333,False,-4.4148158477935135,0.34419457618537574,4.3,-0.012,-0.625,-9.918,-0.035,313.98,319.597,True,0,1,0,0
-0.035,0.112,-0.725,compass,-84.289,-0.448,2.478,-0.854,1.119,-0.91,0.0,4.254287836650029,-60.0,313.942,4.415,23155.433,False,-4.414641127542595,0.34127917336619434,4.3,-0.051,-0.625,-9.914,-0.001,313.942,318.841,True,0,1,0,0
0.018,-0.112,-0.702,compass,135.003,-0.671,40.536,-0.853,-0.112,-0.91,0.0,4.272444795388806,-60.0,313.916,4.415,23155.533,False,-4.4145882582060425,0.3393197542747389,4.3,-0.051,-0.66,-9.953,-0.001,313.916,318.841,True,0,1,0,0
0.071,-0.112,-0.679,compass,116.568,-0.56,70.062,-0.853,-0.224,-0.91,0.0,4.270731869879963,-60.0,313.9,4.399,23155.633,False,-4.397521573863479,0.336873955042395,4.3,-0.051,-0.625,-9.953,-0.001,313.9,318.852,True,0,1,0,0
0.159,-0.224,-0.654,compass,-123.693,-0.112,93.377,-0.899,0.336,-0.91,0.0,4.253952685548459,-60.0,313.904,4.399,23155.733,False,-4.396265048523987,0.33717152603540246,4.3,-0.09,-0.66,-9.957,-0.001,313.904,318.852,True,0,1,0,0
0.191,-0.448,-0.629,compass,165.965,-0.336,111.059,-0.939,-0.112,-0.91,0.0,4.234991191926039,-60.0,313.918,4.399,23155.833,False,-4.393211002518922,0.33824245805780245,4.3,-0.09,-0.66,-9.957,-0.001,313.918,318.852,True,0,1,0,0
0.219,-0.671,-0.603,compass,-170.539,-0.0,125.534,-1.004,0.112,-0.91,0.0,4.179951127295451,-60.0,313.931,4.331,23155.933,False,-4.325210778987291,0.33401351149632175,4.3,-0.051,-0.586,-9.953,-0.001,313.931,318.818,True,0,1,0,0
0.24,-0.56,-0.578,compass,158.202,-0.224,136.26,-1.071,-0.224,-0.87,0.0,4.144195699251007,-60.0,313.941,4.323,23156.033,False,-4.3149261378496995,0.3342075469418005,4.3,-0.09,-0.625,-9.918,0.012,313.941,318.042,True,0,1,0,0
0.239,-0.56,-0.553,compass,135.005,-0.0,144.013,-1.141,-0.56,-0.87,0.0,4.12072070962088,-60.0,313.955,4.323,23156.133,False,-4.309145887915304,0.3352280793768893,4.3,-0.09,-0.625,-9.879,0.012,313.955,318.042,True,0,1,0,0
0.21,-0.448,-0.53,compass,135.006,0.112,150.145,-1.199,-0.448,-0.87,0.0,4.1391891997829084,-60.0,313.976,4.331,23156.233,False,-4.311991652596686,0.337397914097725,4.3,-0.051,-0.586,-9.875,0.012,313.976,317.785,True,0,1,0,0
0.172,-0.448,-0.509,compass,113.967,-0.0,154.138,-1.254,-1.007,-0.87,0.0,4.16199098911087,-60.0,314.0,4.331,23156.333,False,-4.3010421262381255,0.339193159965001,4.3,-0.09,-0.625,-9.879,0.011,314.0,317.785,True,0,1,0,0
0.128,-0.448,-0.49,compass,111.806,0.224,156.999,-1.296,-1.119,-0.87,0.0,4.200891614018833,-60.0,314.024,4.331,23156.433,False,-4.288159107304265,0.3410262948273663,4.3,-0.09,-0.586,-9.918,0.011,314.024,318.219,True,0,1,0,0
0.082,-0.224,-0.473,compass,104.04,0.56,159.695,-1.332,-0.895,-0.87,0.0,4.238035495177001,-60.0,314.061,4.331,23156.533,False,-4.282068595869299,0.34384922444880917,4.3,-0.09,-0.586,-9.918,0.011,314.061,318.219,True,0,1,0,0
-0.05,-0.336,-0.46,compass,105.259,0.336,161.425,-1.382,-1.231,-0.79,0.0,4.2944097341674095,-60.0,314.153,4.386,23156.634,False,-4.326718594515958,0.3551842433481892,4.3,-0.09,-0.586,-9.918,0.036,314.153,317.756,True,0,1,0,0
-0.132,-0.224,-0.451,compass,105.95,0.336,163.494,-1.388,-0.783,-0.79,0.0,4.332434490029264,-60.0,314.217,4.386,23156.734,False,-4.327987211137832,0.3600513816975804,4.3,-0.09,-0.586,-9.957,0.036,314.217,317.756,True,0,1,0,0
-0.226,0.0,-0.444,compass,90.0,0.448,164.477,-1.384,-1.231,-0.79,0.0,4.351442699527022,-60.0,314.297,4.29,23156.834,False,-4.227275595792786,0.3581927810380046,4.3,-0.129,-0.547,-9.992,0.036,314.297,317.696,True,0,1,0,0
-0.32,-0.112,-0.44,compass,95.712,0.783,165.427,-1.38,-1.119,-0.85,0.0,4.363958110126051,-60.0,314.39,4.29,23156.934,False,-4.224333513657739,0.36511470289828696,4.3,-0.09,-0.434,-9.918,0.012,314.39,317.696,True,0,1,0,0
-0.424,-0.112,-0.44,compass,94.087,0.895,165.553,-1.373,-1.567,-0.85,0.0,4.416257235272343,-60.0,314.486,4.415,23157.034,False,-4.335785447762415,0.3830515457482768,4.3,-0.09,-0.469,-9.918,0.012,314.486,317.894,True,0,1,0,0
-0.534,-0.112,-0.442,compass,95.196,0.671,166.154,-1.368,-1.231,-0.85,0.0,4.445951821051005,-60.0,314.585,4.415,23157.134,False,-4.334171322348462,0.3906897902104733,4.3,-0.09,-0.395,-9.918,0.011,314.585,317.894,True,0,1,0,0
-0.644,0.0,-0.449,compass,90.0,0.783,166.905,-1.363,-1.007,-0.85,0.0,4.408403098487148,-60.0,314.687,4.18,23157.234,False,-4.105969538149873,0.37729962215254803,4.3,-0.051,-0.355,-9.879,0.011,314.687,317.816,True,0,1,0,0
-0.751,-0.112,-0.458,compass,94.086,0.56,166.648,-1.363,-1.567,-0.89,0.0,4.397615374480992,-60.0,314.758,4.18,23157.334,False,-4.0959322843067785,0.3824435144091842,4.3,-0.051,-0.355,-9.879,-0.01,314.758,317.816,True,0,1,0,0
-0.863,-0.112,-0.47,compass,94.764,0.783,166.854,-1.35,-1.343,-0.89,0.0,4.422951719684738,-60.0,314.829,4.366,23157.434,False,-4.276541902402059,0.4049203569906942,4.3,-0.051,-0.355,-9.84,-0.01,314.829,317.983,True,0,1,0,0
-1.068,-0.112,-0.488,compass,104.037,0.671,168.37,-1.316,-0.448,-0.81,0.0,4.42066185310995,-60.0,314.943,4.366,23157.534,False,-4.295023189630041,0.4135351558799686,4.3,-0.051,-0.355,-9.84,0.031,314.943,317.983,True,0,1,0,0
-1.161,-0.336,-0.508,compass,120.965,0.671,169.352,-1.295,-0.56,-0.81,0.0,4.41704616701134,-60.0,314.998,4.304,23157.634,False,-4.243560827665931,0.41177750017624026,4.3,-0.051,-0.355,-9.84,0.031,314.998,317.686,True,0,1,0,0
-1.235,0.0,-0.53,compass,90.0,0.224,170.767,-1.281,-0.224,-0.81,0.0,4.397926040368649,-60.0,315.046,4.304,23157.734,False,-4.257960062017786,0.41539237443496757,4.3,-0.051,-0.316,-9.797,0.031,315.046,317.686,True,0,1,0,0
-1.29,-0.112,-0.553,compass,104.036,0.448,171.558,-1.259,-0.448,-0.81,0.0,4.422394609542968,-60.0,315.101,4.448,23157.834,False,-4.407330793147473,0.4334938662508172,4.3,-0.051,-0.277,-9.836,0.028,315.101,317.631,True,0,1,0,0
-1.334,-0.224,-0.576,compass,111.801,0.224,171.99,-1.247,-0.56,-0.81,0.0,4.449216972964319,-60.0,315.14,4.448,23157.934,False,-4.410491128617241,0.43647609056844716,4.3,-0.051,-0.277,-9.801,0.028,315.14,317.631,True,0,1,0,0
-1.37,0.0,-0.6,compass,-90.0,0.112,173.18,-1.233,0.112,-0.81,0.0,4.414971698108873,-60.0,315.172,4.322,23158.034,False,-4.2950362507142845,0.426482585563866,4.3,-0.051,-0.277,-9.801,0.028,315.172,317.054,True,0,1,0,0
-1.403,-0.112,-0.624,compass,104.035,0.224,173.561,-1.208,-0.448,-0.81,0.0,4.378666729591043,-60.0,315.179,4.322,23158.134,False,-4.297342233574958,0.4270378073909156,4.3,-0.09,-0.203,-9.797,0.025,315.179,317.054,True,0,1,0,0
-1.408,-0.112,-0.647,compass,-108.433,0.336,174.079,-1.195,0.336,-0.81,0.0,4.367433735278478,-60.0,315.166,4.487,23158.234,False,-4.465054125497354,0.44238129385035346,4.3,-0.09,-0.242,-9.84,0.025,315.166,317.849,True,0,1,0,0
-1.423,0.224,-0.671,compass,-68.201,0.336,174.584,-1.178,0.56,-0.87,0.0,4.323316866198614,-60.0,315.136,4.487,23158.335,False,-4.46815699245603,0.4399890090938698,4.3,-0.09,-0.242,-9.84,-0.007,315.136,317.849,True,0,1,0,0
-1.401,0.448,-0.693,compass,-63.437,0.224,175.11,-1.137,0.895,-0.87,0.0,4.243415778832663,-60.0,315.014,4.502,23158.435,False,-4.486307401635683,0.43198330038792754,4.3,-0.09,-0.316,-9.875,-0.007,315.014,318.516,True,0,1,0,0
-1.361,0.336,-0.713,compass,-63.437,-0.112,175.743,-1.104,0.671,-0.77,0.0,4.214442550154825,-60.0,314.954,4.502,23158.535,False,-4.489875625551308,0.4273011465899848,4.3,-0.09,-0.277,-9.918,0.044,314.954,318.516,True,0,1,0,0
-1.318,0.336,-0.731,compass,-18.436,-0.112,175.983,-1.078,0.112,-0.77,0.0,4.224239975378347,-60.0,314.885,4.444,23158.635,False,-4.4327693716461285,0.4164289381253681,4.25,-0.09,-0.355,-9.914,0.044,314.885,318.731,True,0,1,0,0
-1.261,0.56,-0.747,compass,-68.964,-0.0,98.119,-1.031,1.455,-0.77,0.0,4.109785983110184,-60.0,314.831,4.444,23158.735,False,-4.438675205318003,0.4123079337020894,4.25,-0.051,-0.355,-9.957,0.044,314.831,318.731,True,0,1,0,0
-1.195,0.56,-0.76,compass,-38.662,-0.0,115.816,-0.987,0.448,-0.83,0.0,4.115088104813948,-60.0,314.769,4.473,23158.835,False,-4.468738549557705,0.41014208846125666,4.25,-0.09,-0.395,-9.918,0.02,314.769,318.712,True,0,1,0,0
-1.123,0.56,-0.771,compass,-45.002,-0.0,129.727,-0.941,0.56,-0.83,0.0,4.114036379432872,-60.0,314.718,4.473,23158.935,False,-4.469768809518426,0.4061911668666888,4.25,-0.051,-0.434,-9.914,0.02,314.718,318.712,True,0,1,0,0
-1.039,0.56,-0.779,compass,-45.001,-0.112,140.646,-0.906,0.56,-0.75,0.0,4.128708190117499,-60.0,314.677,4.533,23159.035,False,-4.530904254206276,0.4084405267448975,4.25,-0.051,-0.395,-9.914,0.058,314.677,318.525,True,0,1,0,0
-0.952,0.336,-0.784,compass,-63.435,0.448,149.216,-0.877,0.671,-0.75,0.0,4.1497899193573184,-60.0,314.661,4.533,23159.135,False,-4.531679621380193,0.4071588471815952,4.25,-0.051,-0.395,-9.875,0.058,314.661,318.525,True,0,1,0,0
-0.869,0.336,-0.787,compass,-73.301,0.112,77.287,-0.857,1.119,-0.77,0.0,4.127035478087958,-60.0,314.629,4.467,23159.235,False,-4.46688357710291,0.3987410752808973,4.25,-0.051,-0.395,-9.875,0.042,314.629,318.908,True,0,1,0,0
-0.718,0.112,-0.785,compass,-78.69,0.224,99.636,-0.838,0.56,-0.77,0.0,4.161106761468111,-60.0,314.574,4.467,23159.335,False,-4.466761163961547,0.39447453025074025,4.25,-0.051,-0.434,-9.836,0.042,314.574,318.908,True,0,1,0,0
-0.649,0.112,-0.781,compass,-67.415,0.224,44.28,-0.839,0.671,-0.75,1.99,4.046834097296142,-60.0,314.557,4.456,23159.435,False,-4.43572075211957,0.3921615653294492,4.25,-0.012,-0.395,-9.797,0.048,314.557,318.397,True,0,1,0,0
-0.577,0.0,-0.775,compass,-71.207,0.112,1.991,-0.847,1.231,-0.75,1.99,3.984108375254012,-60.0,314.554,4.456,23159.535,False,-4.3699374557196915,0.3918633776402259,4.25,-0.012,-0.434,-9.797,0.048,314.554,318.397,True,0,1,0,0
-0.528,-0.112,-0.767,compass,-67.879,0.112,-32.83,-0.856,0.224,-0.62,2.03,3.9586214920032496,-60.0,314.553,4.526,23159.635,False,-4.391593521611649,0.3979479241656353,4.28,-0.012,-0.395,-9.797,0.11,314.553,318.747,True,0,1,0,0
-0.484,-0.112,-0.759,compass,-71.078,-0.112,-58.892,-0.868,0.895,-0.62,2.03,3.954512750292723,-60.0,314.543,4.526,23159.736,False,-4.323297356130492,0.397158796668301,4.28,-0.012,-0.469,-9.762,0.11,314.543,318.747,True,0,1,0,0
-0.445,-0.336,-0.749,compass,-73.656,0.224,-79.219,-0.889,0.895,-0.56,2.07,3.965325124205913,-60.0,314.526,4.504,23159.836,False,-4.240403515061616,0.39397795731333807,4.28,-0.051,-0.469,-9.836,0.129,314.526,318.825,True,0,1,0,0
-0.405,-0.112,-0.739,compass,-69.519,0.112,-95.508,-0.895,0.56,-0.56,2.07,3.977129244950625,-60.0,314.503,4.504,23159.936,False,-4.198601427539838,0.39219605507223565,4.28,-0.051,-0.469,-9.836,0.129,314.503,318.825,True,0,1,0,0
-0.362,-0.112,-0.728,compass,-68.481,-0.56,-108.813,-0.906,0.336,-0.56,2.03,3.985935089472827,-60.0,314.471,4.518,23160.036,False,-4.194454715606886,0.39085884672431664,4.28,-0.129,-0.547,-9.914,0.129,314.471,319.234,True,0,1,0,0
-0.28,0.224,-0.714,compass,-61.164,-0.56,-119.656,-0.901,-0.112,-0.56,2.03,3.9812250332803707,-60.0,314.41,4.518,23160.136,False,-4.195418840440139,0.3860867034399639,4.28,-0.129,-0.547,-9.953,0.116,314.41,319.234,True,0,1,0,0
-0.23,0.112,-0.7,compass,-75.962,-0.448,-54.214,-0.909,0.448,-0.56,0.0,4.062469499322923,-60.0,314.378,4.458,23160.236,False,-4.273769384691448,0.378445070701007,4.28,-0.09,-0.547,-9.953,0.116,314.378,319.381,True,0,1,0,0
-0.186,0.448,-0.684,compass,-44.997,-0.783,-2.959,-0.905,0.448,-0.54,0.0,4.111631571231151,-60.0,314.346,4.458,23160.336,False,-4.350113712614914,0.3759848426814403,4.28,-0.051,-0.547,-9.957,0.115,314.346,319.381,True,0,1,0,0
-0.157,0.336,-0.668,compass,-18.433,-0.448,36.585,-0.9,0.112,-0.54,0.0,4.18150814313734,-60.0,314.309,4.555,23160.436,False,-4.497251074644149,0.3811787180220551,4.28,-0.09,-0.586,-9.996,0.115,314.309,319.296,True,0,1,0,0
-0.125,0.448,-0.652,compass,-26.562,-0.783,67.543,-0.885,0.224,-0.44,0.0,4.220318289174591,-60.0,314.255,4.555,23160.537,False,-4.525586819235838,0.37695344032210726,4.28,-0.051,-0.547,-9.996,0.155,314.255,319.296,True,0,1,0,0
-0.106,0.336,-0.636,compass,18.433,-0.56,91.529,-0.875,-0.112,-0.44,0.0,4.236811836706196,-60.0,314.193,4.463,23160.637,False,-4.451025235746731,0.36454280023371405,4.28,-0.051,-0.586,-9.953,0.155,314.193,318.793,True,0,1,0,0
-0.095,0.336,-0.619,compass,44.997,-0.448,110.106,-0.861,-0.336,-0.44,0.0,4.23110110864358,-60.0,314.124,4.463,23160.737,False,-4.459505169059657,0.3592109036958044,4.28,-0.051,-0.625,-9.953,0.155,314.124,318.793,True,0,1,0,0
-0.073,0.0,-0.603,compass,-0.0,-0.783,124.398,-0.858,0.0,-0.54,0.0,4.278769027652857,-60.0,314.058,4.448,23160.837,False,-4.447497210763978,0.3528230291460158,4.28,-0.051,-0.66,-9.914,0.106,314.058,318.958,True,0,1,0,0
-0.061,-0.112,-0.587,compass,-135.003,-0.895,135.675,-0.866,0.112,-0.54,0.0,4.300416922660427,-60.0,314.001,4.448,23160.937,False,-4.4477557961031415,0.3484570282111631,4.28,-0.051,-0.66,-9.953,0.106,314.001,318.958,True,0,1,0,0
-0.069,-0.336,-0.571,compass,-161.567,-0.783,144.912,-0.883,0.112,-0.54,0.0,4.31863916652383,-60.0,313.957,4.471,23161.037,False,-4.4706878407631025,0.346824496821122,4.28,-0.051,-0.586,-9.875,0.106,313.957,318.484,True,0,1,0,0
-0.063,-0.336,-0.556,compass,120.967,-0.671,152.001,-0.948,-0.56,-0.54,0.0,4.279621313065144,-60.0,313.917,4.471,23161.137,False,-4.469986854403374,0.3437499550937133,4.28,-0.09,-0.625,-9.879,0.096,313.917,318.484,True,0,1,0,0
-0.083,-0.56,-0.542,compass,119.058,-0.224,157.203,-1.01,-1.007,-0.54,0.0,4.1851066080026715,-60.0,313.916,4.465,23161.237,False,-4.462657091225134,0.3431942163509663,4.28,-0.09,-0.547,-9.836,0.096,313.916,316.726,True,0,1,0,0
-0.093,-0.671,-0.528,compass,130.606,-0.112,160.55,-1.075,-0.783,-0.54,0.0,4.151076572514998,-60.0,313.914,4.465,23161.337,False,-4.458296081821072,0.34306964105677834,4.28,-0.09,-0.508,-9.84,0.096,313.914,316.726,True,0,1,0,0
-0.123,-0.783,-0.516,compass,150.26,0.56,162.962,-1.164,-0.448,-0.58,0.0,4.16696969264884,-60.0,313.919,4.43,23161.437,False,-4.417453859898929,0.34073071951465966,4.3,-0.09,-0.469,-9.797,0.073,313.919,316.517,True,0,1,0,0
-0.159,-0.783,-0.506,compass,144.469,0.112,164.649,-1.24,-0.56,-0.58,0.0,4.213184618116754,-60.0,313.917,4.43,23161.537,False,-4.410159488112438,0.34062126805075016,4.3,-0.09,-0.469,-9.84,0.073,313.917,316.517,True,0,1,0,0
-0.211,-0.56,-0.497,compass,-180.0,-0.0,166.82,-1.315,0.0,-0.66,0.0,4.188913853062062,-60.0,313.903,4.376,23161.637,False,-4.355895142648623,0.3353749642060825,4.3,-0.129,-0.434,-9.879,0.025,313.903,317.581,True,0,1,0,0
-0.264,-0.56,-0.49,compass,141.348,0.112,167.982,-1.368,-0.448,-0.66,0.0,4.1792106276867464,-60.0,313.894,4.376,23161.737,False,-4.351777021293745,0.33464519360954026,4.3,-0.129,-0.508,-9.918,0.025,313.894,317.581,True,0,1,0,0
-0.31,-0.336,-0.484,compass,120.971,0.224,168.755,-1.402,-0.56,-0.56,0.0,4.208885137191873,-60.0,313.881,4.434,23161.837,False,-4.405059638289761,0.33810932844649916,4.3,-0.129,-0.508,-9.957,0.073,313.881,318.017,True,0,1,0,0
-0.362,0.0,-0.481,compass,90.0,-0.0,168.956,-1.424,-0.895,-0.56,0.0,4.234105204699942,-60.0,313.881,4.434,23161.937,False,-4.397291336889189,0.3381408975067656,4.3,-0.129,-0.508,-9.996,0.073,313.881,318.017,True,0,1,0,0
-0.455,0.224,-0.48,compass,68.193,0.112,169.668,-1.419,-0.56,-0.66,0.0,4.253547710645979,-60.0,313.877,4.407,23162.037,False,-4.369388876401985,0.3357163181237597,4.3,-0.129,-0.508,-9.996,0.016,313.877,317.532,True,0,1,0,0
-0.499,0.112,-0.48,compass,71.561,0.224,170.608,-1.407,-0.336,-0.66,0.0,4.276118450370857,-60.0,313.894,4.407,23162.137,False,-4.372613857839551,0.3369964021840707,4.3,-0.09,-0.508,-9.996,0.016,313.894,317.532,True,0,1,0,0
-0.542,0.112,-0.482,compass,75.96,0.448,171.2,-1.395,-0.448,-0.66,0.0,4.271699251457849,-60.0,313.91,4.316,23162.237,False,-4.283045869019851,0.33126256151331873,4.3,-0.051,-0.469,-9.953,0.016,313.91,317.354,True,0,1,0,0
-0.585,-0.112,-0.485,compass,98.132,0.448,171.133,-1.384,-0.783,-0.71,0.0,4.270407149943205,-60.0,313.949,4.316,23162.338,False,-4.2790329061329615,0.33417008051155705,4.3,-0.09,-0.434,-9.918,-0.002,313.949,317.354,True,0,1,0,0
-0.62,-0.224,-0.489,compass,-153.44,0.224,172.147,-1.377,0.112,-0.71,0.0,4.259669211655608,-60.0,314.003,4.339,23162.438,False,-4.309171031279129,0.3400584363787333,4.3,-0.051,-0.395,-9.875,-0.002,314.003,317.346,True,0,1,0,0
-0.658,-0.336,-0.494,compass,126.876,0.56,172.43,-1.379,-0.448,-0.71,0.0,4.237281015165902,-60.0,314.073,4.339,23162.538,False,-4.309957978718755,0.3453078905761778,4.3,-0.051,-0.355,-9.84,-0.002,314.073,317.346,True,0,1,0,0
-0.706,-0.56,-0.501,compass,149.042,0.671,172.36,-1.393,-0.336,-0.87,0.0,4.2440508284977305,-60.0,314.148,4.353,23162.638,False,-4.321539357986342,0.35213854996923966,4.3,-0.012,-0.355,-9.758,-0.055,314.148,317.464,True,0,1,0,0
-0.758,-0.56,-0.509,compass,-158.203,0.56,172.92,-1.417,0.224,-0.87,0.0,4.202418070511065,-60.0,314.218,4.353,23162.738,False,-4.325405698143869,0.35738960299860517,4.3,-0.051,-0.316,-9.762,-0.055,314.218,317.464,True,0,1,0,0
-0.813,-0.56,-0.518,compass,-180.0,0.671,173.956,-1.434,0.0,-0.87,0.0,4.199866665730787,-60.0,314.297,4.475,23162.838,False,-4.454783206201809,0.37357305051733847,4.3,-0.051,-0.355,-9.762,-0.049,314.297,318.085,True,0,1,0,0
-0.888,-0.448,-0.529,compass,165.967,0.671,174.208,-1.475,-0.112,-0.87,0.0,4.209389170468744,-60.0,314.435,4.475,23162.938,False,-4.456470376796076,0.38433981088769625,4.3,-0.09,-0.395,-9.84,-0.049,314.435,318.085,True,0,1,0,0
-0.933,-0.448,-0.541,compass,143.136,0.671,174.142,-1.48,-0.336,-0.83,0.0,4.200079620832325,-60.0,314.505,4.362,23163.038,False,-4.343234066519577,0.379938528056901,4.3,-0.129,-0.434,-9.879,-0.024,314.505,317.469,True,0,1,0,0
