imu.roll,imu.pitchrate,imu.heel,ap.mode,ap.wind_angle,imu.headingrate,ap.true_wind_angle,imu.pitch,imu.rollrate,rudder.angle,wind.speed,ap.true_wind_speed,ap.heading_error,ap.heading,gps.speed,timestamp,ap.enabled,ap.vmg,ap.cmg,sow.speed,imu.accel_X,imu.accel_Y,imu.accel_Z,rudder.speed,imu.heading,gps.track,perf.quality_flag,perf.boat_config.Main,perf.boat_config.jib,perf.boat_config.spi,perf.boat_config.weight
-0.257,0.0,-0.498,compass,-90.0,-0.112,32.616,-1.002,1.343,0.14,0.0,3.4469116288500365,-60.0,261.077,3.74,23315.043,False,-3.720350136413058,-2.7983033462668554,3.79,-0.051,-0.508,-9.875,-0.326,261.077,259.102,True,0,1,0,0
-0.227,-0.112,-0.49,compass,-101.312,-0.0,-12.994,-1.008,0.56,0.14,0.0,3.460782494661621,-60.0,261.032,3.74,23315.143,False,-3.733263559195137,-2.8002687629635696,3.79,-0.051,-0.547,-9.879,-0.326,261.032,259.102,True,0,1,0,0
-0.203,0.0,-0.481,compass,90.0,-0.0,-48.703,-1.0,-0.671,0.18,0.0,3.475286192839132,-60.0,260.987,3.88,23315.243,False,-3.8784066291523334,-2.9070769340446216,3.79,-0.051,-0.508,-9.875,-0.28,260.987,257.747,True,0,1,0,0
-0.177,-0.112,-0.472,compass,104.038,-0.448,-77.05,-1.002,-0.448,0.18,0.0,3.5104846219913597,-60.0,260.941,3.88,23315.343,False,-3.879769078610331,-2.9091035346279432,3.79,-0.09,-0.586,-9.918,-0.28,260.941,257.747,True,0,1,0,0
-0.162,0.0,-0.463,compass,90.0,-0.448,-99.022,-1.005,-0.112,0.16,0.0,3.5633443024347056,-60.0,260.902,3.804,23315.444,False,-3.8044066321554744,-2.8540084148151927,3.76,-0.051,-0.547,-9.84,-0.261,260.902,257.434,True,0,1,0,0
-0.131,0.112,-0.453,compass,-75.962,-0.671,-116.152,-1.01,0.448,0.16,0.0,3.561454061438879,-60.0,260.821,3.804,23315.544,False,-3.8042159114340706,-2.857531014310983,3.76,-0.051,-0.547,-9.879,-0.261,260.821,257.434,True,0,1,0,0
-0.115,0.112,-0.443,compass,75.306,-0.56,-53.174,-1.023,1.007,0.05,1.99,3.3152461951201646,-60.0,260.791,3.764,23315.644,False,-3.761889300323504,-2.828175692039276,3.76,-0.051,-0.586,-9.836,-0.291,260.791,258.484,True,0,1,0,0
-0.125,-0.112,-0.433,compass,82.505,-0.56,-7.15,-1.033,0.112,0.05,1.99,3.1158680451878125,-60.0,260.761,3.764,23315.744,False,-3.7385233360703514,-2.8294631053621537,3.76,-0.051,-0.547,-9.879,-0.291,260.761,258.484,True,0,1,0,0
-0.129,-0.224,-0.424,compass,85.229,-0.783,24.406,-1.038,-0.895,0.05,2.19,3.0079144022212967,-60.0,260.736,3.725,23315.844,False,-3.6014893536998236,-2.8013092933407466,3.76,-0.051,-0.547,-9.879,-0.291,260.736,258.86,True,0,1,0,0
-0.138,-0.224,-0.415,compass,85.117,-0.112,49.401,-1.048,-0.783,-0.01,2.19,3.0080240265616975,-60.0,260.716,3.725,23315.944,False,-3.48275791307226,-2.8021598521616973,3.76,-0.09,-0.547,-9.875,-0.282,260.716,258.86,True,0,1,0,0
-0.152,-0.112,-0.408,compass,72.83,-0.0,69.505,-1.063,-0.56,-0.01,2.209,3.07179981682952,-60.0,260.697,3.832,23316.044,False,-3.4774584006567464,-2.8834753095293544,3.76,-0.09,-0.586,-9.879,-0.282,260.697,260.093,True,0,1,0,0
-0.175,-0.112,-0.401,compass,71.0,-0.112,86.101,-1.079,-0.112,-0.01,2.209,3.1388685483151972,-60.0,260.671,3.832,23316.144,False,-3.411263918072405,-2.8845812785636538,3.76,-0.09,-0.508,-9.879,-0.282,260.671,260.093,True,0,1,0,0
-0.203,-0.112,-0.395,compass,69.927,-0.336,99.7,-1.101,0.112,-0.01,2.229,3.190953897219323,-60.0,260.661,3.824,23316.245,False,-3.3702651491643527,-2.8791662298097855,3.76,-0.09,-0.586,-9.879,-0.254,260.661,258.668,True,0,1,0,0
-0.231,0.0,-0.39,compass,72.711,-0.224,108.443,-1.113,-0.895,-0.01,2.229,3.2725289258939627,-60.0,260.642,3.824,23316.345,False,-3.280376796478402,-2.880025672588394,3.76,-0.09,-0.508,-9.879,-0.254,260.642,258.668,True,0,1,0,0
-0.325,0.112,-0.388,compass,73.299,-0.112,114.008,-1.125,-1.455,-0.01,2.249,3.3640744250429435,-60.0,260.633,3.721,23316.445,False,-3.0738090276580325,-2.8027956503612987,3.76,-0.129,-0.547,-9.875,-0.254,260.633,258.832,True,0,1,0,0
-0.374,0.112,-0.387,compass,72.243,0.112,118.974,-1.129,-1.119,-0.07,2.249,3.432235670485753,-60.0,260.634,3.721,23316.545,False,-2.9986495456201614,-2.802766177077863,3.76,-0.09,-0.469,-9.879,-0.25,260.634,258.832,True,0,1,0,0
-0.413,0.224,-0.388,compass,68.888,0.448,124.466,-1.132,-0.56,-0.07,2.09,3.4527532531757337,-60.0,260.625,3.742,23316.645,False,-3.017710022375664,-2.81927355799917,3.76,-0.09,-0.508,-9.918,-0.25,260.625,257.97,True,0,1,0,0
-0.467,0.224,-0.391,compass,67.8,0.224,129.139,-1.142,-0.336,-0.07,2.09,3.461679424056637,-60.0,260.625,3.742,23316.745,False,-3.0343824452091175,-2.8192459578962534,3.76,-0.051,-0.469,-9.875,-0.25,260.625,257.97,True,0,1,0,0
-0.513,0.336,-0.394,compass,76.096,0.448,133.607,-1.13,0.0,-0.09,2.07,3.483570265715927,-60.0,260.622,3.791,23316.845,False,-3.1180189178611384,-2.8560129774826657,3.76,-0.051,-0.508,-9.875,-0.232,260.622,258.05,True,0,1,0,0
-0.553,0.112,-0.399,compass,78.69,0.224,137.637,-1.124,0.224,-0.09,2.07,3.509669690242775,-60.0,260.613,3.791,23316.945,False,-3.1713002724274046,-2.8564070062703752,3.76,-0.051,-0.434,-9.875,-0.232,260.613,258.05,True,0,1,0,0
-0.589,0.112,-0.405,compass,80.207,0.336,139.682,-1.111,-0.336,-0.17,2.09,3.521088867932166,-60.0,260.604,3.631,23317.045,False,-3.0389173498868085,-2.736666993284215,3.76,-0.051,-0.469,-9.875,-0.249,260.604,256.722,True,0,1,0,0
-0.618,-0.224,-0.411,compass,85.602,0.112,140.136,-1.114,-1.119,-0.17,2.09,3.584344801709752,-60.0,260.604,3.631,23317.145,False,-2.999717945692829,-2.736649685560791,3.76,-0.051,-0.395,-9.836,-0.249,260.604,256.722,True,0,1,0,0
-0.634,-0.112,-0.418,compass,83.397,-0.112,141.882,-1.1,-0.448,-0.17,2.11,3.6333016734699104,-60.0,260.605,3.732,23317.245,False,-3.1023368613228834,-2.812806686867949,3.76,-0.09,-0.434,-9.84,-0.249,260.605,256.34,True,0,1,0,0
-0.669,-0.112,-0.425,compass,82.417,-0.112,144.239,-1.098,0.112,-0.21,2.11,3.6588706563105378,-60.0,260.605,3.732,23317.345,False,-3.1522588841337345,-2.8127811174656934,3.78,-0.051,-0.395,-9.836,-0.237,260.605,256.34,True,0,1,0,0
-0.679,0.0,-0.433,compass,79.527,-0.112,146.767,-1.099,0.56,-0.21,2.15,3.6673058374071386,-60.0,260.595,3.734,23317.445,False,-3.2143589510852904,-2.814662436749963,3.78,-0.051,-0.395,-9.836,-0.237,260.595,256.03,True,0,1,0,0
-0.689,-0.112,-0.441,compass,80.446,-0.112,149.383,-1.1,0.895,-0.21,2.15,3.6672114894056413,-60.0,260.601,3.734,23317.545,False,-3.280031672750923,-2.814428016554841,3.78,-0.09,-0.395,-9.797,-0.237,260.601,256.03,True,0,1,0,0
-0.693,-0.224,-0.448,compass,83.769,-0.224,150.242,-1.105,0.336,-0.25,2.09,3.6994919785448452,-60.0,260.596,3.729,23317.646,False,-3.2873542427153675,-2.8102628215185423,3.78,-0.09,-0.395,-9.84,-0.227,260.596,258.257,True,0,1,0,0
-0.698,-0.112,-0.456,compass,83.418,-0.112,149.637,-1.11,-0.448,-0.25,2.09,3.762678248890679,-60.0,260.586,3.729,23317.746,False,-3.2572629463086518,-2.810686193727113,3.78,-0.09,-0.395,-9.84,-0.227,260.586,258.257,True,0,1,0,0
-0.693,-0.224,-0.463,compass,79.332,-0.112,149.2,-1.114,-0.671,-0.27,2.01,3.8113072184642003,-60.0,260.576,3.75,23317.846,False,-3.2528106415529443,-2.8272375570275208,3.78,-0.051,-0.395,-9.836,-0.214,260.576,257.907,True,0,1,0,0
-0.683,0.0,-0.469,compass,72.985,-0.0,150.15,-1.113,0.224,-0.27,2.01,3.8042844349640497,-60.0,260.566,3.75,23317.946,False,-3.2763663947265838,-2.827667260059211,3.78,-0.09,-0.469,-9.879,-0.214,260.566,257.907,True,0,1,0,0
-0.678,0.224,-0.476,compass,-68.196,-0.112,156.52,-1.108,0.56,-0.11,0.0,3.743725675366928,-60.0,260.556,3.758,23318.046,False,-3.4613512954882797,-2.8339533317819594,3.78,-0.09,-0.395,-9.879,-0.112,260.556,257.761,True,0,1,0,0
-0.659,0.112,-0.481,compass,-82.874,-0.0,82.634,-1.096,0.895,-0.11,0.0,3.6435091463044795,-60.0,260.541,3.758,23318.146,False,-3.5784915876839807,-2.834609539100983,3.78,-0.051,-0.434,-9.875,-0.112,260.541,257.761,True,0,1,0,0
-0.621,0.224,-0.485,compass,-44.997,-0.0,25.146,-1.073,0.224,0.32,0.0,3.6197810993486623,-60.0,260.531,3.707,23318.246,False,-3.60319976053941,-2.79690440864719,3.8,-0.051,-0.395,-9.914,0.112,260.531,259.184,True,0,1,0,0
-0.613,0.112,-0.489,compass,71.563,-0.112,-19.882,-1.052,-0.336,0.32,0.0,3.598872068966823,-60.0,260.516,3.707,23318.346,False,-3.644654413356694,-2.797535395111905,3.8,-0.051,-0.469,-9.875,0.112,260.516,259.184,True,0,1,0,0
-0.59,0.112,-0.492,compass,71.563,0.112,23.922,-1.035,-0.336,0.32,0.0,3.565341336102327,-60.0,260.511,3.612,23318.446,False,-3.5734240796885577,-2.7258392457198966,3.8,-0.051,-0.434,-9.914,0.112,260.511,259.611,True,0,1,0,0
-0.561,0.0,-0.494,compass,-90.0,-0.112,-20.763,-1.022,0.336,0.69,0.0,3.535581097185502,-60.0,260.496,3.612,23318.546,False,-3.589519617833287,-2.726473976987531,3.8,-0.051,-0.508,-9.914,0.225,260.496,259.611,True,0,1,0,0
-0.537,0.0,-0.496,compass,-90.0,-0.112,-55.076,-1.005,0.56,0.69,0.0,3.5191481966540383,-60.0,260.471,3.748,23318.646,False,-3.7374798198056087,-2.8302666191527486,3.8,-0.051,-0.469,-9.914,0.225,260.471,258.847,True,0,1,0,0
-0.503,0.0,-0.496,compass,-90.0,-0.0,-81.167,-0.996,0.895,0.4,0.0,3.4837080198447996,-60.0,260.441,3.748,23318.746,False,-3.745753977046267,-2.8315480814030383,3.8,-0.051,-0.547,-9.918,0.057,260.441,258.847,True,0,1,0,0
-0.474,-0.112,-0.495,compass,-95.711,-0.112,-100.329,-0.993,1.119,0.4,0.0,3.4520840429390782,-60.0,260.406,3.697,23318.846,False,-3.696941879309862,-2.7948546385070836,3.8,-0.051,-0.469,-9.875,0.057,260.406,256.79,True,0,1,0,0
-0.439,-0.224,-0.493,compass,-123.693,-0.0,-116.357,-0.994,0.336,0.4,0.0,3.488571622750408,-60.0,260.376,3.697,23318.946,False,-3.6946715527534257,-2.7961271914909567,3.8,-0.051,-0.547,-9.879,0.057,260.376,256.79,True,0,1,0,0
-0.403,-0.336,-0.491,compass,120.967,-0.0,-128.8,-1.005,-0.56,-0.4,0.0,3.4901075972929445,-60.0,260.335,3.806,23319.046,False,-3.8001739225674402,-2.8802370715393133,3.8,-0.051,-0.508,-9.875,-0.213,260.335,255.945,True,0,1,0,0
-0.367,-0.112,-0.487,compass,116.568,-0.448,-139.13,-1.016,-0.224,-0.4,0.0,3.5298326318453346,-60.0,260.294,3.806,23319.146,False,-3.7994754046286476,-2.8819840311820597,3.8,-0.051,-0.508,-9.875,-0.213,260.294,255.945,True,0,1,0,0
-0.315,-0.112,-0.482,compass,-135.004,-0.448,-147.065,-1.04,0.112,-0.4,0.0,3.5081439964201193,-60.0,260.219,3.507,23319.246,False,-3.499744064268103,-2.6583367135923837,3.79,-0.09,-0.508,-9.879,-0.213,260.219,256.103,True,0,1,0,0
-0.284,0.112,-0.476,compass,-82.874,-0.56,-152.13,-1.046,0.895,-0.58,0.0,3.429902718812208,-60.0,260.183,3.507,23319.346,False,-3.493518854475506,-2.6597556099388022,3.79,-0.09,-0.508,-9.918,-0.253,260.183,256.103,True,0,1,0,0
-0.263,-0.112,-0.47,compass,-97.126,-0.336,-155.839,-1.064,0.895,-0.58,0.0,3.3892680875953007,-60.0,260.167,3.509,23319.447,False,-3.487570188297909,-2.661868092853328,3.79,-0.09,-0.508,-9.879,-0.253,260.167,256.176,True,0,1,0,0
-0.252,0.0,-0.463,compass,-90.0,-0.448,-159.683,-1.072,0.336,-0.79,0.0,3.3980737919085864,-60.0,260.147,3.509,23319.547,False,-3.487146767864326,-2.6626699492307777,3.79,-0.09,-0.547,-9.914,-0.332,260.147,256.176,True,0,1,0,0
-0.242,0.112,-0.456,compass,81.869,-0.448,-162.521,-1.071,-0.783,-0.79,0.0,3.4128089911647503,-60.0,260.141,3.824,23319.647,False,-3.79844812827736,-2.9018847424935217,3.79,-0.09,-0.469,-9.879,-0.332,260.141,256.447,True,0,1,0,0
-0.247,0.224,-0.45,compass,74.052,-0.224,-165.29,-1.077,-0.783,-0.79,0.0,3.4073436183001915,-60.0,260.147,3.824,23319.747,False,-3.801239504008327,-2.901655051525079,3.79,-0.09,-0.508,-9.918,-0.332,260.147,256.447,True,0,1,0,0
-0.248,0.112,-0.444,compass,71.562,-0.112,-168.105,-1.067,-0.336,-0.87,0.0,3.4478457730034897,-60.0,260.167,3.781,23319.847,False,-3.764928392569532,-2.8683429170147847,3.79,-0.09,-0.508,-9.918,-0.326,260.167,257.775,True,0,1,0,0
-0.248,0.336,-0.438,compass,-18.432,-0.0,-170.222,-1.058,0.112,-0.87,0.0,3.478918958923477,-60.0,260.177,3.781,23319.947,False,-3.7686917095603425,-2.8679078504632205,3.79,-0.051,-0.469,-9.914,-0.326,260.177,257.775,True,0,1,0,0
-0.26,0.224,-0.433,compass,-68.196,0.112,-171.159,-1.04,0.56,-0.87,0.0,3.453107523383504,-60.0,260.197,3.676,23320.047,False,-3.662951521301003,-2.787433082687599,3.79,-0.09,-0.547,-9.914,-0.326,260.197,256.144,True,0,1,0,0
-0.275,0.0,-0.428,compass,90.0,0.112,-172.232,-1.037,-0.112,-1.11,0.0,3.4888877719618847,-60.0,260.223,3.676,23320.147,False,-3.6638848654800644,-2.786371224927237,3.8,-0.09,-0.508,-9.918,-0.373,260.223,256.144,True,0,1,0,0
-0.291,0.112,-0.424,compass,82.874,-0.112,-94.886,-1.033,-0.895,-1.11,0.0,3.4260438207004253,-60.0,260.243,3.645,23320.247,False,-3.6380008390523457,-2.7619640557650507,3.8,-0.051,-0.547,-9.918,-0.373,260.243,257.2,True,0,1,0,0
-0.305,0.0,-0.42,compass,90.0,0.336,-34.75,-1.04,-0.783,-1.11,0.0,3.402422637151295,-60.0,260.278,3.645,23320.347,False,-3.641567725927518,-2.7605118602400096,3.8,-0.051,-0.469,-9.875,-0.373,260.278,257.2,True,0,1,0,0
-0.314,-0.112,-0.417,compass,116.569,0.56,-66.475,-1.052,-0.224,-2.4,0.0,3.44485548841891,-60.0,260.307,3.672,23320.447,False,-3.669562826339315,-2.779891600775733,3.8,-0.09,-0.508,-9.879,-0.765,260.307,257.561,True,0,1,0,0
-0.322,-0.112,-0.414,compass,135.005,0.783,-91.11,-1.073,-0.112,-2.4,0.0,3.4891215519189256,-60.0,260.342,3.672,23320.547,False,-3.6698529915565823,-2.778445537662363,3.8,-0.051,-0.434,-9.875,-0.765,260.342,257.561,True,0,1,0,0
-0.336,-0.224,-0.412,compass,-135.005,0.56,-110.428,-1.09,0.224,-3.34,0.0,3.516595940849822,-60.0,260.366,3.767,23320.647,False,-3.7655061107446057,-2.8494482028015367,3.8,-0.09,-0.508,-9.879,-1.158,260.366,258.127,True,0,1,0,0
-0.35,0.0,-0.41,compass,-90.0,0.671,-125.228,-1.107,0.56,-3.34,0.0,3.504973322344424,-60.0,260.406,3.767,23320.747,False,-3.7652369578976317,-2.847759940610571,3.8,-0.09,-0.434,-9.879,-1.158,260.406,258.127,True,0,1,0,0
-0.373,-0.224,-0.409,compass,153.439,1.007,-137.244,-1.125,-0.112,-3.4,0.0,3.5095369013138797,-60.0,260.44,3.637,23320.847,False,-3.635814752582331,-2.7478585438360783,3.8,-0.09,-0.508,-9.879,-1.072,260.44,259.071,True,0,1,0,0
-0.397,-0.112,-0.409,compass,97.126,0.224,-68.548,-1.142,-0.895,-3.4,0.0,3.469515271615421,-60.0,260.475,3.637,23320.947,False,-3.63720058910145,-2.7464078258901443,3.8,-0.09,-0.434,-9.879,-1.072,260.475,259.071,True,0,1,0,0
-0.456,0.112,-0.411,compass,-44.995,0.224,-50.179,-1.159,0.112,-3.34,0.0,3.550009203303227,-60.0,260.575,3.769,23321.147,False,-3.7693075453040112,-2.8419079012420996,3.8,-0.09,-0.434,-9.879,-0.935,260.575,258.757,True,0,1,0,0
-0.456,0.112,-0.411,compass,-44.995,0.224,-50.179,-1.159,0.112,-3.34,0.0,3.550009203303227,-60.0,260.575,3.769,23321.147,False,-3.7693075453040112,-2.8419079012420996,3.8,-0.09,-0.434,-9.879,-0.935,260.575,258.757,True,0,1,0,0
-0.492,0.224,-0.415,compass,-71.562,0.56,-99.547,-1.15,0.671,-3.47,0.0,3.448582243164807,-60.0,260.666,3.643,23321.348,False,-3.641302944339672,-2.742861765848771,3.8,-0.09,-0.434,-9.918,-0.885,260.666,257.669,True,0,1,0,0
-0.512,0.224,-0.418,compass,44.995,0.448,-116.15,-1.143,-0.224,-3.47,0.0,3.4574678983576175,-60.0,260.715,3.661,23321.448,False,-3.657028528354646,-2.753939247358432,3.8,-0.051,-0.434,-9.914,-0.885,260.715,255.92,True,0,1,0,0
-0.512,0.224,-0.418,compass,44.995,0.448,-116.15,-1.143,-0.224,-3.47,0.0,3.4574678983576175,-60.0,260.715,3.661,23321.448,False,-3.657028528354646,-2.753939247358432,3.8,-0.051,-0.434,-9.914,-0.885,260.715,255.92,True,0,1,0,0
-0.574,0.0,-0.426,compass,90.0,0.448,-140.704,-1.13,-0.783,-3.53,0.0,3.3849675055992545,-60.0,260.821,3.738,23321.648,False,-3.7359333180714804,-2.8078785747373085,3.8,-0.051,-0.469,-9.953,-0.826,260.821,256.857,True,0,1,0,0
-0.574,0.0,-0.426,compass,90.0,0.448,-140.704,-1.13,-0.783,-3.53,0.0,3.3849675055992545,-60.0,260.821,3.738,23321.648,False,-3.7359333180714804,-2.8078785747373085,3.8,-0.051,-0.469,-9.953,-0.826,260.821,256.857,True,0,1,0,0
-0.666,-0.112,-0.439,compass,-104.038,0.671,-154.097,-1.102,0.448,-3.79,0.0,3.4501909348554447,-60.0,261.002,3.732,23321.848,False,-3.7260513954040673,-2.795725015762093,3.8,-0.051,-0.434,-9.914,-0.828,261.002,256.501,True,0,1,0,0
-0.666,-0.112,-0.439,compass,-104.038,0.671,-154.097,-1.102,0.448,-3.79,0.0,3.4501909348554447,-60.0,261.002,3.732,23321.848,False,-3.7260513954040673,-2.795725015762093,3.8,-0.051,-0.434,-9.914,-0.828,261.002,256.501,True,0,1,0,0
-0.725,-0.224,-0.455,compass,123.693,0.56,-162.084,-1.118,-0.336,-3.79,0.0,3.4966701630347106,-60.0,261.107,3.769,23322.048,False,-3.7589387806590153,-2.8187967311187965,3.77,-0.051,-0.355,-9.879,-0.828,261.107,256.825,True,0,1,0,0
-0.725,-0.224,-0.455,compass,123.693,0.56,-162.084,-1.118,-0.336,-3.79,0.0,3.4966701630347106,-60.0,261.107,3.769,23322.048,False,-3.7589387806590153,-2.8187967311187965,3.77,-0.051,-0.355,-9.879,-0.828,261.107,256.825,True,0,1,0,0
-0.778,-0.336,-0.473,compass,108.437,0.671,-89.872,-1.14,-1.007,-3.53,0.0,3.417421671601283,-60.0,261.217,3.791,23322.149,False,-3.786472509665251,-2.8299652370082518,3.77,-0.051,-0.355,-9.879,-0.659,261.217,256.32,True,0,1,0,0
-0.778,-0.336,-0.473,compass,108.437,0.671,-89.872,-1.14,-1.007,-3.53,0.0,3.417421671601283,-60.0,261.217,3.791,23322.249,False,-3.786472509665251,-2.8299652370082518,3.77,-0.051,-0.355,-9.879,-0.659,261.217,256.32,True,0,1,0,0
-0.818,-0.112,-0.493,compass,-135.003,0.56,-123.909,-1.155,0.112,-3.49,0.0,3.51697351304706,-60.0,261.331,3.734,23322.449,False,-3.729346649446013,-2.7829234288131945,3.77,-0.051,-0.355,-9.879,-0.573,261.331,257.487,True,0,1,0,0
-0.818,-0.112,-0.493,compass,-135.003,0.56,-123.909,-1.155,0.112,-3.49,0.0,3.51697351304706,-60.0,261.331,3.734,23322.449,False,-3.729346649446013,-2.7829234288131945,3.77,-0.051,-0.355,-9.879,-0.573,261.331,257.487,True,0,1,0,0
-0.848,-0.112,-0.513,compass,116.567,0.671,-144.629,-1.159,-0.224,-3.06,0.0,3.540508418357555,-60.0,261.441,3.775,23322.649,False,-3.769610064448762,-2.808522375703435,3.77,-0.09,-0.355,-9.914,-0.371,261.441,258.47,True,0,1,0,0
-0.848,-0.112,-0.513,compass,116.567,0.671,-144.629,-1.159,-0.224,-3.06,0.0,3.540508418357555,-60.0,261.441,3.775,23322.649,False,-3.769610064448762,-2.808522375703435,3.77,-0.09,-0.355,-9.914,-0.371,261.441,258.47,True,0,1,0,0
-0.9,0.336,-0.536,compass,63.433,0.448,-18.585,-1.136,-0.671,-2.55,0.0,3.4633695579056885,-60.0,261.541,3.674,23322.849,False,-3.6736633586324743,-2.7289996776498153,3.77,-0.051,-0.355,-9.918,-0.077,261.541,259.268,True,0,1,0,0
-0.906,0.112,-0.547,compass,63.433,0.448,-53.916,-1.122,-0.224,-2.55,0.0,3.489175650125402,-60.0,261.571,3.674,23322.949,False,-3.673683972721107,-2.7277123883915637,3.79,-0.051,-0.469,-9.914,-0.077,261.571,259.268,True,0,1,0,0
-0.902,0.224,-0.558,compass,-26.564,0.112,-81.272,-1.107,0.112,-2.55,0.0,3.5162381518839743,-60.0,261.606,3.731,23323.05,False,-3.7298279504460363,-2.7680334832456115,3.79,-0.051,-0.355,-9.879,-0.077,261.606,258.884,True,0,1,0,0
-0.903,0.112,-0.568,compass,-78.689,0.224,-102.467,-1.088,0.56,-2.36,0.0,3.495484446162719,-60.0,261.646,3.731,23323.15,False,-3.729394680735136,-2.766292538348741,3.79,-0.051,-0.434,-9.875,-0.006,261.646,258.884,True,0,1,0,0
-0.9,0.224,-0.578,compass,-77.471,-0.0,-118.171,-1.074,1.007,-2.36,0.0,3.430516974717899,-60.0,261.676,3.738,23323.25,False,-3.734825749093262,-2.770752350713403,3.79,-0.051,-0.395,-9.875,-0.006,261.676,258.123,True,0,1,0,0
-0.897,0.0,-0.588,compass,-90.0,0.112,-130.752,-1.05,0.224,-2.36,0.0,3.4757131972316406,-60.0,261.721,3.738,23323.35,False,-3.733252288831262,-2.7687718525410285,3.79,-0.051,-0.469,-9.875,-0.006,261.721,258.123,True,0,1,0,0
-0.898,0.0,-0.597,compass,90.0,0.112,-140.49,-1.04,-0.783,-2.1,0.0,3.4312395883698557,-60.0,261.747,3.696,23323.45,False,-3.6888995999934364,-2.7360024012813864,3.79,-0.051,-0.434,-9.836,0.081,261.747,257.642,True,0,1,0,0
-0.894,0.112,-0.606,compass,78.69,0.112,-148.494,-1.026,-0.56,-2.1,0.0,3.4226598192066895,-60.0,261.772,3.696,23323.55,False,-3.6890983073862578,-2.7349069391073724,3.79,-0.051,-0.395,-9.836,0.081,261.772,257.642,True,0,1,0,0
-0.86,-0.112,-0.614,compass,-104.037,0.56,-154.363,-1.019,0.448,-2.1,0.0,3.4419081456853733,-60.0,261.811,3.752,23323.65,False,-3.743969115539106,-2.7749061792895278,3.79,-0.051,-0.434,-9.836,0.081,261.811,258.027,True,0,1,0,0
-0.85,0.112,-0.621,compass,-80.537,0.336,-158.486,-1.019,0.671,-1.54,0.0,3.440812841577731,-60.0,261.831,3.752,23323.75,False,-3.740660149204373,-2.774042443108714,3.79,-0.051,-0.434,-9.875,0.26,261.831,258.027,True,0,1,0,0
-0.835,0.112,-0.627,compass,-82.875,0.224,-161.254,-1.023,0.895,-1.54,0.0,3.44435461434106,-60.0,261.84,3.804,23323.85,False,-3.7873093733264884,-2.8124230127973164,3.79,-0.051,-0.395,-9.836,0.26,261.84,258.368,True,0,1,0,0
-0.82,0.0,-0.633,compass,-90.0,0.224,-164.281,-1.017,0.224,-1.54,0.0,3.5078967708232542,-60.0,261.85,3.804,23323.95,False,-3.787885433990306,-2.811986128256518,3.79,-0.051,-0.355,-9.879,0.26,261.85,258.368,True,0,1,0,0
-0.81,0.112,-0.638,compass,81.869,-0.0,-166.224,-1.017,-0.783,-1.18,0.0,3.4909837891474087,-60.0,261.869,3.816,23324.05,False,-3.7972312849964482,-2.8197282391809586,3.79,-0.051,-0.434,-9.836,0.354,261.869,258.002,True,0,1,0,0
-0.801,0.112,-0.643,compass,71.564,0.224,-168.349,-1.006,-0.336,-1.18,0.0,3.5203623060523186,-60.0,261.879,3.816,23324.15,False,-3.7994103385654108,-2.8192818354820757,3.79,-0.051,-0.395,-9.875,0.354,261.879,258.002,True,0,1,0,0
-0.782,0.0,-0.647,compass,0.0,0.336,-169.976,-1.005,0.0,-1.18,0.0,3.570854357351414,-60.0,261.889,3.75,23324.25,False,-3.735013689389844,-2.7700272463777873,3.79,-0.051,-0.434,-9.836,0.354,261.889,257.641,True,0,1,0,0
-0.767,0.0,-0.651,compass,-90.0,0.112,-170.979,-0.999,0.336,-1.14,0.0,3.573928111772588,-60.0,261.899,3.75,23324.35,False,-3.734524869826089,-2.7695959791103317,3.79,-0.051,-0.434,-9.875,0.332,261.899,257.641,True,0,1,0,0
-0.733,0.112,-0.653,compass,-81.869,0.56,-171.158,-0.992,0.783,-1.14,0.0,3.5498240383298407,-60.0,261.914,3.795,23324.45,False,-3.7747518735250383,-2.801957931282339,3.79,-0.051,-0.434,-9.875,0.332,261.914,258.044,True,0,1,0,0
-0.675,0.0,-0.654,compass,-90.0,0.112,-171.934,-0.969,0.224,-1.14,0.0,3.5867483143361354,-60.0,261.923,3.795,23324.55,False,-3.775531419402836,-2.801532273841496,3.79,-0.051,-0.395,-9.875,0.299,261.923,258.044,True,0,1,0,0
-0.641,-0.112,-0.654,compass,104.037,0.224,-172.592,-0.961,-0.448,-1.14,0.0,3.5769704944138354,-60.0,261.918,3.781,23324.65,False,-3.763006008255759,-2.791735871559548,3.79,-0.051,-0.469,-9.875,0.299,261.918,258.027,True,0,1,0,0
-0.616,0.112,-0.652,compass,75.963,0.112,-173.408,-0.964,-0.448,-1.05,0.0,3.566836211008985,-60.0,261.907,3.781,23324.75,False,-3.7656588813291934,-2.7921942633237697,3.79,-0.051,-0.395,-9.875,0.314,261.907,258.027,True,0,1,0,0
-0.586,0.112,-0.65,compass,-63.433,-0.112,-173.937,-0.962,0.224,-1.05,0.0,3.5775566874094444,-60.0,261.897,3.748,23324.85,False,-3.734046023989237,-2.7682415018841287,3.86,-0.051,-0.508,-9.914,0.314,261.897,258.178,True,0,1,0,0
-0.566,0.0,-0.648,compass,-90.0,-0.336,-174.133,-0.97,0.336,-1.05,0.0,3.580746846578177,-60.0,261.877,3.748,23324.951,False,-3.733861905040145,-2.7691329955153887,3.86,-0.051,-0.434,-9.875,0.314,261.877,258.178,True,0,1,0,0
-0.541,0.112,-0.645,compass,-84.289,-0.224,-173.334,-0.973,1.119,-0.91,0.0,3.5471353242231314,-60.0,261.861,3.857,23325.051,False,-3.8360139766277075,-2.850271229627263,3.86,-0.09,-0.508,-9.918,0.329,261.861,259.209,True,0,1,0,0
-0.51,0.0,-0.641,compass,-90.0,-0.56,-172.479,-0.98,1.119,-0.91,0.0,3.542529534669735,-60.0,261.841,3.857,23325.151,False,-3.8284884717256293,-2.8511940589555698,3.86,-0.09,-0.434,-9.918,0.329,261.841,259.209,True,0,1,0,0
-0.49,0.112,-0.636,compass,-75.962,-0.224,-172.787,-0.988,0.448,-0.81,0.0,3.578172359439076,-60.0,261.815,3.828,23325.251,False,-3.8011698691256273,-2.8307851599220095,3.86,-0.09,-0.547,-9.914,0.347,261.815,259.013,True,0,1,0,0
-0.474,-0.112,-0.631,compass,108.437,-0.224,-173.51,-1.0,-0.336,-0.81,0.0,3.5942422545535413,-60.0,261.775,3.828,23325.351,False,-3.806056680224788,-2.832583754609704,3.86,-0.09,-0.469,-9.879,0.347,261.775,259.013,True,0,1,0,0
-0.441,0.0,-0.626,compass,90.0,-0.112,-174.332,-1.036,-0.112,-0.56,0.0,3.6001723558778598,-60.0,261.684,3.682,23325.451,False,-3.666231286377532,-2.728613110229737,3.86,-0.09,-0.547,-9.914,0.432,261.684,258.907,True,0,1,0,0
-0.431,0.0,-0.62,compass,-90.0,0.112,-174.757,-1.044,0.336,-0.56,0.0,3.5804263931368245,-60.0,261.659,3.682,23325.551,False,-3.668311415649381,-2.7297086650508877,3.86,-0.09,-0.547,-9.875,0.432,261.659,258.907,True,0,1,0,0
-0.409,0.0,-0.613,compass,-90.0,0.224,-174.935,-1.062,0.336,-0.54,0.0,3.5982153973591195,-60.0,261.639,3.808,23325.651,False,-3.794907931498365,-2.824303126015969,3.86,-0.09,-0.547,-9.914,0.399,261.639,258.856,True,0,1,0,0
-0.398,0.0,-0.607,compass,-90.0,0.112,-174.819,-1.08,0.448,-0.54,0.0,3.609651716890547,-60.0,261.613,3.808,23325.751,False,-3.794042141775434,-2.82544674475398,3.87,-0.09,-0.508,-9.879,0.399,261.613,258.856,True,0,1,0,0
-0.396,0.0,-0.601,compass,90.0,0.224,-175.035,-1.1,-0.448,-0.48,0.0,3.6032655868926806,-60.0,261.603,3.81,23325.851,False,-3.7969705884960487,-2.8273511385873915,3.87,-0.051,-0.508,-9.875,0.389,261.603,258.638,True,0,1,0,0
-0.4,-0.112,-0.595,compass,98.131,0.224,-175.657,-1.115,-0.783,-0.48,0.0,3.5550091385034093,-60.0,261.602,3.81,23325.951,False,-3.8000002258122842,-2.8273648419070665,3.87,-0.09,-0.508,-9.84,0.389,261.602,258.638,True,0,1,0,0
-0.413,-0.224,-0.589,compass,101.312,0.224,-97.925,-1.141,-1.119,-0.5,0.0,3.485884308009084,-60.0,261.602,3.781,23326.051,False,-3.7765669590756383,-2.805745230873386,3.87,-0.051,-0.508,-9.875,0.34,261.602,258.815,True,0,1,0,0
-0.432,-0.224,-0.584,compass,123.695,0.448,-115.919,-1.162,-0.336,-0.5,0.0,3.519078276979269,-60.0,261.611,3.781,23326.151,False,-3.7781740982804752,-2.8053183275073814,3.87,-0.09,-0.469,-9.84,0.34,261.611,258.815,True,0,1,0,0
-0.451,-0.112,-0.58,compass,104.039,0.448,-51.004,-1.174,-0.448,-0.5,0.0,3.5467051527459335,-60.0,261.627,3.766,23326.251,False,-3.7640478424715504,-2.7931099870494167,3.87,-0.09,-0.469,-9.879,0.34,261.627,258.95,True,0,1,0,0
-0.474,-0.112,-0.577,compass,-108.438,0.56,-79.032,-1.191,0.336,-0.5,0.0,3.55580240679202,-60.0,261.636,3.766,23326.351,False,-3.7640609133197396,-2.7926754440114547,3.87,-0.09,-0.469,-9.84,0.306,261.636,258.95,True,0,1,0,0
-0.538,-0.224,-0.576,compass,105.948,0.336,-22.235,-1.211,-0.783,-0.5,0.0,3.520268653994543,-60.0,261.682,3.729,23326.451,False,-3.727881017217716,-2.7633020199235943,3.87,-0.051,-0.469,-9.836,0.306,261.682,257.765,True,0,1,0,0
-0.582,-0.112,-0.576,compass,94.086,0.112,20.554,-1.22,-1.567,-0.54,0.0,3.4599170589276387,-60.0,261.707,3.729,23326.551,False,-3.728237587306909,-2.7621845354570027,3.87,-0.09,-0.508,-9.879,0.256,261.707,257.765,True,0,1,0,0
-0.617,-0.112,-0.577,compass,94.764,0.112,54.168,-1.218,-1.343,-0.54,0.0,3.457253567182504,-60.0,261.747,3.767,23326.651,False,-3.7650997287657977,-2.7892156037243647,3.87,-0.09,-0.434,-9.84,0.256,261.747,257.86,True,0,1,0,0
-0.643,0.112,-0.579,compass,78.688,0.112,81.748,-1.206,-0.56,-0.54,0.0,3.496209439964315,-60.0,261.783,3.767,23326.752,False,-3.7659130503227654,-2.7876413638588793,3.87,-0.09,-0.469,-9.879,0.256,261.783,257.86,True,0,1,0,0
-0.678,0.112,-0.582,compass,10.782,-0.112,96.997,-1.194,-0.336,-0.48,2.01,3.3919274461980855,-60.0,261.809,3.882,23326.852,False,-3.847862691107529,-2.8713277740018373,3.87,-0.09,-0.395,-9.879,0.25,261.809,258.283,True,0,1,0,0
-0.714,0.224,-0.586,compass,2.393,-0.224,109.221,-1.183,0.224,-0.48,2.01,3.2196376102130166,-60.0,261.83,3.882,23326.952,False,-3.797915207135159,-2.8703888526977925,3.87,-0.09,-0.434,-9.879,0.25,261.83,258.283,True,0,1,0,0
-0.75,0.336,-0.591,compass,-63.432,-0.112,46.142,-1.16,0.671,-0.48,0.0,3.2467320166926092,-60.0,261.831,3.734,23327.052,False,-3.690389378117479,-2.7611032475250377,3.87,-0.051,-0.395,-9.836,0.25,261.831,257.632,True,0,1,0,0
-0.781,0.112,-0.597,compass,71.563,-0.224,-2.969,-1.143,-0.336,-0.44,0.0,3.316455042379216,-60.0,261.827,3.734,23327.152,False,-3.7121856024043494,-2.7612657729634105,3.87,-0.09,-0.434,-9.879,0.238,261.827,257.632,True,0,1,0,0
-0.803,0.112,-0.603,compass,81.869,0.224,36.996,-1.125,-0.783,-0.44,0.0,3.3349271098407804,-60.0,261.838,3.725,23327.252,False,-3.709713513082729,-2.7536153308835734,3.87,-0.051,-0.355,-9.84,0.238,261.838,258.528,True,0,1,0,0
-0.835,0.112,-0.61,compass,44.998,-0.0,-10.178,-1.087,-0.112,-0.52,0.0,3.4061284897805266,-60.0,261.854,3.725,23327.352,False,-3.717933758189864,-2.752895839295288,3.87,-0.09,-0.434,-9.84,0.175,261.854,258.528,True,0,1,0,0
-0.831,0.224,-0.617,compass,-44.998,-0.0,-47.088,-1.073,0.224,-0.52,0.0,3.4601394544321975,-60.0,261.864,3.812,23327.452,False,-3.809234667197336,-2.8170981848549888,3.87,-0.051,-0.355,-9.84,0.175,261.864,258.948,True,0,1,0,0
-0.827,0.224,-0.623,compass,-71.564,0.112,-75.663,-1.058,0.671,-0.48,0.0,3.4530644669179464,-60.0,261.874,3.812,23327.552,False,-3.811484723243981,-2.8166446987952454,3.87,-0.051,-0.395,-9.836,0.176,261.874,258.948,True,0,1,0,0
-0.808,0.0,-0.629,compass,-90.0,0.112,-96.954,-1.047,1.007,-0.48,0.0,3.411923670202447,-60.0,261.894,3.767,23327.652,False,-3.767094065306146,-2.7827374008795926,3.88,-0.051,-0.395,-9.836,0.176,261.894,257.938,True,0,1,0,0
-0.795,0.224,-0.634,compass,-44.998,-0.0,-114.065,-1.031,0.224,-0.48,0.0,3.4568632449915064,-60.0,261.904,3.767,23327.752,False,-3.7656300779243503,-2.7822947981762507,3.88,-0.051,-0.355,-9.84,0.176,261.904,257.938,True,0,1,0,0
-0.77,-0.112,-0.638,compass,101.311,-0.112,-127.95,-1.025,-0.56,-0.56,0.0,3.4839877676108677,-60.0,261.923,3.89,23327.852,False,-3.887508567304539,-2.8718480861513975,3.88,-0.051,-0.395,-9.836,0.131,261.923,259.054,True,0,1,0,0
-0.741,0.112,-0.641,compass,71.564,0.448,-138.938,-1.023,-0.336,-0.56,0.0,3.5326798826831767,-60.0,261.943,3.89,23327.953,False,-3.8874432431694936,-2.8709629158043186,3.88,-0.051,-0.395,-9.875,0.131,261.943,259.054,True,0,1,0,0
-0.711,0.112,-0.643,compass,-75.963,0.448,-147.358,-1.021,0.448,-0.56,0.0,3.5358333104805384,-60.0,261.942,3.797,23328.053,False,-3.793803542136109,-2.802112235211732,3.88,-0.051,-0.395,-9.875,0.131,261.942,259.497,True,0,1,0,0
-0.633,0.112,-0.643,compass,-83.659,0.112,-153.194,-1.005,1.007,-0.54,0.0,3.482920769650627,-60.0,261.932,3.797,23328.153,False,-3.7912236027987345,-2.802590697410945,3.88,-0.051,-0.469,-9.875,0.125,261.932,259.497,True,0,1,0,0
-0.589,0.0,-0.641,compass,-90.0,0.336,-157.302,-0.997,1.119,-0.54,0.0,3.456927360271641,-60.0,261.916,3.828,23328.253,False,-3.8176480856722455,-2.826254945597647,3.88,-0.051,-0.508,-9.875,0.125,261.916,260.072,True,0,1,0,0
-0.544,-0.112,-0.638,compass,-99.463,0.448,-160.887,-0.998,0.671,-0.54,0.0,3.490250050902225,-60.0,261.88,3.828,23328.353,False,-3.8152761365608536,-2.827857558914281,3.88,-0.051,-0.469,-9.875,0.125,261.88,260.072,True,0,1,0,0
-0.505,0.0,-0.634,compass,90.0,-0.0,-164.448,-0.995,-0.336,-0.6,0.0,3.509157429837331,-60.0,261.85,3.746,23328.453,False,-3.7359042248978716,-2.7688641333774435,3.88,-0.051,-0.547,-9.879,0.092,261.85,259.965,True,0,1,0,0
-0.46,0.0,-0.629,compass,90.0,-0.0,-167.498,-0.995,-0.336,-0.6,0.0,3.5212509019082416,-60.0,261.815,3.746,23328.553,False,-3.7385347742169097,-2.7704305929926902,3.88,-0.051,-0.469,-9.914,0.092,261.815,259.965,True,0,1,0,0
-0.419,-0.112,-0.623,compass,135.004,0.112,-169.81,-1.001,-0.112,-0.6,0.0,3.5584007802887743,-60.0,261.769,3.764,23328.653,False,-3.7575658218922965,-2.7853809586765093,3.88,-0.051,-0.547,-9.879,0.092,261.769,259.094,True,0,1,0,0
-0.384,-0.224,-0.615,compass,-153.438,-0.0,-171.387,-1.003,0.112,-0.83,0.0,3.5741303931383177,-60.0,261.734,3.764,23328.753,False,-3.757847912274472,-2.7869467757037816,3.88,-0.051,-0.508,-9.875,0.004,261.734,259.094,True,0,1,0,0
-0.358,-0.112,-0.608,compass,-97.126,-0.448,-171.629,-1.015,0.895,-0.83,0.0,3.5189854454884415,-60.0,261.694,3.736,23328.853,False,-3.726856876691547,-2.768552418145834,3.88,-0.051,-0.547,-9.879,0.004,261.694,258.46,True,0,1,0,0
-0.323,-0.112,-0.599,compass,-95.711,-0.112,-171.121,-1.026,1.119,-0.91,0.0,3.478877306487198,-60.0,261.648,3.736,23328.953,False,-3.7191486045816635,-2.7705476887880374,3.88,-0.09,-0.469,-9.879,-0.037,261.648,258.46,True,0,1,0,0
-0.307,-0.224,-0.59,compass,116.568,-0.112,-172.241,-1.039,-0.448,-0.91,0.0,3.493473636523839,-60.0,261.628,3.812,23329.053,False,-3.797036572881204,-2.8276723018591343,3.88,-0.09,-0.508,-9.879,-0.037,261.628,258.63,True,0,1,0,0
-0.299,-0.336,-0.582,compass,110.559,-0.112,-173.832,-1.072,-0.895,-0.81,0.0,3.4543042329193727,-60.0,261.572,3.806,23329.153,False,-3.802630005385181,-2.8301509953254245,3.88,-0.09,-0.508,-9.879,0.017,261.572,258.073,True,0,1,0,0
-0.303,-0.224,-0.573,compass,135.005,-0.0,-174.811,-1.086,-0.224,-0.81,0.0,3.503459398412054,-60.0,261.537,3.806,23329.253,False,-3.799190271380585,-2.8273875772770816,3.88,-0.09,-0.547,-9.875,0.017,261.537,258.073,True,0,1,0,0
-0.297,0.0,-0.565,compass,-90.0,-0.224,-175.235,-1.1,0.112,-0.81,0.0,3.5569676376279515,-60.0,261.517,3.612,23329.354,False,-3.799477464822836,-2.828284991807297,3.88,-0.09,-0.469,-9.879,0.017,261.517,258.628,True,0,1,0,0
-0.3,-0.112,-0.557,compass,-108.438,0.224,-175.465,-1.115,0.336,-0.93,0.0,3.5283890638032527,-60.0,261.501,3.612,23329.454,False,-3.6052438646216203,-2.6844903498633,3.88,-0.051,-0.469,-9.953,-0.025,261.501,258.628,True,0,1,0,0
-0.31,0.224,-0.55,compass,-68.195,0.224,-175.258,-1.126,0.56,-0.93,0.0,3.4837313788725215,-60.0,261.497,3.795,23329.554,False,-3.603480833395578,-2.6846878663434746,3.88,-0.09,-0.469,-9.918,-0.025,261.497,259.785,True,0,1,0,0
-0.329,0.112,-0.543,compass,44.995,0.224,-175.867,-1.127,-0.112,-0.93,0.0,3.53357707407213,-60.0,261.501,3.795,23329.654,False,-3.7876139827095225,-2.82029713150124,3.88,-0.09,-0.508,-9.957,-0.025,261.501,259.785,True,0,1,0,0
-0.354,0.0,-0.537,compass,90.0,0.112,-176.742,-1.124,-0.895,-0.93,0.0,3.486289404612425,-60.0,261.507,3.861,23329.754,False,-3.790261122644462,-2.820041182632553,3.88,-0.051,-0.469,-9.914,-0.023,261.507,258.344,True,0,1,0,0
-0.38,0.224,-0.533,compass,78.688,0.112,-98.554,-1.121,-1.119,-0.93,0.0,3.4461724958655906,-60.0,261.517,3.861,23329.854,False,-3.8586440008348917,-2.8686945958864394,3.88,-0.09,-0.508,-9.957,-0.023,261.517,258.344,True,0,1,0,0
-0.405,0.112,-0.529,compass,71.562,0.56,-116.125,-1.109,-0.336,-0.95,0.0,3.5025186284413654,-60.0,261.533,3.645,23329.954,False,-3.8587939947892944,-2.8679781325548452,3.88,-0.051,-0.469,-9.914,-0.03,261.533,257.117,True,0,1,0,0
-0.451,0.112,-0.526,compass,-44.996,0.448,-129.269,-1.098,0.112,-0.95,0.0,3.515564980788998,-60.0,261.564,3.645,23330.054,False,-3.6419048400782534,-2.706380444674397,3.88,-0.051,-0.508,-9.953,-0.03,261.564,257.117,True,0,1,0,0
-0.477,0.224,-0.525,compass,-63.432,0.56,-139.373,-1.086,0.448,-1.03,0.0,3.4844226331191654,-60.0,261.6,3.762,23330.154,False,-3.640262256722376,-2.7048630840814827,3.88,-0.051,-0.469,-9.875,-0.067,261.6,257.414,True,0,1,0,0
-0.513,-0.112,-0.525,compass,116.568,0.448,-147.557,-1.074,-0.224,-1.03,0.0,3.5177669615927516,-60.0,261.625,3.762,23330.254,False,-3.7563148209853674,-2.790280270312944,3.88,-0.051,-0.469,-9.914,-0.067,261.625,257.414,True,0,1,0,0
-0.548,0.0,-0.525,compass,90.0,0.224,-76.123,-1.072,-1.231,-1.03,0.0,3.4577689928513307,-60.0,261.656,3.783,23330.354,False,-3.7597715302427184,-2.7889507861825185,3.87,-0.051,-0.469,-9.875,-0.067,261.656,259.551,True,0,1,0,0
-0.578,-0.224,-0.527,compass,104.038,-0.0,-20.762,-1.065,-0.895,-1.01,0.0,3.466632514080621,-60.0,261.676,3.783,23330.454,False,-3.7828998599440764,-2.8039024777690322,3.87,-0.051,-0.469,-9.914,-0.054,261.676,259.551,True,0,1,0,0
-0.608,-0.112,-0.529,compass,98.131,-0.0,22.526,-1.068,-0.783,-1.01,0.0,3.4959405206378777,-60.0,261.682,3.752,23330.554,False,-3.782884372192006,-2.8036497599855896,3.87,-0.051,-0.469,-9.875,-0.054,261.682,258.848,True,0,1,0,0
-0.642,0.0,-0.533,compass,90.0,-0.112,-21.957,-1.075,-0.336,-1.05,0.0,3.5372868462988545,-60.0,261.692,3.752,23330.654,False,-3.751860093404673,-2.780148468502794,3.87,-0.051,-0.355,-9.84,-0.068,261.692,258.848,True,0,1,0,0
-0.667,0.112,-0.537,compass,-63.432,-0.336,-56.368,-1.072,0.224,-1.05,0.0,3.5610014107159484,-60.0,261.707,3.878,23330.754,False,-3.751914010231867,-2.7794618478797024,3.87,-0.051,-0.469,-9.875,-0.068,261.707,258.815,True,0,1,0,0
-0.691,0.0,-0.541,compass,-90.0,-0.112,-83.011,-1.079,0.336,-0.97,0.0,3.591190942047815,-60.0,261.718,3.878,23330.854,False,-3.878044940072802,-2.872611632068995,3.87,-0.051,-0.355,-9.879,-0.022,261.718,258.815,True,0,1,0,0
-0.74,-0.112,-0.547,compass,101.311,0.112,-104.211,-1.093,-0.56,-0.97,0.0,3.5951184140789922,-60.0,261.743,3.676,23330.954,False,-3.878038181815775,-2.8714522285989976,3.87,-0.09,-0.434,-9.879,-0.022,261.743,259.122,True,0,1,0,0
-0.754,-0.224,-0.554,compass,104.038,-0.0,-42.468,-1.099,-0.895,-0.85,0.0,3.5388081252281935,-60.0,261.753,3.676,23331.054,False,-3.6760695643581793,-2.721332756089159,3.87,-0.051,-0.355,-9.879,0.041,261.753,259.122,True,0,1,0,0
-0.759,-0.112,-0.56,compass,135.003,-0.0,-72.399,-1.105,-0.112,-0.85,0.0,3.56090277556222,-60.0,261.758,3.871,23331.154,False,-3.6760956411405066,-2.721137103954355,3.87,-0.051,-0.434,-9.875,0.041,261.758,259.363,True,0,1,0,0
-0.759,0.0,-0.566,compass,-90.0,-0.0,-95.84,-1.105,0.336,-0.85,0.0,3.594451517987672,-60.0,261.763,3.871,23331.255,False,-3.870443698648914,-2.8647962637923907,3.87,-0.051,-0.355,-9.879,0.041,261.763,259.363,True,0,1,0,0
-0.759,0.0,-0.571,compass,-90.0,0.112,-113.895,-1.105,0.783,-0.25,0.0,3.561778669179195,-60.0,261.777,3.802,23331.355,False,-3.8702046835296025,-2.8641402438387877,3.87,-0.051,-0.434,-9.914,0.237,261.777,259.69,True,0,1,0,0
-0.764,-0.112,-0.577,compass,-97.126,0.112,-127.359,-1.111,0.895,-0.25,0.0,3.5139164738402817,-60.0,261.792,3.802,23331.455,False,-3.800906354106972,-2.8131165190962615,3.87,-0.051,-0.395,-9.875,0.237,261.792,259.69,True,0,1,0,0
-0.749,0.0,-0.588,compass,90.0,-0.112,-146.582,-1.106,-0.448,-0.13,0.0,3.542878155642592,-60.0,261.822,3.775,23331.655,False,-3.7719298294250234,-2.7916740008361076,3.87,-0.051,-0.434,-9.875,0.273,261.822,259.075,True,0,1,0,0
-0.749,0.0,-0.588,compass,90.0,-0.112,-146.582,-1.106,-0.448,-0.13,0.0,3.542878155642592,-60.0,261.822,3.775,23331.655,False,-3.7719298294250234,-2.7916740008361076,3.87,-0.051,-0.434,-9.875,0.273,261.822,259.075,True,0,1,0,0
-0.675,0.112,-0.594,compass,-44.997,0.56,-158.507,-1.106,0.112,-0.13,0.0,3.600875959273356,-60.0,261.875,3.777,23331.755,False,-3.773128776076965,-2.791014430088387,3.87,-0.051,-0.469,-9.875,0.273,261.875,258.932,True,0,1,0,0
-0.675,0.112,-0.594,compass,-44.997,0.56,-158.507,-1.106,0.112,-0.6,0.0,3.600875959273356,-60.0,261.875,3.777,23331.855,False,-3.773128776076965,-2.7907388168830782,3.87,-0.051,-0.469,-9.875,0.09,261.875,258.932,True,0,1,0,0
-0.631,0.224,-0.597,compass,-75.962,0.224,-164.71,-1.099,0.895,-0.6,0.0,3.541548074291317,-60.0,261.904,3.799,23332.055,False,-3.7900113222900154,-2.8052388127952983,3.87,-0.051,-0.469,-9.875,0.09,261.904,260.043,True,0,1,0,0
-0.617,0.0,-0.598,compass,-90.0,0.56,-166.894,-1.093,0.56,-1.61,0.0,3.5531195996111338,-60.0,261.919,3.799,23332.155,False,-3.7884107072662387,-2.8045658520671184,3.87,-0.051,-0.469,-9.875,-0.257,261.919,260.043,True,0,1,0,0
-0.602,0.0,-0.598,compass,90.0,0.448,-169.295,-1.088,-0.448,-1.61,0.0,3.5245887646925422,-60.0,261.934,3.657,23332.255,False,-3.648780572996713,-2.699171370289305,3.85,-0.09,-0.469,-9.879,-0.257,261.934,260.847,True,0,1,0,0
-0.584,0.112,-0.598,compass,78.689,0.224,-171.501,-1.067,-0.56,-2.06,0.0,3.485776009678821,-60.0,261.959,3.657,23332.355,False,-3.6513047188965007,-2.698086045174803,3.85,-0.09,-0.469,-9.918,-0.456,261.959,260.847,True,0,1,0,0
-0.57,0.112,-0.597,compass,75.962,0.224,-94.608,-1.062,-0.448,-2.06,0.0,3.4707020469527503,-60.0,261.979,3.649,23332.455,False,-3.6465891231949166,-2.69150404925769,3.85,-0.051,-0.469,-9.875,-0.456,261.979,262.26,True,0,1,0,0
-0.555,0.112,-0.595,compass,-44.996,0.224,-34.315,-1.056,0.112,-2.36,0.0,3.4911357482487486,-60.0,262.004,3.649,23332.555,False,-3.6476160271029316,-2.6904321469405352,3.85,-0.051,-0.434,-9.914,-0.561,262.004,262.26,True,0,1,0,0
-0.546,0.112,-0.594,compass,-82.874,0.112,-65.641,-1.056,0.895,-2.36,0.0,3.448793189506474,-60.0,262.033,3.771,23332.655,False,-3.7692566066939963,-2.77942412430964,3.85,-0.09,-0.469,-9.879,-0.561,262.033,260.879,True,0,1,0,0
-0.537,0.112,-0.592,compass,-81.869,-0.0,-89.742,-1.047,0.783,-2.44,0.0,3.4388153967318495,-60.0,262.092,3.771,23332.755,False,-3.767520834202728,-2.776784668098837,3.85,-0.051,-0.434,-9.914,-0.544,262.092,260.879,True,0,1,0,0
-0.547,0.0,-0.591,compass,90.0,-0.0,-109.014,-1.038,-0.448,-2.44,0.0,3.4629559968728962,-60.0,262.112,3.791,23332.855,False,-3.7868742006431853,-2.7901977526399038,3.85,-0.09,-0.469,-9.918,-0.544,262.112,259.802,True,0,1,0,0
-0.552,-0.224,-0.59,compass,102.53,0.112,-45.634,-1.044,-1.007,-2.49,0.0,3.41934494202148,-60.0,262.137,3.791,23332.955,False,-3.788759593704212,-2.789079871465023,3.85,-0.051,-0.434,-9.914,-0.515,262.137,259.802,True,0,1,0,0
-0.547,0.112,-0.588,compass,44.996,0.112,-74.73,-1.049,-0.112,-2.49,0.0,3.4854591362354093,-60.0,262.167,3.799,23333.056,False,-3.7963969025984667,-2.793480128386049,3.85,-0.051,-0.469,-9.914,-0.515,262.167,259.585,True,0,1,0,0
-0.551,-0.112,-0.587,compass,-116.568,0.56,-97.24,-1.055,0.224,-2.47,0.0,3.524731279619688,-60.0,262.202,3.799,23333.156,False,-3.7958260794265724,-2.7919153741770923,3.85,-0.051,-0.395,-9.914,-0.453,262.202,259.585,True,0,1,0,0
-0.557,0.0,-0.586,compass,-90.0,0.224,-114.214,-1.052,0.448,-2.47,0.0,3.5401369243868563,-60.0,262.247,3.808,23333.256,False,-3.803211714010164,-2.797034063528221,3.84,-0.051,-0.469,-9.914,-0.453,262.247,258.472,True,0,1,0,0
-0.571,0.112,-0.586,compass,-71.563,0.336,-127.435,-1.058,0.336,-2.47,0.0,3.5663095199031254,-60.0,262.276,3.808,23333.356,False,-3.8008716138317094,-2.7956946018739535,3.84,-0.051,-0.395,-9.914,-0.453,262.276,258.472,True,0,1,0,0
-0.571,0.112,-0.586,compass,-71.563,0.336,-127.435,-1.058,0.336,-2.47,0.0,3.5663095199031254,-60.0,262.276,3.804,23333.356,False,-3.8008716138317094,-2.7956946018739535,3.84,-0.051,-0.395,-9.914,-0.453,262.276,260.137,True,0,1,0,0
-0.592,-0.112,-0.586,compass,98.131,0.448,-147.524,-1.052,-0.783,-2.38,0.0,3.52661818399148,-60.0,262.351,3.804,23333.556,False,-3.800136070981494,-2.789463605965105,3.84,-0.051,-0.434,-9.914,-0.379,262.351,260.137,True,0,1,0,0
-0.603,-0.112,-0.587,compass,116.568,0.56,-154.191,-1.044,-0.224,-2.38,0.0,3.5541051456342094,-60.0,262.351,3.76,23333.556,False,-3.800136070981494,-2.789463605965105,3.84,-0.051,-0.469,-9.914,-0.379,262.416,258.986,True,0,1,0,0
-0.608,0.0,-0.587,compass,0.0,0.671,-159.108,-1.04,0.0,-2.34,0.0,3.599314574509247,-60.0,262.436,3.76,23333.756,False,-3.7550900434468253,-2.7528951202556247,3.84,-0.09,-0.434,-9.879,-0.321,262.436,258.986,True,0,1,0,0
-0.614,0.224,-0.588,compass,-63.433,0.56,-162.882,-1.026,0.448,-2.34,0.0,3.5880451427036038,-60.0,262.461,3.818,23333.856,False,-3.812599184887169,-2.794444210210966,3.84,-0.051,-0.469,-9.914,-0.289,262.461,258.256,True,0,1,0,0
-0.619,-0.112,-0.589,compass,-99.463,0.56,-165.303,-1.022,0.671,-2.34,0.0,3.561724659023128,-60.0,262.481,3.818,23333.956,False,-3.8098865137909894,-2.7935396373545434,3.84,-0.051,-0.469,-9.875,-0.289,262.481,258.256,True,0,1,0,0
-0.634,0.0,-0.59,compass,-90.0,0.671,-167.676,-1.018,0.224,-2.34,0.0,3.570250856523396,-60.0,262.491,3.701,23334.056,False,-3.693303562055403,-2.7077487645573246,3.84,-0.051,-0.508,-9.875,-0.26,262.491,259.645,True,0,1,0,0
-0.64,0.0,-0.592,compass,90.0,0.336,-169.592,-1.014,-0.671,-2.34,0.0,3.5195698109660345,-60.0,262.507,3.701,23334.157,False,-3.693417670921626,-2.7070744489241587,3.86,-0.051,-0.434,-9.875,-0.26,262.507,259.645,True,0,1,0,0
-0.64,-0.224,-0.593,compass,104.038,0.448,-93.002,-1.014,-0.895,-2.32,0.0,3.458776696914131,-60.0,262.521,3.715,23334.257,False,-3.7109874812839956,-2.7163866441025837,3.86,-0.051,-0.395,-9.875,-0.224,262.521,261.04,True,0,1,0,0
-0.639,0.0,-0.595,compass,-90.0,-0.0,-111.782,-1.024,0.112,-2.32,0.0,3.501829332247088,-60.0,262.536,3.715,23334.357,False,-3.7116285167240757,-2.7157276607940153,3.86,-0.051,-0.434,-9.875,-0.224,262.536,261.04,True,0,1,0,0
-0.649,-0.112,-0.596,compass,-108.437,-0.112,-47.999,-1.036,0.336,-2.32,0.0,3.4825873489179076,-60.0,262.575,3.589,23334.357,False,-3.587309167887425,-2.6216723204554024,3.86,-0.051,-0.434,-9.875,-0.224,262.575,265.624,True,0,1,0,0
-0.657,-0.224,-0.598,compass,-105.947,0.112,-76.561,-1.056,0.783,-2.3,0.0,3.4360024330200467,-60.0,262.595,3.589,23334.557,False,-3.587062545441553,-2.620841632675252,3.86,-0.051,-0.469,-9.875,-0.192,262.595,265.624,True,0,1,0,0
-0.661,-0.224,-0.6,compass,-116.568,-0.112,-20.162,-1.072,0.448,-2.3,0.0,3.46610982437096,-60.0,262.604,3.715,23334.657,False,-3.7140173918723187,-2.7126996713450153,3.86,-0.051,-0.434,-9.875,-0.192,262.604,266.333,True,0,1,0,0
-0.67,-0.448,-0.602,compass,128.663,0.112,23.417,-1.092,-0.56,-2.34,0.0,3.4385869503786393,-60.0,262.609,3.715,23334.757,False,-3.7147891910703468,-2.7124807755926503,3.86,-0.051,-0.469,-9.836,-0.187,262.609,266.333,True,0,1,0,0
-0.673,-0.336,-0.604,compass,113.201,0.112,-21.268,-1.118,-0.783,-2.34,0.0,3.413946507819384,-60.0,262.629,3.783,23334.857,False,-3.782868447657755,-2.7612916214271253,3.86,-0.09,-0.434,-9.84,-0.187,262.629,261.199,True,0,1,0,0
-0.672,-0.224,-0.606,compass,116.568,0.224,22.795,-1.138,-0.448,-2.34,0.0,3.4451758105200474,-60.0,262.638,3.783,23334.957,False,-3.782996977896275,-2.760866622823282,3.86,-0.09,-0.508,-9.879,-0.187,262.638,261.199,True,0,1,0,0
-0.666,-0.336,-0.608,compass,-161.567,0.448,-21.444,-1.152,0.112,-2.3,0.0,3.4681153559652564,-60.0,262.647,3.738,23335.057,False,-3.7381511218233405,-2.7278137925230586,3.87,-0.09,-0.434,-9.879,-0.155,262.647,261.591,True,0,1,0,0
-0.66,-0.112,-0.61,compass,-101.311,0.224,-55.503,-1.167,0.56,-2.3,0.0,3.4697007502154964,-60.0,262.662,3.738,23335.157,False,-3.7374450509089194,-2.7271575749305996,3.87,-0.129,-0.508,-9.879,-0.155,262.662,261.591,True,0,1,0,0
-0.659,-0.112,-0.611,compass,-101.312,0.448,-81.725,-1.187,0.56,-2.3,0.0,3.5005340253441526,-60.0,262.672,3.814,23335.258,False,-3.8115058714149175,-2.782037904246949,3.87,-0.129,-0.434,-9.879,-0.155,262.672,261.018,True,0,1,0,0
-0.659,0.224,-0.613,compass,74.052,0.336,-102.388,-1.197,-0.783,-2.34,0.0,3.4793415863143062,-60.0,262.691,3.814,23335.358,False,-3.8101384372882428,-2.7811492665717186,3.87,-0.09,-0.469,-9.879,-0.153,262.691,261.018,True,0,1,0,0
-0.668,0.224,-0.614,compass,75.962,0.56,-118.872,-1.199,-0.895,-2.34,0.0,3.417162025249444,-60.0,262.721,3.697,23335.458,False,-3.6935319460353724,-2.694784259095397,3.87,-0.129,-0.395,-9.879,-0.153,262.721,260.182,True,0,1,0,0
-0.669,0.224,-0.616,compass,56.306,0.783,-131.904,-1.189,-0.336,-2.63,0.0,3.4316192109742656,-60.0,262.746,3.697,23335.558,False,-3.6939778623826336,-2.6936698151309684,3.87,-0.09,-0.469,-9.879,-0.282,262.746,260.182,True,0,1,0,0
-0.675,0.336,-0.618,compass,-18.433,0.895,-141.741,-1.175,0.112,-2.63,0.0,3.4444829217514092,-60.0,262.766,3.682,23335.658,False,-3.6778396506630746,-2.6814526204326867,3.87,-0.09,-0.434,-9.879,-0.282,262.766,259.229,True,0,1,0,0
-0.676,0.336,-0.619,compass,-59.033,0.783,-149.11,-1.166,0.56,-2.63,0.0,3.420470970873417,-60.0,262.786,3.682,23335.758,False,-3.6763066684958066,-2.680573211497526,3.87,-0.09,-0.508,-9.918,-0.282,262.786,259.229,True,0,1,0,0
-0.677,0.224,-0.621,compass,-71.563,0.671,-154.709,-1.147,0.671,-3.53,0.0,3.397621555764747,-60.0,262.816,3.662,23335.858,False,-3.6549092583756457,-2.6651025068954364,3.87,-0.051,-0.434,-9.875,-0.554,262.816,260.139,True,0,1,0,0
-0.684,0.224,-0.623,compass,-26.562,0.895,-159.464,-1.123,0.112,-3.53,0.0,3.42902190439385,-60.0,262.862,3.662,23335.958,False,-3.654779232943393,-2.663112719957305,3.87,-0.051,-0.508,-9.914,-0.554,262.862,260.139,True,0,1,0,0
-0.691,0.224,-0.625,compass,75.962,0.671,-163.423,-1.1,-0.895,-3.53,0.0,3.3853567026569085,-60.0,262.907,3.731,23336.058,False,-3.72360188145504,-2.710558437155088,3.87,-0.051,-0.434,-9.836,-0.554,262.907,260.864,True,0,1,0,0
-0.697,0.112,-0.627,compass,84.289,0.448,-88.102,-1.076,-1.119,-3.24,0.0,3.332883579490054,-60.0,262.952,3.731,23336.158,False,-3.726803571711212,-2.708528700846413,3.87,-0.051,-0.395,-9.875,-0.402,262.952,260.864,True,0,1,0,0
-0.698,0.112,-0.629,compass,0.0,0.112,-29.556,-1.058,0.0,-3.24,0.0,3.395912450613927,-60.0,262.997,3.678,23336.258,False,-3.676569957312781,-2.6684523049147084,3.87,-0.051,-0.434,-9.836,-0.402,262.997,264.606,True,0,1,0,0
-0.71,0.112,-0.632,compass,-78.689,0.112,16.29,-1.03,0.56,-3.24,0.0,3.3901220709836397,-60.0,263.077,3.678,23336.358,False,-3.6773761874577993,-2.6648986349692336,3.87,-0.051,-0.355,-9.84,-0.402,263.077,264.606,True,0,1,0,0
-0.716,-0.112,-0.634,compass,-104.037,0.112,-26.534,-1.027,0.448,-2.22,0.0,3.3939352662170283,-60.0,263.122,3.628,23336.458,False,-3.626669702956531,-2.6263173960349304,3.87,-0.051,-0.395,-9.836,-0.021,263.122,263.529,True,0,1,0,0
-0.73,-0.224,-0.637,compass,111.803,0.112,18.734,-1.033,-0.56,-2.22,0.0,3.373473477997306,-60.0,263.162,3.628,23336.558,False,-3.6271133275988405,-2.6245881726801765,3.87,-0.051,-0.355,-9.879,-0.021,263.162,263.529,True,0,1,0,0
-0.735,-0.224,-0.64,compass,-153.437,0.112,-24.202,-1.04,0.112,-2.22,0.0,3.421804788416292,-60.0,263.206,3.705,23336.658,False,-3.7040669769540138,-2.6788542220350293,3.87,-0.051,-0.395,-9.836,-0.021,263.206,260.932,True,0,1,0,0
-0.735,-0.112,-0.643,compass,180.0,-0.112,-58.001,-1.05,0.0,-0.91,0.0,3.471106137090795,-60.0,263.236,3.705,23336.758,False,-3.7037834543251633,-2.6775405428934778,3.87,-0.051,-0.355,-9.879,0.416,263.236,260.932,True,0,1,0,0
-0.754,-0.224,-0.646,compass,116.567,-0.224,-84.268,-1.062,-0.448,-0.91,0.0,3.441553784032593,-60.0,263.266,3.563,23336.858,False,-3.5614998581098507,-2.5737143201199597,3.87,-0.051,-0.434,-9.836,0.416,263.266,258.226,True,0,1,0,0
-0.759,-0.224,-0.65,compass,-111.803,0.224,-104.192,-1.068,0.56,-0.91,0.0,3.3963998632013155,-60.0,263.295,3.563,23336.958,False,-3.559707442629168,-2.5724417072738563,3.88,-0.051,-0.395,-9.836,0.416,263.295,258.226,True,0,1,0,0
-0.763,-0.224,-0.653,compass,180.0,0.112,-119.652,-1.083,0.0,-0.19,0.0,3.4053552672970677,-60.0,263.32,3.534,23337.058,False,-3.5285014536438473,-2.5503354348883773,3.88,-0.051,-0.395,-9.875,0.616,263.32,256.612,True,0,1,0,0
-0.758,-0.224,-0.656,compass,-116.567,-0.112,-131.463,-1.089,0.448,-0.19,0.0,3.3739574235320373,-60.0,263.349,3.534,23337.158,False,-3.5255032636293673,-2.5490780077050554,3.88,-0.09,-0.395,-9.879,0.616,263.349,256.612,True,0,1,0,0
-0.756,-0.336,-0.659,compass,-146.313,-0.0,-140.632,-1.118,0.224,-0.19,0.0,3.406326984328157,-60.0,263.364,3.707,23337.258,False,-3.6950007016877136,-2.6732204932329258,3.88,-0.09,-0.434,-9.84,0.616,263.364,258.354,True,0,1,0,0
-0.751,-0.224,-0.662,compass,-153.437,0.224,-147.787,-1.123,0.112,0.11,0.0,3.457503296871397,-60.0,263.348,3.707,23337.358,False,-3.6924292299704584,-2.6739053391392615,3.88,-0.051,-0.395,-9.914,0.654,263.348,258.354,True,0,1,0,0
-0.736,-0.112,-0.664,compass,180.0,-0.112,-154.023,-1.126,0.0,0.11,0.0,3.5354708500151277,-60.0,263.328,3.872,23337.459,False,-3.858725037573668,-2.7940279004534148,3.88,-0.09,-0.434,-9.879,0.654,263.328,259.571,True,0,1,0,0
-0.726,0.224,-0.666,compass,71.563,-0.224,-159.157,-1.115,-0.671,0.75,0.0,3.526515918544307,-60.0,263.299,3.872,23337.559,False,-3.861449246741629,-2.795410025954472,3.88,-0.051,-0.434,-9.914,0.911,263.299,259.571,True,0,1,0,0
-0.712,0.112,-0.667,compass,-82.874,0.112,-162.748,-1.109,0.895,0.75,0.0,3.4400658772914965,-60.0,263.269,3.614,23337.659,False,-3.603539728436925,-2.610065698813197,3.88,-0.09,-0.469,-9.918,0.911,263.269,260.371,True,0,1,0,0
-0.707,0.112,-0.669,compass,-71.563,-0.224,-165.623,-1.093,0.336,0.75,0.0,3.440030633181298,-60.0,263.225,3.614,23337.759,False,-3.603872076515622,-2.612004256161502,3.88,-0.09,-0.434,-9.918,0.911,263.225,260.371,True,0,1,0,0
-0.688,0.224,-0.669,compass,63.433,-0.224,-168.181,-1.081,-0.448,1.7,0.0,3.4508485877375055,-60.0,263.17,3.76,23337.859,False,-3.75103223609545,-2.7198607400046453,3.88,-0.09,-0.469,-9.918,1.137,263.17,260.833,True,0,1,0,0
-0.679,0.336,-0.669,compass,0.0,-0.224,-170.227,-1.069,0.0,1.7,0.0,3.4788153916612794,-60.0,263.115,3.76,23337.959,False,-3.752501484828169,-2.72232885782923,3.88,-0.09,-0.469,-9.918,1.137,263.115,260.833,True,0,1,0,0
-0.659,0.112,-0.669,compass,-71.563,-0.0,-171.475,-1.057,0.336,1.7,0.0,3.5182570465658967,-60.0,263.061,3.837,23338.059,False,-3.8297805531230282,-2.7811565202928303,3.88,-0.051,-0.508,-9.836,1.137,263.061,260.017,True,0,1,0,0
-0.62,0.112,-0.668,compass,44.997,-0.224,-172.67,-1.042,-0.112,1.84,0.0,3.569687547930133,-60.0,262.957,3.837,23338.159,False,-3.8305971085352786,-2.785963795902921,3.88,-0.051,-0.508,-9.875,1.07,262.957,260.017,True,0,1,0,0
-0.595,0.112,-0.665,compass,71.563,-0.448,-173.743,-1.034,-0.336,1.84,0.0,3.5634682297311655,-60.0,262.902,3.731,23338.259,False,-3.724834480594635,-2.710794050577416,3.88,-0.051,-0.469,-9.836,1.07,262.902,259.924,True,0,1,0,0
-0.571,-0.112,-0.663,compass,-104.038,-0.224,-174.228,-1.027,0.448,1.84,0.0,3.5473599044507704,-60.0,262.857,3.731,23338.359,False,-3.7242453022751723,-2.7128037335307864,3.88,-0.09,-0.508,-9.879,1.07,262.857,259.924,True,0,1,0,0
-0.546,0.0,-0.659,compass,-90.0,-0.0,-174.794,-1.029,0.224,1.57,0.0,3.5736650854831216,-60.0,262.817,3.769,23338.459,False,-3.7632870875891355,-2.7428796385158973,3.88,-0.051,-0.469,-9.875,0.872,262.817,260.627,True,0,1,0,0
-0.521,-0.112,-0.655,compass,101.311,-0.224,-175.403,-1.032,-0.56,1.57,0.0,3.5487082710993505,-60.0,262.782,3.769,23338.559,False,-3.7640505764507206,-2.7444726357486076,3.88,-0.09,-0.508,-9.84,0.872,262.782,260.627,True,0,1,0,0
-0.5,-0.112,-0.65,compass,-108.437,-0.0,-175.802,-1.04,0.336,0.98,0.0,3.5881611735528045,-60.0,262.751,3.9,23338.659,False,-3.8944149699842603,-2.8407096610830376,3.88,-0.09,-0.508,-9.879,0.492,262.751,261.27,True,0,1,0,0
-0.469,-0.224,-0.645,compass,-123.694,-0.336,-175.863,-1.057,0.336,0.98,0.0,3.6251146222898747,-60.0,262.716,3.9,23338.759,False,-3.893755820521144,-2.8423760955872854,3.88,-0.09,-0.508,-9.84,0.492,262.716,261.27,True,0,1,0,0
-0.448,-0.112,-0.639,compass,108.437,-0.448,-176.073,-1.075,-0.336,0.32,0.0,3.619062875454591,-60.0,262.675,3.783,23338.859,False,-3.777386668058332,-2.7591781813571132,3.88,-0.09,-0.508,-9.879,0.11,262.675,260.276,True,0,1,0,0
-0.417,-0.112,-0.632,compass,-116.569,-0.224,-176.135,-1.091,0.224,0.32,0.0,3.631666685650779,-60.0,262.63,3.783,23338.959,False,-3.7771009677169265,-2.7612387437699737,3.88,-0.09,-0.547,-9.836,0.11,262.63,260.276,True,0,1,0,0
-0.38,-0.112,-0.625,compass,40.709,-0.112,-170.771,-1.122,-0.56,0.32,2.01,3.2353422470549043,-60.0,262.564,3.649,23339.059,False,-3.6072501271542228,-2.666196524846079,3.88,-0.09,-0.547,-9.836,0.11,262.564,259.685,True,0,1,0,0
-0.36,-0.112,-0.617,compass,25.953,-0.0,-169.752,-1.13,0.56,-0.6,2.01,2.94461739424255,-60.0,262.554,3.649,23339.159,False,-3.595650009560442,-2.666648873459987,3.88,-0.09,-0.547,-9.914,-0.207,262.554,259.685,True,0,1,0,0
-0.334,-0.112,-0.608,compass,31.13,-0.0,-170.585,-1.143,0.224,-0.6,2.229,2.6702037371967,-60.0,262.543,3.804,23339.259,False,-3.7569772184963255,-2.7807853595988035,3.88,-0.09,-0.508,-9.918,-0.207,262.543,259.667,True,0,1,0,0
-0.323,-0.224,-0.6,compass,40.962,-0.336,-94.918,-1.152,-0.56,-1.18,2.229,2.417806469165987,-60.0,262.537,3.804,23339.36,False,-3.786027899588551,-2.7810416844789367,3.88,-0.09,-0.547,-9.914,-0.477,262.537,259.667,True,0,1,0,0
-0.303,-0.112,-0.591,compass,30.038,-0.0,-37.205,-1.161,0.336,-1.18,2.468,2.2255807254139364,-60.0,262.556,3.769,23339.46,False,-3.767816797090811,-2.754600765835313,3.88,-0.09,-0.547,-9.914,-0.477,262.556,259.303,True,0,1,0,0
-0.298,-0.112,-0.582,compass,36.106,-0.112,5.649,-1.167,-0.224,-1.83,2.468,2.0702613246249735,-60.0,262.576,3.769,23339.56,False,-3.7620102801020128,-2.753723358731896,3.88,-0.09,-0.547,-9.914,-0.745,262.576,259.303,True,0,1,0,0
-0.288,-0.112,-0.573,compass,31.374,0.112,38.119,-1.167,0.224,-1.83,2.548,1.9853238036015008,-60.0,262.611,3.771,23339.66,False,-3.728511849297427,-2.7535827207605688,3.88,-0.09,-0.547,-9.914,-0.745,262.611,260.628,True,0,1,0,0
-0.279,0.0,-0.564,compass,34.126,0.336,62.019,-1.167,-0.112,-2.14,2.548,1.9203148497668314,-60.0,262.645,3.771,23339.76,False,-3.659063116886123,-2.752020977234907,3.89,-0.09,-0.547,-9.914,-0.817,262.645,260.628,True,0,1,0,0
-0.273,0.224,-0.556,compass,34.814,-0.112,78.744,-1.173,-0.336,-2.14,2.528,1.839767553129182,-60.0,262.685,3.604,23339.86,False,-3.384158346003936,-2.6283345272564973,3.89,-0.09,-0.508,-9.918,-0.817,262.685,259.802,True,0,1,0,0
-0.279,0.112,-0.547,compass,34.485,0.112,92.186,-1.169,-0.224,-2.14,2.528,1.8001323761155497,-60.0,262.73,3.604,23339.96,False,-3.28000387975659,-2.626399937742973,3.89,-0.09,-0.547,-9.914,-0.817,262.73,259.802,True,0,1,0,0
-0.284,0.0,-0.54,compass,37.544,0.448,103.617,-1.175,-0.448,-2.2,2.428,1.8052449824451062,-60.0,262.759,3.703,23340.06,False,-3.300903678799162,-2.6973388831453438,3.89,-0.09,-0.508,-9.918,-0.756,262.759,259.208,True,0,1,0,0
-0.298,-0.224,-0.532,compass,35.836,0.224,113.629,-1.182,-0.112,-2.2,2.428,1.839146560328794,-60.0,262.779,3.703,23340.16,False,-3.275891399672543,-2.6964605584235506,3.89,-0.09,-0.508,-9.918,-0.756,262.779,259.208,True,0,1,0,0
-0.317,-0.112,-0.526,compass,38.847,0.112,121.377,-1.193,-0.448,-2.2,2.229,1.9028615923909826,-60.0,262.794,3.771,23340.261,False,-3.3136643971912507,-2.7453180351661186,3.89,-0.09,-0.547,-9.875,-0.756,262.794,260.223,True,0,1,0,0
-0.338,0.112,-0.52,compass,35.876,0.448,127.046,-1.185,-0.336,-2.42,2.229,1.9518815548221489,-60.0,262.814,3.771,23340.361,False,-3.2838373893327772,-2.7444021341788334,3.89,-0.09,-0.508,-9.879,-0.753,262.814,260.223,True,0,1,0,0
-0.363,0.112,-0.515,compass,40.825,-0.0,131.572,-1.182,-0.783,-2.42,2.07,1.9877294799365528,-60.0,262.845,3.732,23340.461,False,-3.2300307229739187,-2.714763795717274,3.89,-0.09,-0.508,-9.84,-0.753,262.845,259.156,True,0,1,0,0
-0.388,0.0,-0.512,compass,37.025,0.224,136.139,-1.18,-0.336,-2.4,2.07,2.0366893674010753,-60.0,262.88,3.732,23340.561,False,-3.2481033298380475,-2.713182946239858,3.89,-0.051,-0.469,-9.914,-0.667,262.88,259.156,True,0,1,0,0
-0.418,0.112,-0.509,compass,78.688,0.112,66.791,-1.172,-0.56,-2.4,0.0,2.3312491866806826,-60.0,262.9,3.604,23340.661,False,-3.3216217389660003,-2.619034485223909,3.88,-0.09,-0.469,-9.879,-0.667,262.9,258.681,True,0,1,0,0
-0.453,0.112,-0.507,compass,82.874,-0.0,91.205,-1.17,-0.895,-2.4,0.0,2.5453482139723937,-60.0,262.936,3.604,23340.761,False,-3.4225138553444108,-2.6175002349210916,3.88,-0.09,-0.469,-9.879,-0.667,262.936,258.681,True,0,1,0,0
-0.524,0.112,-0.508,compass,44.4,0.336,103.602,-1.167,-0.336,-2.22,2.09,2.621974656609596,-60.0,263.027,3.857,23340.861,False,-3.5931919239028507,-2.796834431371898,3.88,-0.051,-0.469,-9.875,-0.541,263.027,259.824,True,0,1,0,0
-0.558,0.0,-0.509,compass,46.578,0.224,113.298,-1.165,-0.448,-2.22,2.11,2.6722496800700872,-60.0,263.057,3.857,23340.961,False,-3.5315103482826875,-2.7954319698548598,3.88,-0.09,-0.469,-9.879,-0.541,263.057,259.824,True,0,1,0,0
-0.619,0.112,-0.515,compass,31.924,0.112,127.27,-1.15,-0.224,-1.44,2.11,2.6101311073674154,-60.0,263.123,3.725,23341.161,False,-3.332853038137042,-2.69667134432622,3.88,-0.09,-0.434,-9.879,-0.225,263.123,259.468,True,0,1,0,0
-0.619,0.112,-0.515,compass,31.924,0.112,127.27,-1.15,-0.224,-1.44,2.209,2.6101311073674154,-60.0,263.123,3.725,23341.161,False,-3.332853038137042,-2.69667134432622,3.88,-0.09,-0.434,-9.879,-0.225,263.123,259.468,True,0,1,0,0
-0.675,0.112,-0.524,compass,30.553,0.224,134.259,-1.129,-0.112,-1.44,2.209,2.4257737411968385,-60.0,263.169,3.536,23341.361,False,-3.0698105671216083,-2.558185701563164,3.88,-0.051,-0.395,-9.875,-0.225,263.169,258.884,True,0,1,0,0
